[{"id":"964a41de-c494-4a66-9440-48b5c790aaef","name":"Acharnés","ru":"Acharnés","country":"5770e692-24de-424b-bf23-444c56b909fe","countryCode":"GR","state":"5f1c42f0-e09e-451a-9d6d-5692e7807004","stateCode":"I","latitude":"38.08333000","longitude":"23.73333000"},{"id":"942079c7-d599-490e-a557-a99b99e4cbb6","name":"Aegina","ru":"Aegina","country":"5770e692-24de-424b-bf23-444c56b909fe","countryCode":"GR","state":"5f1c42f0-e09e-451a-9d6d-5692e7807004","stateCode":"I","latitude":"37.74667000","longitude":"23.42750000"},{"id":"c32f0d4e-3855-4ac7-b878-ec29cdb62b06","name":"Afidnés","ru":"Afidnés","country":"5770e692-24de-424b-bf23-444c56b909fe","countryCode":"GR","state":"5f1c42f0-e09e-451a-9d6d-5692e7807004","stateCode":"I","latitude":"38.20332000","longitude":"23.83982000"},{"id":"7662819b-1b0d-4f5a-ad73-90477dfaed5c","name":"Agía Marína","ru":"Agía Marína","country":"5770e692-24de-424b-bf23-444c56b909fe","countryCode":"GR","state":"5f1c42f0-e09e-451a-9d6d-5692e7807004","stateCode":"I","latitude":"37.82036000","longitude":"23.84424000"},{"id":"4a8d73b2-b6aa-44ab-96ba-5120fc1a99f4","name":"Agía Paraskeví","ru":"Agía Paraskeví","country":"5770e692-24de-424b-bf23-444c56b909fe","countryCode":"GR","state":"5f1c42f0-e09e-451a-9d6d-5692e7807004","stateCode":"I","latitude":"38.01667000","longitude":"23.83333000"},{"id":"4517712a-217e-4921-93db-79a19a7416d0","name":"Agía Varvára","ru":"Agía Varvára","country":"5770e692-24de-424b-bf23-444c56b909fe","countryCode":"GR","state":"5f1c42f0-e09e-451a-9d6d-5692e7807004","stateCode":"I","latitude":"37.98938000","longitude":"23.66011000"},{"id":"72a2d8c6-dcaa-479e-a8b9-c14ef6a8f237","name":"Aghios Panteleímon","ru":"Aghios Panteleímon","country":"5770e692-24de-424b-bf23-444c56b909fe","countryCode":"GR","state":"5f1c42f0-e09e-451a-9d6d-5692e7807004","stateCode":"I","latitude":"38.11643000","longitude":"23.98182000"},{"id":"b222c711-273d-4ae0-94ab-eba531d1c253","name":"Agios Dimítrios Kropiás","ru":"Agios Dimítrios Kropiás","country":"5770e692-24de-424b-bf23-444c56b909fe","countryCode":"GR","state":"5f1c42f0-e09e-451a-9d6d-5692e7807004","stateCode":"I","latitude":"37.80612000","longitude":"23.85793000"},{"id":"b12ee422-8385-4a8a-8d43-8b3854ec7cc2","name":"Agios Dimitrios","ru":"Agios Dimitrios","country":"5770e692-24de-424b-bf23-444c56b909fe","countryCode":"GR","state":"5f1c42f0-e09e-451a-9d6d-5692e7807004","stateCode":"I","latitude":"37.93333000","longitude":"23.73333000"},{"id":"392478c1-dd76-4765-8edb-925c7e0f5286","name":"Agios Ioannis Rentis","ru":"Agios Ioannis Rentis","country":"5770e692-24de-424b-bf23-444c56b909fe","countryCode":"GR","state":"5f1c42f0-e09e-451a-9d6d-5692e7807004","stateCode":"I","latitude":"37.96491000","longitude":"23.66511000"},{"id":"4d76c83b-30eb-45bd-b842-aed6cafd677f","name":"Aiánteio","ru":"Aiánteio","country":"5770e692-24de-424b-bf23-444c56b909fe","countryCode":"GR","state":"5f1c42f0-e09e-451a-9d6d-5692e7807004","stateCode":"I","latitude":"37.92135000","longitude":"23.45877000"},{"id":"bffd2e57-1fac-45a6-b729-8d2d0b2d121b","name":"Aigáleo","ru":"Aigáleo","country":"5770e692-24de-424b-bf23-444c56b909fe","countryCode":"GR","state":"5f1c42f0-e09e-451a-9d6d-5692e7807004","stateCode":"I","latitude":"37.98333000","longitude":"23.68333000"},{"id":"15451640-d912-46f7-a008-55ae41542b48","name":"Ampelákia","ru":"Ampelákia","country":"5770e692-24de-424b-bf23-444c56b909fe","countryCode":"GR","state":"5f1c42f0-e09e-451a-9d6d-5692e7807004","stateCode":"I","latitude":"37.95055000","longitude":"23.52803000"},{"id":"d48f5632-8bb4-425c-a125-e673f7a1f154","name":"Anávyssos","ru":"Anávyssos","country":"5770e692-24de-424b-bf23-444c56b909fe","countryCode":"GR","state":"5f1c42f0-e09e-451a-9d6d-5692e7807004","stateCode":"I","latitude":"37.73414000","longitude":"23.94389000"},{"id":"8cfe2f92-5848-4684-b96e-cb17e364719e","name":"Anoixi","ru":"Anoixi","country":"5770e692-24de-424b-bf23-444c56b909fe","countryCode":"GR","state":"5f1c42f0-e09e-451a-9d6d-5692e7807004","stateCode":"I","latitude":"38.13267000","longitude":"23.85874000"},{"id":"f9ae4123-111b-4b3e-9c4e-0c66684d0714","name":"Anthoúsa","ru":"Anthoúsa","country":"5770e692-24de-424b-bf23-444c56b909fe","countryCode":"GR","state":"5f1c42f0-e09e-451a-9d6d-5692e7807004","stateCode":"I","latitude":"38.02544000","longitude":"23.87617000"},{"id":"a8ec6853-822b-4e54-8283-aa2f30b1dc37","name":"Argithéa","ru":"Argithéa","country":"5770e692-24de-424b-bf23-444c56b909fe","countryCode":"GR","state":"5f1c42f0-e09e-451a-9d6d-5692e7807004","stateCode":"I","latitude":"37.97506000","longitude":"23.88556000"},{"id":"6900f376-5635-4a3c-8208-17ee432113a4","name":"Argyroúpoli","ru":"Argyroúpoli","country":"5770e692-24de-424b-bf23-444c56b909fe","countryCode":"GR","state":"5f1c42f0-e09e-451a-9d6d-5692e7807004","stateCode":"I","latitude":"37.90594000","longitude":"23.75035000"},{"id":"dcf25ade-e91d-45aa-b7fa-1ab493f78a59","name":"Artémida","ru":"Artémida","country":"5770e692-24de-424b-bf23-444c56b909fe","countryCode":"GR","state":"5f1c42f0-e09e-451a-9d6d-5692e7807004","stateCode":"I","latitude":"37.96727000","longitude":"23.99684000"},{"id":"1e2181f4-64db-4a28-b398-7109ce0172cb","name":"Asprópyrgos","ru":"Asprópyrgos","country":"5770e692-24de-424b-bf23-444c56b909fe","countryCode":"GR","state":"5f1c42f0-e09e-451a-9d6d-5692e7807004","stateCode":"I","latitude":"38.06134000","longitude":"23.58971000"},{"id":"dabcec39-0dd2-41ad-9c3c-b26a8a554a3b","name":"Athens","ru":"Athens","country":"5770e692-24de-424b-bf23-444c56b909fe","countryCode":"GR","state":"5f1c42f0-e09e-451a-9d6d-5692e7807004","stateCode":"I","latitude":"37.98376000","longitude":"23.72784000"},{"id":"f89aed8f-8047-4076-a05f-a0911a85d27f","name":"Avlónas","ru":"Avlónas","country":"5770e692-24de-424b-bf23-444c56b909fe","countryCode":"GR","state":"5f1c42f0-e09e-451a-9d6d-5692e7807004","stateCode":"I","latitude":"38.25149000","longitude":"23.69554000"},{"id":"0f9c1375-9aa6-4dae-b145-d8520ca9d1f8","name":"Ágioi Anárgyroi","ru":"Ágioi Anárgyroi","country":"5770e692-24de-424b-bf23-444c56b909fe","countryCode":"GR","state":"5f1c42f0-e09e-451a-9d6d-5692e7807004","stateCode":"I","latitude":"38.03013000","longitude":"23.72379000"},{"id":"84399ec1-7dff-4f53-82e9-d1317d38dc0c","name":"Ágios Stéfanos","ru":"Ágios Stéfanos","country":"5770e692-24de-424b-bf23-444c56b909fe","countryCode":"GR","state":"5f1c42f0-e09e-451a-9d6d-5692e7807004","stateCode":"I","latitude":"38.14657000","longitude":"23.85608000"},{"id":"d697d181-8907-4afb-a996-c95ac1948333","name":"Álimos","ru":"Álimos","country":"5770e692-24de-424b-bf23-444c56b909fe","countryCode":"GR","state":"5f1c42f0-e09e-451a-9d6d-5692e7807004","stateCode":"I","latitude":"37.91033000","longitude":"23.72361000"},{"id":"dd154f60-9c7e-4377-867f-7de3815a7441","name":"Áno Liósia","ru":"Áno Liósia","country":"5770e692-24de-424b-bf23-444c56b909fe","countryCode":"GR","state":"5f1c42f0-e09e-451a-9d6d-5692e7807004","stateCode":"I","latitude":"38.08333000","longitude":"23.70000000"},{"id":"2fc956f3-0d36-4aca-bb98-d4bcf062f7c6","name":"Áyioi Apóstoloi","ru":"Áyioi Apóstoloi","country":"5770e692-24de-424b-bf23-444c56b909fe","countryCode":"GR","state":"5f1c42f0-e09e-451a-9d6d-5692e7807004","stateCode":"I","latitude":"38.29169000","longitude":"23.91011000"},{"id":"88f97d7f-6929-400c-9b90-88d1ba777253","name":"Ílion","ru":"Ílion","country":"5770e692-24de-424b-bf23-444c56b909fe","countryCode":"GR","state":"5f1c42f0-e09e-451a-9d6d-5692e7807004","stateCode":"I","latitude":"38.03333000","longitude":"23.70000000"},{"id":"7e943dc8-488d-48cd-81df-accd17cdbf7d","name":"Ýdra","ru":"Ýdra","country":"5770e692-24de-424b-bf23-444c56b909fe","countryCode":"GR","state":"5f1c42f0-e09e-451a-9d6d-5692e7807004","stateCode":"I","latitude":"37.34976000","longitude":"23.46560000"},{"id":"9f4bf9e2-f980-4be9-9429-0af6e2a6198b","name":"Chaïdári","ru":"Chaïdári","country":"5770e692-24de-424b-bf23-444c56b909fe","countryCode":"GR","state":"5f1c42f0-e09e-451a-9d6d-5692e7807004","stateCode":"I","latitude":"38.01135000","longitude":"23.66597000"},{"id":"3a1c7874-44a9-4c37-8d21-02a656a9bdb3","name":"Cholargós","ru":"Cholargós","country":"5770e692-24de-424b-bf23-444c56b909fe","countryCode":"GR","state":"5f1c42f0-e09e-451a-9d6d-5692e7807004","stateCode":"I","latitude":"38.00000000","longitude":"23.80000000"},{"id":"ddfc7cbf-cbc8-41b7-a194-3e42ece2df03","name":"Dhafní","ru":"Dhafní","country":"5770e692-24de-424b-bf23-444c56b909fe","countryCode":"GR","state":"5f1c42f0-e09e-451a-9d6d-5692e7807004","stateCode":"I","latitude":"37.95002000","longitude":"23.73437000"},{"id":"debccfe4-b38f-46c3-a39b-fd5f7106ff96","name":"Dhráfi","ru":"Dhráfi","country":"5770e692-24de-424b-bf23-444c56b909fe","countryCode":"GR","state":"5f1c42f0-e09e-451a-9d6d-5692e7807004","stateCode":"I","latitude":"38.02375000","longitude":"23.90788000"},{"id":"1ad72d4b-6d9c-4cff-8c4a-7864082a1e52","name":"Dióni","ru":"Dióni","country":"5770e692-24de-424b-bf23-444c56b909fe","countryCode":"GR","state":"5f1c42f0-e09e-451a-9d6d-5692e7807004","stateCode":"I","latitude":"38.02328000","longitude":"23.93286000"},{"id":"3deaa817-8960-468c-9710-f91223ff173c","name":"Diónysos","ru":"Diónysos","country":"5770e692-24de-424b-bf23-444c56b909fe","countryCode":"GR","state":"5f1c42f0-e09e-451a-9d6d-5692e7807004","stateCode":"I","latitude":"38.10458000","longitude":"23.87938000"},{"id":"16dbb9df-d1b6-4ae0-a143-b90aadb235ce","name":"Drapetsóna","ru":"Drapetsóna","country":"5770e692-24de-424b-bf23-444c56b909fe","countryCode":"GR","state":"5f1c42f0-e09e-451a-9d6d-5692e7807004","stateCode":"I","latitude":"37.94988000","longitude":"23.62309000"},{"id":"14620189-5ee7-4024-b53b-da738ce935d6","name":"Drosiá","ru":"Drosiá","country":"5770e692-24de-424b-bf23-444c56b909fe","countryCode":"GR","state":"5f1c42f0-e09e-451a-9d6d-5692e7807004","stateCode":"I","latitude":"38.11977000","longitude":"23.86428000"},{"id":"1be1ac3f-a6e0-4678-a58d-1ee46b38a3e9","name":"Ekáli","ru":"Ekáli","country":"5770e692-24de-424b-bf23-444c56b909fe","countryCode":"GR","state":"5f1c42f0-e09e-451a-9d6d-5692e7807004","stateCode":"I","latitude":"38.11035000","longitude":"23.83505000"},{"id":"e7050e8a-0487-4425-a1e3-42844819cec4","name":"Elefsína","ru":"Elefsína","country":"5770e692-24de-424b-bf23-444c56b909fe","countryCode":"GR","state":"5f1c42f0-e09e-451a-9d6d-5692e7807004","stateCode":"I","latitude":"38.04135000","longitude":"23.54295000"},{"id":"c89c8faf-ae1b-40d3-830f-4a77eca87b83","name":"Ellinikó","ru":"Ellinikó","country":"5770e692-24de-424b-bf23-444c56b909fe","countryCode":"GR","state":"5f1c42f0-e09e-451a-9d6d-5692e7807004","stateCode":"I","latitude":"37.89013000","longitude":"23.74406000"},{"id":"23826955-7951-433b-988b-546c00da92d5","name":"Erythrés","ru":"Erythrés","country":"5770e692-24de-424b-bf23-444c56b909fe","countryCode":"GR","state":"5f1c42f0-e09e-451a-9d6d-5692e7807004","stateCode":"I","latitude":"38.21741000","longitude":"23.32234000"},{"id":"a0eedf78-b24f-4f57-93f7-9555cbfae4a0","name":"Filothéi","ru":"Filothéi","country":"5770e692-24de-424b-bf23-444c56b909fe","countryCode":"GR","state":"5f1c42f0-e09e-451a-9d6d-5692e7807004","stateCode":"I","latitude":"38.02524000","longitude":"23.78257000"},{"id":"ac3d5e2e-7d08-49ef-bd86-0834c6e4e013","name":"Fylí","ru":"Fylí","country":"5770e692-24de-424b-bf23-444c56b909fe","countryCode":"GR","state":"5f1c42f0-e09e-451a-9d6d-5692e7807004","stateCode":"I","latitude":"38.10235000","longitude":"23.66901000"},{"id":"0de63ef4-0761-464d-a9dd-c2ce87f09cab","name":"Galatás","ru":"Galatás","country":"5770e692-24de-424b-bf23-444c56b909fe","countryCode":"GR","state":"5f1c42f0-e09e-451a-9d6d-5692e7807004","stateCode":"I","latitude":"37.49618000","longitude":"23.44886000"},{"id":"5384957b-aaf9-4a23-acce-946688b6b9b0","name":"Galátsi","ru":"Galátsi","country":"5770e692-24de-424b-bf23-444c56b909fe","countryCode":"GR","state":"5f1c42f0-e09e-451a-9d6d-5692e7807004","stateCode":"I","latitude":"38.01667000","longitude":"23.75000000"},{"id":"83bef526-1500-45f2-8801-96384881c4fe","name":"Gérakas","ru":"Gérakas","country":"5770e692-24de-424b-bf23-444c56b909fe","countryCode":"GR","state":"5f1c42f0-e09e-451a-9d6d-5692e7807004","stateCode":"I","latitude":"38.02277000","longitude":"23.85760000"},{"id":"00c9f442-6623-4b17-a6d7-80eaded45e6a","name":"Glyfáda","ru":"Glyfáda","country":"5770e692-24de-424b-bf23-444c56b909fe","countryCode":"GR","state":"5f1c42f0-e09e-451a-9d6d-5692e7807004","stateCode":"I","latitude":"37.86289000","longitude":"23.75802000"},{"id":"82c48731-87f8-45b7-88d1-814a69efcec1","name":"Grammatikó","ru":"Grammatikó","country":"5770e692-24de-424b-bf23-444c56b909fe","countryCode":"GR","state":"5f1c42f0-e09e-451a-9d6d-5692e7807004","stateCode":"I","latitude":"38.20251000","longitude":"23.96504000"},{"id":"0a0f7645-0be4-486f-beca-41f4e52d9a73","name":"Ilioúpoli","ru":"Ilioúpoli","country":"5770e692-24de-424b-bf23-444c56b909fe","countryCode":"GR","state":"5f1c42f0-e09e-451a-9d6d-5692e7807004","stateCode":"I","latitude":"37.93149000","longitude":"23.76779000"},{"id":"dc4b63c5-6e96-4513-8941-6819dbdef14c","name":"Irákleio","ru":"Irákleio","country":"5770e692-24de-424b-bf23-444c56b909fe","countryCode":"GR","state":"5f1c42f0-e09e-451a-9d6d-5692e7807004","stateCode":"I","latitude":"38.05282000","longitude":"23.76523000"},{"id":"19d7bb52-b3e2-4506-a3ea-4691ad89636d","name":"Kaisarianí","ru":"Kaisarianí","country":"5770e692-24de-424b-bf23-444c56b909fe","countryCode":"GR","state":"5f1c42f0-e09e-451a-9d6d-5692e7807004","stateCode":"I","latitude":"37.96340000","longitude":"23.76523000"},{"id":"848f76e5-9e80-46a9-8948-d5de22b9189d","name":"Kalývia Thorikoú","ru":"Kalývia Thorikoú","country":"5770e692-24de-424b-bf23-444c56b909fe","countryCode":"GR","state":"5f1c42f0-e09e-451a-9d6d-5692e7807004","stateCode":"I","latitude":"37.83894000","longitude":"23.92505000"},{"id":"21317927-bf30-4f84-a6ca-699644341ad6","name":"Kallithéa","ru":"Kallithéa","country":"5770e692-24de-424b-bf23-444c56b909fe","countryCode":"GR","state":"5f1c42f0-e09e-451a-9d6d-5692e7807004","stateCode":"I","latitude":"37.95000000","longitude":"23.70000000"},{"id":"467d3961-cfac-43af-a78f-9b0dfe33ab07","name":"Kamaterón","ru":"Kamaterón","country":"5770e692-24de-424b-bf23-444c56b909fe","countryCode":"GR","state":"5f1c42f0-e09e-451a-9d6d-5692e7807004","stateCode":"I","latitude":"38.05586000","longitude":"23.70515000"},{"id":"d09f645d-be9e-4b6e-ba53-c8960a2231f2","name":"Kapandríti","ru":"Kapandríti","country":"5770e692-24de-424b-bf23-444c56b909fe","countryCode":"GR","state":"5f1c42f0-e09e-451a-9d6d-5692e7807004","stateCode":"I","latitude":"38.21579000","longitude":"23.87938000"},{"id":"84cbec74-3814-4a17-885d-39398c84dfef","name":"Karellás","ru":"Karellás","country":"5770e692-24de-424b-bf23-444c56b909fe","countryCode":"GR","state":"5f1c42f0-e09e-451a-9d6d-5692e7807004","stateCode":"I","latitude":"37.93445000","longitude":"23.86484000"},{"id":"eea0363c-bdf2-4e08-a729-2e317558ab46","name":"Kálamos","ru":"Kálamos","country":"5770e692-24de-424b-bf23-444c56b909fe","countryCode":"GR","state":"5f1c42f0-e09e-451a-9d6d-5692e7807004","stateCode":"I","latitude":"38.28447000","longitude":"23.86308000"},{"id":"a152dbe8-153a-462c-b86a-92626c7a8117","name":"Káto Soúlion","ru":"Káto Soúlion","country":"5770e692-24de-424b-bf23-444c56b909fe","countryCode":"GR","state":"5f1c42f0-e09e-451a-9d6d-5692e7807004","stateCode":"I","latitude":"38.16803000","longitude":"24.01628000"},{"id":"3558d08b-adf2-4339-9698-5da9b99e0455","name":"Kítsi","ru":"Kítsi","country":"5770e692-24de-424b-bf23-444c56b909fe","countryCode":"GR","state":"5f1c42f0-e09e-451a-9d6d-5692e7807004","stateCode":"I","latitude":"37.85181000","longitude":"23.84068000"},{"id":"7069e979-af96-4e17-b785-2e501614ed94","name":"Kýthira","ru":"Kýthira","country":"5770e692-24de-424b-bf23-444c56b909fe","countryCode":"GR","state":"5f1c42f0-e09e-451a-9d6d-5692e7807004","stateCode":"I","latitude":"36.14955000","longitude":"22.98979000"},{"id":"b6a2698c-b1df-4b1d-8b1d-2f8c7a879f2d","name":"Keratéa","ru":"Keratéa","country":"5770e692-24de-424b-bf23-444c56b909fe","countryCode":"GR","state":"5f1c42f0-e09e-451a-9d6d-5692e7807004","stateCode":"I","latitude":"37.80585000","longitude":"23.97740000"},{"id":"fc074d4d-97c1-4447-ab97-7d76426b8fe3","name":"Keratsíni","ru":"Keratsíni","country":"5770e692-24de-424b-bf23-444c56b909fe","countryCode":"GR","state":"5f1c42f0-e09e-451a-9d6d-5692e7807004","stateCode":"I","latitude":"37.96250000","longitude":"23.61972000"},{"id":"3f1ea80d-14a6-4f1a-b932-712d493ba26c","name":"Khalándrion","ru":"Khalándrion","country":"5770e692-24de-424b-bf23-444c56b909fe","countryCode":"GR","state":"5f1c42f0-e09e-451a-9d6d-5692e7807004","stateCode":"I","latitude":"38.02369000","longitude":"23.80068000"},{"id":"0b3c22ad-34d7-4bbc-8a7c-88924fef834c","name":"Khalkoútsion","ru":"Khalkoútsion","country":"5770e692-24de-424b-bf23-444c56b909fe","countryCode":"GR","state":"5f1c42f0-e09e-451a-9d6d-5692e7807004","stateCode":"I","latitude":"38.33263000","longitude":"23.73188000"},{"id":"23b1c5a8-68ad-4976-a6b5-2c25af802751","name":"Kifisiá","ru":"Kifisiá","country":"5770e692-24de-424b-bf23-444c56b909fe","countryCode":"GR","state":"5f1c42f0-e09e-451a-9d6d-5692e7807004","stateCode":"I","latitude":"38.07438000","longitude":"23.81106000"},{"id":"7d775678-5faa-490e-a76c-1ca2a9d39697","name":"Kinéta","ru":"Kinéta","country":"5770e692-24de-424b-bf23-444c56b909fe","countryCode":"GR","state":"5f1c42f0-e09e-451a-9d6d-5692e7807004","stateCode":"I","latitude":"37.96843000","longitude":"23.21351000"},{"id":"9497d925-a92d-4f96-80d2-0f6e51dc9f15","name":"Kipséli","ru":"Kipséli","country":"5770e692-24de-424b-bf23-444c56b909fe","countryCode":"GR","state":"5f1c42f0-e09e-451a-9d6d-5692e7807004","stateCode":"I","latitude":"38.00288000","longitude":"23.73755000"},{"id":"2d797549-3be0-408f-a30a-4e76a5dbe251","name":"Koropí","ru":"Koropí","country":"5770e692-24de-424b-bf23-444c56b909fe","countryCode":"GR","state":"5f1c42f0-e09e-451a-9d6d-5692e7807004","stateCode":"I","latitude":"37.89886000","longitude":"23.87181000"},{"id":"0d98aa7e-da94-4a84-a519-9ded1209f903","name":"Korydallós","ru":"Korydallós","country":"5770e692-24de-424b-bf23-444c56b909fe","countryCode":"GR","state":"5f1c42f0-e09e-451a-9d6d-5692e7807004","stateCode":"I","latitude":"37.98468000","longitude":"23.64711000"},{"id":"1af3e222-6657-4552-a4b1-0e885188f8c4","name":"Kouvarás","ru":"Kouvarás","country":"5770e692-24de-424b-bf23-444c56b909fe","countryCode":"GR","state":"5f1c42f0-e09e-451a-9d6d-5692e7807004","stateCode":"I","latitude":"37.82711000","longitude":"23.96715000"},{"id":"cb672c21-b4ea-4e68-bda1-e99dbe9c2bab","name":"Kryonéri","ru":"Kryonéri","country":"5770e692-24de-424b-bf23-444c56b909fe","countryCode":"GR","state":"5f1c42f0-e09e-451a-9d6d-5692e7807004","stateCode":"I","latitude":"38.13712000","longitude":"23.83055000"},{"id":"ed507164-d8a0-4e11-aafb-cae807a8656f","name":"Kypséli","ru":"Kypséli","country":"5770e692-24de-424b-bf23-444c56b909fe","countryCode":"GR","state":"5f1c42f0-e09e-451a-9d6d-5692e7807004","stateCode":"I","latitude":"37.76021000","longitude":"23.45448000"},{"id":"cb8d229f-d734-49f5-94b7-f37e095381f3","name":"Lávrio","ru":"Lávrio","country":"5770e692-24de-424b-bf23-444c56b909fe","countryCode":"GR","state":"5f1c42f0-e09e-451a-9d6d-5692e7807004","stateCode":"I","latitude":"37.71445000","longitude":"24.05647000"},{"id":"204e64e6-4a35-41d2-98a5-740cf3c1fb75","name":"Leondárion","ru":"Leondárion","country":"5770e692-24de-424b-bf23-444c56b909fe","countryCode":"GR","state":"5f1c42f0-e09e-451a-9d6d-5692e7807004","stateCode":"I","latitude":"37.98700000","longitude":"23.85518000"},{"id":"dfc65513-9b2b-47e2-bc61-e3a95545d714","name":"Limín Mesoyaías","ru":"Limín Mesoyaías","country":"5770e692-24de-424b-bf23-444c56b909fe","countryCode":"GR","state":"5f1c42f0-e09e-451a-9d6d-5692e7807004","stateCode":"I","latitude":"37.89108000","longitude":"24.00307000"},{"id":"c0fbc11d-bcf3-43d8-8105-b33bd28a7f5f","name":"Lykóvrysi","ru":"Lykóvrysi","country":"5770e692-24de-424b-bf23-444c56b909fe","countryCode":"GR","state":"5f1c42f0-e09e-451a-9d6d-5692e7807004","stateCode":"I","latitude":"38.06933000","longitude":"23.78223000"},{"id":"0e27c88a-a679-4694-bc0d-b0644d4abda4","name":"Magoúla","ru":"Magoúla","country":"5770e692-24de-424b-bf23-444c56b909fe","countryCode":"GR","state":"5f1c42f0-e09e-451a-9d6d-5692e7807004","stateCode":"I","latitude":"38.07989000","longitude":"23.52108000"},{"id":"e5ce1f6d-ec66-4f81-9b45-343bbc17a2b4","name":"Marathónas","ru":"Marathónas","country":"5770e692-24de-424b-bf23-444c56b909fe","countryCode":"GR","state":"5f1c42f0-e09e-451a-9d6d-5692e7807004","stateCode":"I","latitude":"38.15317000","longitude":"23.96278000"},{"id":"51259d7c-d2f0-445a-9de7-ef29ec41bd55","name":"Markópoulo","ru":"Markópoulo","country":"5770e692-24de-424b-bf23-444c56b909fe","countryCode":"GR","state":"5f1c42f0-e09e-451a-9d6d-5692e7807004","stateCode":"I","latitude":"37.88333000","longitude":"23.93333000"},{"id":"629c5b37-e9d6-44f3-b426-9052690fe0d9","name":"Markópoulo Oropoú","ru":"Markópoulo Oropoú","country":"5770e692-24de-424b-bf23-444c56b909fe","countryCode":"GR","state":"5f1c42f0-e09e-451a-9d6d-5692e7807004","stateCode":"I","latitude":"38.28980000","longitude":"23.82475000"},{"id":"97da8098-1eaf-4370-a027-693fd8f2cfcb","name":"Maroúsi","ru":"Maroúsi","country":"5770e692-24de-424b-bf23-444c56b909fe","countryCode":"GR","state":"5f1c42f0-e09e-451a-9d6d-5692e7807004","stateCode":"I","latitude":"38.05000000","longitude":"23.80000000"},{"id":"b1953358-63d3-486b-92aa-dd29440db507","name":"Mándra","ru":"Mándra","country":"5770e692-24de-424b-bf23-444c56b909fe","countryCode":"GR","state":"5f1c42f0-e09e-451a-9d6d-5692e7807004","stateCode":"I","latitude":"38.06667000","longitude":"23.50000000"},{"id":"2df4240b-b746-4990-bd6d-2404279968cd","name":"Mégara","ru":"Mégara","country":"5770e692-24de-424b-bf23-444c56b909fe","countryCode":"GR","state":"5f1c42f0-e09e-451a-9d6d-5692e7807004","stateCode":"I","latitude":"37.99471000","longitude":"23.34324000"},{"id":"74d3ef34-9522-4929-8704-22f28453e342","name":"Megalochóri","ru":"Megalochóri","country":"5770e692-24de-424b-bf23-444c56b909fe","countryCode":"GR","state":"5f1c42f0-e09e-451a-9d6d-5692e7807004","stateCode":"I","latitude":"37.71051000","longitude":"23.34659000"},{"id":"6101e405-1c7d-4b17-afee-918e2b4afbc6","name":"Melíssia","ru":"Melíssia","country":"5770e692-24de-424b-bf23-444c56b909fe","countryCode":"GR","state":"5f1c42f0-e09e-451a-9d6d-5692e7807004","stateCode":"I","latitude":"38.05000000","longitude":"23.83333000"},{"id":"ce279351-085f-4476-9d86-75a5655314d3","name":"Metamórfosi","ru":"Metamórfosi","country":"5770e692-24de-424b-bf23-444c56b909fe","countryCode":"GR","state":"5f1c42f0-e09e-451a-9d6d-5692e7807004","stateCode":"I","latitude":"38.06576000","longitude":"23.76356000"},{"id":"73c40503-6f13-423d-aa16-83b1abcc9c43","name":"Moskháton","ru":"Moskháton","country":"5770e692-24de-424b-bf23-444c56b909fe","countryCode":"GR","state":"5f1c42f0-e09e-451a-9d6d-5692e7807004","stateCode":"I","latitude":"37.94789000","longitude":"23.67880000"},{"id":"85503ebb-b236-4329-835f-07ca7a2e5ed5","name":"Néa Chalkidóna","ru":"Néa Chalkidóna","country":"5770e692-24de-424b-bf23-444c56b909fe","countryCode":"GR","state":"5f1c42f0-e09e-451a-9d6d-5692e7807004","stateCode":"I","latitude":"38.02710000","longitude":"23.73051000"},{"id":"382d355f-d07e-486f-b218-9cb989a9a80f","name":"Néa Erythraía","ru":"Néa Erythraía","country":"5770e692-24de-424b-bf23-444c56b909fe","countryCode":"GR","state":"5f1c42f0-e09e-451a-9d6d-5692e7807004","stateCode":"I","latitude":"38.09270000","longitude":"23.82223000"},{"id":"42f37d29-126b-4697-a999-66f1df605f13","name":"Néa Filadélfeia","ru":"Néa Filadélfeia","country":"5770e692-24de-424b-bf23-444c56b909fe","countryCode":"GR","state":"5f1c42f0-e09e-451a-9d6d-5692e7807004","stateCode":"I","latitude":"38.03491000","longitude":"23.73811000"},{"id":"ae14312b-0d36-456b-94e1-8ad0280d72d2","name":"Néa Ionía","ru":"Néa Ionía","country":"5770e692-24de-424b-bf23-444c56b909fe","countryCode":"GR","state":"5f1c42f0-e09e-451a-9d6d-5692e7807004","stateCode":"I","latitude":"38.03570000","longitude":"23.75733000"},{"id":"442f6154-662c-4147-a4a7-c0caf364743d","name":"Néa Mákri","ru":"Néa Mákri","country":"5770e692-24de-424b-bf23-444c56b909fe","countryCode":"GR","state":"5f1c42f0-e09e-451a-9d6d-5692e7807004","stateCode":"I","latitude":"38.08733000","longitude":"23.97642000"},{"id":"b9c2783a-6144-4e3c-9ae5-9ed1eb5a0f18","name":"Néa Palátia","ru":"Néa Palátia","country":"5770e692-24de-424b-bf23-444c56b909fe","countryCode":"GR","state":"5f1c42f0-e09e-451a-9d6d-5692e7807004","stateCode":"I","latitude":"38.31942000","longitude":"23.79649000"},{"id":"d86a2fc3-eb7d-4d33-aed8-1d8865eb10d6","name":"Néa Péramos","ru":"Néa Péramos","country":"5770e692-24de-424b-bf23-444c56b909fe","countryCode":"GR","state":"5f1c42f0-e09e-451a-9d6d-5692e7807004","stateCode":"I","latitude":"38.00647000","longitude":"23.42348000"},{"id":"6a00b00c-de71-4454-a3b2-1c6a9f13a433","name":"Néa Pentéli","ru":"Néa Pentéli","country":"5770e692-24de-424b-bf23-444c56b909fe","countryCode":"GR","state":"5f1c42f0-e09e-451a-9d6d-5692e7807004","stateCode":"I","latitude":"38.06059000","longitude":"23.85926000"},{"id":"67ced0ca-3af0-4d93-b6cb-c5d08162a33a","name":"Néa Smýrni","ru":"Néa Smýrni","country":"5770e692-24de-424b-bf23-444c56b909fe","countryCode":"GR","state":"5f1c42f0-e09e-451a-9d6d-5692e7807004","stateCode":"I","latitude":"37.94504000","longitude":"23.71416000"},{"id":"a2f1bf21-7893-441e-b36a-c1dc375d75ff","name":"Néo Psychikó","ru":"Néo Psychikó","country":"5770e692-24de-424b-bf23-444c56b909fe","countryCode":"GR","state":"5f1c42f0-e09e-451a-9d6d-5692e7807004","stateCode":"I","latitude":"38.00624000","longitude":"23.78373000"},{"id":"1a7c47c4-0748-4108-af66-4738cba92291","name":"Níkaia","ru":"Níkaia","country":"5770e692-24de-424b-bf23-444c56b909fe","countryCode":"GR","state":"5f1c42f0-e09e-451a-9d6d-5692e7807004","stateCode":"I","latitude":"37.96667000","longitude":"23.65000000"},{"id":"36b989ee-7604-4da1-b2c0-d953f01be601","name":"Neos Voutzás","ru":"Neos Voutzás","country":"5770e692-24de-424b-bf23-444c56b909fe","countryCode":"GR","state":"5f1c42f0-e09e-451a-9d6d-5692e7807004","stateCode":"I","latitude":"38.04312000","longitude":"23.97749000"},{"id":"22927cf1-bccf-4e96-9c92-102f8d393e01","name":"Oropós","ru":"Oropós","country":"5770e692-24de-424b-bf23-444c56b909fe","countryCode":"GR","state":"5f1c42f0-e09e-451a-9d6d-5692e7807004","stateCode":"I","latitude":"38.30326000","longitude":"23.75549000"},{"id":"23d8b618-509f-4ed1-bd50-1acbd8cfda22","name":"Paianía","ru":"Paianía","country":"5770e692-24de-424b-bf23-444c56b909fe","countryCode":"GR","state":"5f1c42f0-e09e-451a-9d6d-5692e7807004","stateCode":"I","latitude":"37.95527000","longitude":"23.85443000"},{"id":"d61156a7-bc22-44dc-a45e-0af3f3ef50d8","name":"Palaiá Fókaia","ru":"Palaiá Fókaia","country":"5770e692-24de-424b-bf23-444c56b909fe","countryCode":"GR","state":"5f1c42f0-e09e-451a-9d6d-5692e7807004","stateCode":"I","latitude":"37.71998000","longitude":"23.94792000"},{"id":"9734a09c-e05c-42b2-ac25-7e3a0baa8ffb","name":"Palaió Fáliro","ru":"Palaió Fáliro","country":"5770e692-24de-424b-bf23-444c56b909fe","countryCode":"GR","state":"5f1c42f0-e09e-451a-9d6d-5692e7807004","stateCode":"I","latitude":"37.92812000","longitude":"23.70105000"},{"id":"86bdaec5-e7a5-4618-bfae-3f9f174d1e64","name":"Pallíni","ru":"Pallíni","country":"5770e692-24de-424b-bf23-444c56b909fe","countryCode":"GR","state":"5f1c42f0-e09e-451a-9d6d-5692e7807004","stateCode":"I","latitude":"38.00514000","longitude":"23.88302000"},{"id":"720a3491-8ca9-4766-9689-7ca0c0499842","name":"Papágou","ru":"Papágou","country":"5770e692-24de-424b-bf23-444c56b909fe","countryCode":"GR","state":"5f1c42f0-e09e-451a-9d6d-5692e7807004","stateCode":"I","latitude":"37.98642000","longitude":"23.79347000"},{"id":"9ac620ef-6f32-4c09-92a1-7ba01fd11d32","name":"Péfki","ru":"Péfki","country":"5770e692-24de-424b-bf23-444c56b909fe","countryCode":"GR","state":"5f1c42f0-e09e-451a-9d6d-5692e7807004","stateCode":"I","latitude":"38.06019000","longitude":"23.79264000"},{"id":"13555cd1-2b85-4533-9464-2884db78c3f5","name":"Pérama","ru":"Pérama","country":"5770e692-24de-424b-bf23-444c56b909fe","countryCode":"GR","state":"5f1c42f0-e09e-451a-9d6d-5692e7807004","stateCode":"I","latitude":"37.96775000","longitude":"23.57210000"},{"id":"fa6758fc-7b95-4623-be0a-8d6589f1d1c5","name":"Póros","ru":"Póros","country":"5770e692-24de-424b-bf23-444c56b909fe","countryCode":"GR","state":"5f1c42f0-e09e-451a-9d6d-5692e7807004","stateCode":"I","latitude":"37.49944000","longitude":"23.45361000"},{"id":"fa831823-d2e5-415e-a551-2c79c3bea1fb","name":"Pentéli","ru":"Pentéli","country":"5770e692-24de-424b-bf23-444c56b909fe","countryCode":"GR","state":"5f1c42f0-e09e-451a-9d6d-5692e7807004","stateCode":"I","latitude":"38.05000000","longitude":"23.86667000"},{"id":"2f204e3d-faae-4ccf-b052-105dcff514e9","name":"Peristéri","ru":"Peristéri","country":"5770e692-24de-424b-bf23-444c56b909fe","countryCode":"GR","state":"5f1c42f0-e09e-451a-9d6d-5692e7807004","stateCode":"I","latitude":"38.01539000","longitude":"23.69187000"},{"id":"21657929-9d3c-4dac-acdb-47ab00263887","name":"Petroúpolis","ru":"Petroúpolis","country":"5770e692-24de-424b-bf23-444c56b909fe","countryCode":"GR","state":"5f1c42f0-e09e-451a-9d6d-5692e7807004","stateCode":"I","latitude":"38.04187000","longitude":"23.68494000"},{"id":"29d3af0a-e463-4b74-b620-9bced874a7ec","name":"Pikérmi","ru":"Pikérmi","country":"5770e692-24de-424b-bf23-444c56b909fe","countryCode":"GR","state":"5f1c42f0-e09e-451a-9d6d-5692e7807004","stateCode":"I","latitude":"38.00161000","longitude":"23.94075000"},{"id":"7a7333bf-d638-4281-b9ae-bc99e92ef06e","name":"Piraeus","ru":"Piraeus","country":"5770e692-24de-424b-bf23-444c56b909fe","countryCode":"GR","state":"5f1c42f0-e09e-451a-9d6d-5692e7807004","stateCode":"I","latitude":"37.94203000","longitude":"23.64619000"},{"id":"ff2fb89b-7ec4-47a7-aa91-716df71440ee","name":"Polydéndri","ru":"Polydéndri","country":"5770e692-24de-424b-bf23-444c56b909fe","countryCode":"GR","state":"5f1c42f0-e09e-451a-9d6d-5692e7807004","stateCode":"I","latitude":"38.21600000","longitude":"23.86806000"},{"id":"8607823a-2020-4a5a-bceb-eaa264a74158","name":"Psychikó","ru":"Psychikó","country":"5770e692-24de-424b-bf23-444c56b909fe","countryCode":"GR","state":"5f1c42f0-e09e-451a-9d6d-5692e7807004","stateCode":"I","latitude":"38.01324000","longitude":"23.77223000"},{"id":"dd5fe2d6-081a-439b-aca3-2e32808fbc9d","name":"Rafína","ru":"Rafína","country":"5770e692-24de-424b-bf23-444c56b909fe","countryCode":"GR","state":"5f1c42f0-e09e-451a-9d6d-5692e7807004","stateCode":"I","latitude":"38.01812000","longitude":"24.00599000"},{"id":"87af417c-f579-41f0-ba35-51d9eb3608d4","name":"Rodópoli","ru":"Rodópoli","country":"5770e692-24de-424b-bf23-444c56b909fe","countryCode":"GR","state":"5f1c42f0-e09e-451a-9d6d-5692e7807004","stateCode":"I","latitude":"38.11669000","longitude":"23.87572000"},{"id":"4e499656-1433-46e1-b430-dd40e4c01a34","name":"Salamína","ru":"Salamína","country":"5770e692-24de-424b-bf23-444c56b909fe","countryCode":"GR","state":"5f1c42f0-e09e-451a-9d6d-5692e7807004","stateCode":"I","latitude":"37.96427000","longitude":"23.49649000"},{"id":"a0df93e0-2ced-4587-be96-06be00bc5c43","name":"Saronída","ru":"Saronída","country":"5770e692-24de-424b-bf23-444c56b909fe","countryCode":"GR","state":"5f1c42f0-e09e-451a-9d6d-5692e7807004","stateCode":"I","latitude":"37.74809000","longitude":"23.91059000"},{"id":"0d7a18ee-30a4-4000-9944-1a05b7eff9e1","name":"Selínia","ru":"Selínia","country":"5770e692-24de-424b-bf23-444c56b909fe","countryCode":"GR","state":"5f1c42f0-e09e-451a-9d6d-5692e7807004","stateCode":"I","latitude":"37.93320000","longitude":"23.53147000"},{"id":"f4fcd6b1-8dac-4a5d-abbf-6f2ef9a2b827","name":"Skarmagkás","ru":"Skarmagkás","country":"5770e692-24de-424b-bf23-444c56b909fe","countryCode":"GR","state":"5f1c42f0-e09e-451a-9d6d-5692e7807004","stateCode":"I","latitude":"38.01133000","longitude":"23.60303000"},{"id":"46a0238b-f0ac-4676-b528-d7032947fdb5","name":"Skála Oropoú","ru":"Skála Oropoú","country":"5770e692-24de-424b-bf23-444c56b909fe","countryCode":"GR","state":"5f1c42f0-e09e-451a-9d6d-5692e7807004","stateCode":"I","latitude":"38.31964000","longitude":"23.78763000"},{"id":"51d1cdad-9501-43c7-84ef-9d612ef348e0","name":"Spáta","ru":"Spáta","country":"5770e692-24de-424b-bf23-444c56b909fe","countryCode":"GR","state":"5f1c42f0-e09e-451a-9d6d-5692e7807004","stateCode":"I","latitude":"37.96163000","longitude":"23.91514000"},{"id":"ac344d96-f54d-4c7c-b0db-a6d34c50e1db","name":"Spétses","ru":"Spétses","country":"5770e692-24de-424b-bf23-444c56b909fe","countryCode":"GR","state":"5f1c42f0-e09e-451a-9d6d-5692e7807004","stateCode":"I","latitude":"37.26191000","longitude":"23.15943000"},{"id":"10008795-0605-45e1-b9b3-8523727c8caa","name":"Stamáta","ru":"Stamáta","country":"5770e692-24de-424b-bf23-444c56b909fe","countryCode":"GR","state":"5f1c42f0-e09e-451a-9d6d-5692e7807004","stateCode":"I","latitude":"38.12546000","longitude":"23.88038000"},{"id":"cc9e5bf8-d6c7-486f-8e82-97b40b54bef1","name":"Távros","ru":"Távros","country":"5770e692-24de-424b-bf23-444c56b909fe","countryCode":"GR","state":"5f1c42f0-e09e-451a-9d6d-5692e7807004","stateCode":"I","latitude":"37.97064000","longitude":"23.69043000"},{"id":"0b69be39-01cb-4b49-886d-efcc78968a3c","name":"Thrakomakedónes","ru":"Thrakomakedónes","country":"5770e692-24de-424b-bf23-444c56b909fe","countryCode":"GR","state":"5f1c42f0-e09e-451a-9d6d-5692e7807004","stateCode":"I","latitude":"38.12964000","longitude":"23.75751000"},{"id":"cd168e14-974e-4e0e-b124-9e0e12b7cfa8","name":"Varnávas","ru":"Varnávas","country":"5770e692-24de-424b-bf23-444c56b909fe","countryCode":"GR","state":"5f1c42f0-e09e-451a-9d6d-5692e7807004","stateCode":"I","latitude":"38.22358000","longitude":"23.92307000"},{"id":"4e29b263-a23b-4ecf-a3c9-541f08b794bf","name":"Varybóbi","ru":"Varybóbi","country":"5770e692-24de-424b-bf23-444c56b909fe","countryCode":"GR","state":"5f1c42f0-e09e-451a-9d6d-5692e7807004","stateCode":"I","latitude":"38.12723000","longitude":"23.78729000"},{"id":"93617b00-fc1f-48b4-aa97-d6751835ce03","name":"Vathý","ru":"Vathý","country":"5770e692-24de-424b-bf23-444c56b909fe","countryCode":"GR","state":"5f1c42f0-e09e-451a-9d6d-5692e7807004","stateCode":"I","latitude":"37.76420000","longitude":"23.48011000"},{"id":"b6ae9831-6709-427f-b708-dee9256e22e2","name":"Vári","ru":"Vári","country":"5770e692-24de-424b-bf23-444c56b909fe","countryCode":"GR","state":"5f1c42f0-e09e-451a-9d6d-5692e7807004","stateCode":"I","latitude":"37.83320000","longitude":"23.80311000"},{"id":"4747615b-51ea-4fdc-89b3-0b0ed62065d7","name":"Vília","ru":"Vília","country":"5770e692-24de-424b-bf23-444c56b909fe","countryCode":"GR","state":"5f1c42f0-e09e-451a-9d6d-5692e7807004","stateCode":"I","latitude":"38.16716000","longitude":"23.33659000"},{"id":"38d1cb29-178f-4300-9c01-9775de34db83","name":"Výronas","ru":"Výronas","country":"5770e692-24de-424b-bf23-444c56b909fe","countryCode":"GR","state":"5f1c42f0-e09e-451a-9d6d-5692e7807004","stateCode":"I","latitude":"37.96105000","longitude":"23.75300000"},{"id":"04ca939b-5128-4447-b21f-38fe424b1077","name":"Vlycháda","ru":"Vlycháda","country":"5770e692-24de-424b-bf23-444c56b909fe","countryCode":"GR","state":"5f1c42f0-e09e-451a-9d6d-5692e7807004","stateCode":"I","latitude":"38.02734000","longitude":"23.43663000"},{"id":"529bfd0c-4543-42ad-a3c0-dcbf647ef3a4","name":"Voúla","ru":"Voúla","country":"5770e692-24de-424b-bf23-444c56b909fe","countryCode":"GR","state":"5f1c42f0-e09e-451a-9d6d-5692e7807004","stateCode":"I","latitude":"37.84221000","longitude":"23.77651000"},{"id":"0fda3a2e-dfcc-4555-b771-45b08bd6de56","name":"Vouliagméni","ru":"Vouliagméni","country":"5770e692-24de-424b-bf23-444c56b909fe","countryCode":"GR","state":"5f1c42f0-e09e-451a-9d6d-5692e7807004","stateCode":"I","latitude":"37.81423000","longitude":"23.77892000"},{"id":"6c9dda83-7935-4606-8b64-91458172b5cc","name":"Vraná","ru":"Vraná","country":"5770e692-24de-424b-bf23-444c56b909fe","countryCode":"GR","state":"5f1c42f0-e09e-451a-9d6d-5692e7807004","stateCode":"I","latitude":"38.12497000","longitude":"23.95198000"},{"id":"672a1a2c-ae3b-4b19-b937-1c98371eab16","name":"Vrilissia","ru":"Vrilissia","country":"5770e692-24de-424b-bf23-444c56b909fe","countryCode":"GR","state":"5f1c42f0-e09e-451a-9d6d-5692e7807004","stateCode":"I","latitude":"38.03381000","longitude":"23.82962000"},{"id":"3266696f-46bf-40c5-b65a-dafb57c08c1f","name":"Ymittos","ru":"Ymittos","country":"5770e692-24de-424b-bf23-444c56b909fe","countryCode":"GR","state":"5f1c42f0-e09e-451a-9d6d-5692e7807004","stateCode":"I","latitude":"37.95342000","longitude":"23.74897000"},{"id":"5fe0b358-e7b7-483a-a79c-4cd969e506a3","name":"Zefyri","ru":"Zefyri","country":"5770e692-24de-424b-bf23-444c56b909fe","countryCode":"GR","state":"5f1c42f0-e09e-451a-9d6d-5692e7807004","stateCode":"I","latitude":"38.06647000","longitude":"23.71701000"},{"id":"92ff0691-5cbb-4417-af87-290680130c4c","name":"Zográfos","ru":"Zográfos","country":"5770e692-24de-424b-bf23-444c56b909fe","countryCode":"GR","state":"5f1c42f0-e09e-451a-9d6d-5692e7807004","stateCode":"I","latitude":"37.97574000","longitude":"23.76911000"},{"id":"06686e21-7431-46bd-a820-e0d1a98ffb25","name":"Afrátion","ru":"Afrátion","country":"5770e692-24de-424b-bf23-444c56b909fe","countryCode":"GR","state":"92e9d3cf-67a9-4e3b-a782-eca3313a50cd","stateCode":"H","latitude":"38.45212000","longitude":"23.68775000"},{"id":"f4667181-cea1-439d-8ace-e87af0619fef","name":"Agía Triáda","ru":"Agía Triáda","country":"5770e692-24de-424b-bf23-444c56b909fe","countryCode":"GR","state":"92e9d3cf-67a9-4e3b-a782-eca3313a50cd","stateCode":"H","latitude":"38.35505000","longitude":"22.90881000"},{"id":"68e73fe1-0349-44db-b71c-e7b1c2bd952b","name":"Aidipsós","ru":"Aidipsós","country":"5770e692-24de-424b-bf23-444c56b909fe","countryCode":"GR","state":"92e9d3cf-67a9-4e3b-a782-eca3313a50cd","stateCode":"H","latitude":"38.87924000","longitude":"23.04691000"},{"id":"8269cee8-06bf-4531-ac88-7aeab4f74c25","name":"Akraifnía","ru":"Akraifnía","country":"5770e692-24de-424b-bf23-444c56b909fe","countryCode":"GR","state":"92e9d3cf-67a9-4e3b-a782-eca3313a50cd","stateCode":"H","latitude":"38.45663000","longitude":"23.22093000"},{"id":"407c2347-6a91-4a33-9ef2-1c74c26945e1","name":"Alíartos","ru":"Alíartos","country":"5770e692-24de-424b-bf23-444c56b909fe","countryCode":"GR","state":"92e9d3cf-67a9-4e3b-a782-eca3313a50cd","stateCode":"H","latitude":"38.36667000","longitude":"23.10000000"},{"id":"d71304f2-b9d9-454b-82a6-35b985bb86c8","name":"Alivéri","ru":"Alivéri","country":"5770e692-24de-424b-bf23-444c56b909fe","countryCode":"GR","state":"92e9d3cf-67a9-4e3b-a782-eca3313a50cd","stateCode":"H","latitude":"38.41667000","longitude":"24.03333000"},{"id":"984a05c5-eb67-4c11-9518-e5e6e5bb6517","name":"Amárynthos","ru":"Amárynthos","country":"5770e692-24de-424b-bf23-444c56b909fe","countryCode":"GR","state":"92e9d3cf-67a9-4e3b-a782-eca3313a50cd","stateCode":"H","latitude":"38.39300000","longitude":"23.88492000"},{"id":"cfb31c70-f045-418e-b96e-371fe7917642","name":"Amfíkleia","ru":"Amfíkleia","country":"5770e692-24de-424b-bf23-444c56b909fe","countryCode":"GR","state":"92e9d3cf-67a9-4e3b-a782-eca3313a50cd","stateCode":"H","latitude":"38.63912000","longitude":"22.59171000"},{"id":"d1a9abcd-7034-4d06-86de-9edb68451f31","name":"Anthíli","ru":"Anthíli","country":"5770e692-24de-424b-bf23-444c56b909fe","countryCode":"GR","state":"92e9d3cf-67a9-4e3b-a782-eca3313a50cd","stateCode":"H","latitude":"38.85000000","longitude":"22.47906000"},{"id":"4f456938-dddb-4901-bf64-1a4e4f1de1f0","name":"Antikyra","ru":"Antikyra","country":"5770e692-24de-424b-bf23-444c56b909fe","countryCode":"GR","state":"92e9d3cf-67a9-4e3b-a782-eca3313a50cd","stateCode":"H","latitude":"38.38333000","longitude":"22.63333000"},{"id":"100ade3e-9134-4f43-a828-89700a25f65a","name":"Aráchova","ru":"Aráchova","country":"5770e692-24de-424b-bf23-444c56b909fe","countryCode":"GR","state":"92e9d3cf-67a9-4e3b-a782-eca3313a50cd","stateCode":"H","latitude":"38.47958000","longitude":"22.58350000"},{"id":"b9d8404f-45ef-4550-a341-bd79fbef8bb3","name":"Asopía","ru":"Asopía","country":"5770e692-24de-424b-bf23-444c56b909fe","countryCode":"GR","state":"92e9d3cf-67a9-4e3b-a782-eca3313a50cd","stateCode":"H","latitude":"38.29882000","longitude":"23.50189000"},{"id":"07a3aec1-858c-4932-9624-8ed02ffb086c","name":"Atalánti","ru":"Atalánti","country":"5770e692-24de-424b-bf23-444c56b909fe","countryCode":"GR","state":"92e9d3cf-67a9-4e3b-a782-eca3313a50cd","stateCode":"H","latitude":"38.65111000","longitude":"22.99917000"},{"id":"9bf768d4-e058-4c4e-b461-14f7d5e34099","name":"Ágios Geórgios","ru":"Ágios Geórgios","country":"5770e692-24de-424b-bf23-444c56b909fe","countryCode":"GR","state":"92e9d3cf-67a9-4e3b-a782-eca3313a50cd","stateCode":"H","latitude":"38.39343000","longitude":"22.93189000"},{"id":"f5a9651f-9c9e-47de-a623-728bd052ac23","name":"Ámfissa","ru":"Ámfissa","country":"5770e692-24de-424b-bf23-444c56b909fe","countryCode":"GR","state":"92e9d3cf-67a9-4e3b-a782-eca3313a50cd","stateCode":"H","latitude":"38.52813000","longitude":"22.37713000"},{"id":"bf265315-e916-433d-89a4-f6ae2a67613b","name":"Árma","ru":"Árma","country":"5770e692-24de-424b-bf23-444c56b909fe","countryCode":"GR","state":"92e9d3cf-67a9-4e3b-a782-eca3313a50cd","stateCode":"H","latitude":"38.35121000","longitude":"23.48599000"},{"id":"389debdc-057c-4740-a389-21dbf3c7b8df","name":"Áyios Konstandínos","ru":"Áyios Konstandínos","country":"5770e692-24de-424b-bf23-444c56b909fe","countryCode":"GR","state":"92e9d3cf-67a9-4e3b-a782-eca3313a50cd","stateCode":"H","latitude":"38.75612000","longitude":"22.85757000"},{"id":"dab5fa13-6df4-4d3d-93ba-d2eb46e05c98","name":"Áyios Nikólaos","ru":"Áyios Nikólaos","country":"5770e692-24de-424b-bf23-444c56b909fe","countryCode":"GR","state":"92e9d3cf-67a9-4e3b-a782-eca3313a50cd","stateCode":"H","latitude":"38.42051000","longitude":"23.64772000"},{"id":"f65e818d-7de6-44bf-adba-a08f706d5a83","name":"Áyios Thomás","ru":"Áyios Thomás","country":"5770e692-24de-424b-bf23-444c56b909fe","countryCode":"GR","state":"92e9d3cf-67a9-4e3b-a782-eca3313a50cd","stateCode":"H","latitude":"38.27717000","longitude":"23.58906000"},{"id":"2fa4ff35-6461-4751-b5aa-a4dd754f48e0","name":"Chairóneia","ru":"Chairóneia","country":"5770e692-24de-424b-bf23-444c56b909fe","countryCode":"GR","state":"92e9d3cf-67a9-4e3b-a782-eca3313a50cd","stateCode":"H","latitude":"38.49551000","longitude":"22.84424000"},{"id":"cc8a21bf-a944-4026-b8e8-4b516bcce6df","name":"Chalkída","ru":"Chalkída","country":"5770e692-24de-424b-bf23-444c56b909fe","countryCode":"GR","state":"92e9d3cf-67a9-4e3b-a782-eca3313a50cd","stateCode":"H","latitude":"38.46354000","longitude":"23.60284000"},{"id":"6badbeaa-a549-42bb-8c49-88501e4495a3","name":"Dílesi","ru":"Dílesi","country":"5770e692-24de-424b-bf23-444c56b909fe","countryCode":"GR","state":"92e9d3cf-67a9-4e3b-a782-eca3313a50cd","stateCode":"H","latitude":"38.33762000","longitude":"23.67077000"},{"id":"a8234d0d-d887-4fb5-a83a-a90544d35b70","name":"Dístomo","ru":"Dístomo","country":"5770e692-24de-424b-bf23-444c56b909fe","countryCode":"GR","state":"92e9d3cf-67a9-4e3b-a782-eca3313a50cd","stateCode":"H","latitude":"38.42892000","longitude":"22.66728000"},{"id":"e281e157-b1aa-4123-90a4-ab3ef4df5aec","name":"Delphi","ru":"Delphi","country":"5770e692-24de-424b-bf23-444c56b909fe","countryCode":"GR","state":"92e9d3cf-67a9-4e3b-a782-eca3313a50cd","stateCode":"H","latitude":"38.47942000","longitude":"22.49357000"},{"id":"d5c31576-fbc4-4794-9c62-39a2090723b4","name":"Dhrosiá","ru":"Dhrosiá","country":"5770e692-24de-424b-bf23-444c56b909fe","countryCode":"GR","state":"92e9d3cf-67a9-4e3b-a782-eca3313a50cd","stateCode":"H","latitude":"38.48413000","longitude":"23.54774000"},{"id":"d01a1754-53b3-425d-8e3b-6c31bc2ebec9","name":"Domokós","ru":"Domokós","country":"5770e692-24de-424b-bf23-444c56b909fe","countryCode":"GR","state":"92e9d3cf-67a9-4e3b-a782-eca3313a50cd","stateCode":"H","latitude":"39.12722000","longitude":"22.30028000"},{"id":"3196f81c-7048-4463-8849-97ee20f4445f","name":"Domvraína","ru":"Domvraína","country":"5770e692-24de-424b-bf23-444c56b909fe","countryCode":"GR","state":"92e9d3cf-67a9-4e3b-a782-eca3313a50cd","stateCode":"H","latitude":"38.25300000","longitude":"22.98211000"},{"id":"13eb4a98-f548-4a0e-b36d-e2cf2d7e596c","name":"Eláteia","ru":"Eláteia","country":"5770e692-24de-424b-bf23-444c56b909fe","countryCode":"GR","state":"92e9d3cf-67a9-4e3b-a782-eca3313a50cd","stateCode":"H","latitude":"38.62770000","longitude":"22.76492000"},{"id":"bb1ebab8-bad1-4bad-9921-2d8da741cc0d","name":"Erétria","ru":"Erétria","country":"5770e692-24de-424b-bf23-444c56b909fe","countryCode":"GR","state":"92e9d3cf-67a9-4e3b-a782-eca3313a50cd","stateCode":"H","latitude":"38.40097000","longitude":"23.80220000"},{"id":"63c39439-52b4-41dd-94b6-ad8f74bb761a","name":"Fáros","ru":"Fáros","country":"5770e692-24de-424b-bf23-444c56b909fe","countryCode":"GR","state":"92e9d3cf-67a9-4e3b-a782-eca3313a50cd","stateCode":"H","latitude":"38.39959000","longitude":"23.62275000"},{"id":"763d063c-30b0-4417-a52b-13150096c007","name":"Fílla","ru":"Fílla","country":"5770e692-24de-424b-bf23-444c56b909fe","countryCode":"GR","state":"92e9d3cf-67a9-4e3b-a782-eca3313a50cd","stateCode":"H","latitude":"38.44177000","longitude":"23.68306000"},{"id":"fa4eba4a-d797-4f84-b011-83bfa30d4b64","name":"Galaxídhion","ru":"Galaxídhion","country":"5770e692-24de-424b-bf23-444c56b909fe","countryCode":"GR","state":"92e9d3cf-67a9-4e3b-a782-eca3313a50cd","stateCode":"H","latitude":"38.38067000","longitude":"22.38001000"},{"id":"c10417f8-dfd8-4892-bd2d-df6d5c4c1069","name":"Istiaía","ru":"Istiaía","country":"5770e692-24de-424b-bf23-444c56b909fe","countryCode":"GR","state":"92e9d3cf-67a9-4e3b-a782-eca3313a50cd","stateCode":"H","latitude":"38.95520000","longitude":"23.15210000"},{"id":"ec38f676-1e98-4b3f-a65d-44dd45bc130f","name":"Itéa","ru":"Itéa","country":"5770e692-24de-424b-bf23-444c56b909fe","countryCode":"GR","state":"92e9d3cf-67a9-4e3b-a782-eca3313a50cd","stateCode":"H","latitude":"38.43201000","longitude":"22.42443000"},{"id":"ef67c98b-f497-4e02-ba57-919e849c8678","name":"Kainoúryion","ru":"Kainoúryion","country":"5770e692-24de-424b-bf23-444c56b909fe","countryCode":"GR","state":"92e9d3cf-67a9-4e3b-a782-eca3313a50cd","stateCode":"H","latitude":"38.79283000","longitude":"22.72470000"},{"id":"536ffffc-acf5-4fe9-b8c2-d71386f578cc","name":"Kaména Voúrla","ru":"Kaména Voúrla","country":"5770e692-24de-424b-bf23-444c56b909fe","countryCode":"GR","state":"92e9d3cf-67a9-4e3b-a782-eca3313a50cd","stateCode":"H","latitude":"38.77844000","longitude":"22.78573000"},{"id":"a905d584-ef31-4d28-88bb-4374e6960f58","name":"Kaparéllion","ru":"Kaparéllion","country":"5770e692-24de-424b-bf23-444c56b909fe","countryCode":"GR","state":"92e9d3cf-67a9-4e3b-a782-eca3313a50cd","stateCode":"H","latitude":"38.23697000","longitude":"23.21411000"},{"id":"23b7cb23-da75-4b50-b9a3-ab3aaea77268","name":"Karpenísi","ru":"Karpenísi","country":"5770e692-24de-424b-bf23-444c56b909fe","countryCode":"GR","state":"92e9d3cf-67a9-4e3b-a782-eca3313a50cd","stateCode":"H","latitude":"38.91218000","longitude":"21.79836000"},{"id":"93fc835d-1a41-452e-abbd-e8b6dc5011fa","name":"Kastélla","ru":"Kastélla","country":"5770e692-24de-424b-bf23-444c56b909fe","countryCode":"GR","state":"92e9d3cf-67a9-4e3b-a782-eca3313a50cd","stateCode":"H","latitude":"38.57048000","longitude":"23.63131000"},{"id":"4d5fc80d-68f9-43a9-af1d-8883a4ac7dc7","name":"Kárystos","ru":"Kárystos","country":"5770e692-24de-424b-bf23-444c56b909fe","countryCode":"GR","state":"92e9d3cf-67a9-4e3b-a782-eca3313a50cd","stateCode":"H","latitude":"38.01333000","longitude":"24.41611000"},{"id":"f00d04cb-3565-4fe8-a8e7-b1de7867e2d9","name":"Káto Tithoréa","ru":"Káto Tithoréa","country":"5770e692-24de-424b-bf23-444c56b909fe","countryCode":"GR","state":"92e9d3cf-67a9-4e3b-a782-eca3313a50cd","stateCode":"H","latitude":"38.60751000","longitude":"22.71348000"},{"id":"92a7ebcd-5f47-47d6-b179-09142c562c9f","name":"Kírra","ru":"Kírra","country":"5770e692-24de-424b-bf23-444c56b909fe","countryCode":"GR","state":"92e9d3cf-67a9-4e3b-a782-eca3313a50cd","stateCode":"H","latitude":"38.42944000","longitude":"22.44443000"},{"id":"60b463fb-f31d-498e-b230-d7087daa8054","name":"Kými","ru":"Kými","country":"5770e692-24de-424b-bf23-444c56b909fe","countryCode":"GR","state":"92e9d3cf-67a9-4e3b-a782-eca3313a50cd","stateCode":"H","latitude":"38.63477000","longitude":"24.10287000"},{"id":"582af171-0473-405c-807c-0d50e8774406","name":"Kerasochóri","ru":"Kerasochóri","country":"5770e692-24de-424b-bf23-444c56b909fe","countryCode":"GR","state":"92e9d3cf-67a9-4e3b-a782-eca3313a50cd","stateCode":"H","latitude":"39.00556000","longitude":"21.63778000"},{"id":"7655d744-b136-4af0-898f-f7578cdcde45","name":"Kyriáki","ru":"Kyriáki","country":"5770e692-24de-424b-bf23-444c56b909fe","countryCode":"GR","state":"92e9d3cf-67a9-4e3b-a782-eca3313a50cd","stateCode":"H","latitude":"38.35365000","longitude":"22.78841000"},{"id":"856bb7b2-2cf2-4207-ba5e-d459adbcf371","name":"Lamía","ru":"Lamía","country":"5770e692-24de-424b-bf23-444c56b909fe","countryCode":"GR","state":"92e9d3cf-67a9-4e3b-a782-eca3313a50cd","stateCode":"H","latitude":"38.90000000","longitude":"22.43333000"},{"id":"32f0323a-101f-4c57-82bb-8d85d8862147","name":"Límni","ru":"Límni","country":"5770e692-24de-424b-bf23-444c56b909fe","countryCode":"GR","state":"92e9d3cf-67a9-4e3b-a782-eca3313a50cd","stateCode":"H","latitude":"38.76667000","longitude":"23.31667000"},{"id":"0c0aeb9a-7c58-488a-b0a3-1bb74b85d3f1","name":"Lianokládhion","ru":"Lianokládhion","country":"5770e692-24de-424b-bf23-444c56b909fe","countryCode":"GR","state":"92e9d3cf-67a9-4e3b-a782-eca3313a50cd","stateCode":"H","latitude":"38.91655000","longitude":"22.30336000"},{"id":"0803a2cd-dae7-4f3e-aa8f-438e6c1c63a9","name":"Lidoríki","ru":"Lidoríki","country":"5770e692-24de-424b-bf23-444c56b909fe","countryCode":"GR","state":"92e9d3cf-67a9-4e3b-a782-eca3313a50cd","stateCode":"H","latitude":"38.52389000","longitude":"22.19972000"},{"id":"d54ba67b-a82f-429a-b767-c866eb8b10b5","name":"Livadeiá","ru":"Livadeiá","country":"5770e692-24de-424b-bf23-444c56b909fe","countryCode":"GR","state":"92e9d3cf-67a9-4e3b-a782-eca3313a50cd","stateCode":"H","latitude":"38.43616000","longitude":"22.87665000"},{"id":"bb9bb4ed-7eef-4b6e-87be-bd97bb62ae29","name":"Livanátes","ru":"Livanátes","country":"5770e692-24de-424b-bf23-444c56b909fe","countryCode":"GR","state":"92e9d3cf-67a9-4e3b-a782-eca3313a50cd","stateCode":"H","latitude":"38.71100000","longitude":"23.05030000"},{"id":"4a006e43-addd-4214-83de-dad2685e1a3e","name":"Loukísia","ru":"Loukísia","country":"5770e692-24de-424b-bf23-444c56b909fe","countryCode":"GR","state":"92e9d3cf-67a9-4e3b-a782-eca3313a50cd","stateCode":"H","latitude":"38.47946000","longitude":"23.44796000"},{"id":"1de15157-5ea8-4eef-a378-6ce0af0ff0b2","name":"Loutrá Aidhipsoú","ru":"Loutrá Aidhipsoú","country":"5770e692-24de-424b-bf23-444c56b909fe","countryCode":"GR","state":"92e9d3cf-67a9-4e3b-a782-eca3313a50cd","stateCode":"H","latitude":"38.85695000","longitude":"23.04739000"},{"id":"f01a0c32-3223-4a9e-bc10-423be703eea7","name":"Magoúla","ru":"Magoúla","country":"5770e692-24de-424b-bf23-444c56b909fe","countryCode":"GR","state":"92e9d3cf-67a9-4e3b-a782-eca3313a50cd","stateCode":"H","latitude":"38.41178000","longitude":"23.82128000"},{"id":"de4a9f0c-a263-44be-94b2-6796d79d6acc","name":"Makrakómi","ru":"Makrakómi","country":"5770e692-24de-424b-bf23-444c56b909fe","countryCode":"GR","state":"92e9d3cf-67a9-4e3b-a782-eca3313a50cd","stateCode":"H","latitude":"38.94150000","longitude":"22.11535000"},{"id":"ffbfe56f-4d10-46cf-8cbe-f205ebf2741d","name":"Malakónta","ru":"Malakónta","country":"5770e692-24de-424b-bf23-444c56b909fe","countryCode":"GR","state":"92e9d3cf-67a9-4e3b-a782-eca3313a50cd","stateCode":"H","latitude":"38.40000000","longitude":"23.76667000"},{"id":"98f24a7b-1c76-4800-8558-6d7bff394d77","name":"Malesína","ru":"Malesína","country":"5770e692-24de-424b-bf23-444c56b909fe","countryCode":"GR","state":"92e9d3cf-67a9-4e3b-a782-eca3313a50cd","stateCode":"H","latitude":"38.62225000","longitude":"23.23370000"},{"id":"94af4d5e-2fd0-487c-b8c1-b2f7012c00e0","name":"Mantoúdi","ru":"Mantoúdi","country":"5770e692-24de-424b-bf23-444c56b909fe","countryCode":"GR","state":"92e9d3cf-67a9-4e3b-a782-eca3313a50cd","stateCode":"H","latitude":"38.79808000","longitude":"23.47967000"},{"id":"5eb2bed4-1c3e-4661-ace4-e324ba44130e","name":"Marmárion","ru":"Marmárion","country":"5770e692-24de-424b-bf23-444c56b909fe","countryCode":"GR","state":"92e9d3cf-67a9-4e3b-a782-eca3313a50cd","stateCode":"H","latitude":"38.04839000","longitude":"24.32039000"},{"id":"4fef6a06-71e5-40ae-91fa-2fb781e07019","name":"Martínon","ru":"Martínon","country":"5770e692-24de-424b-bf23-444c56b909fe","countryCode":"GR","state":"92e9d3cf-67a9-4e3b-a782-eca3313a50cd","stateCode":"H","latitude":"38.56817000","longitude":"23.21458000"},{"id":"2fc83597-51b5-484a-b5ee-6b8a9c273c5e","name":"Mólos","ru":"Mólos","country":"5770e692-24de-424b-bf23-444c56b909fe","countryCode":"GR","state":"92e9d3cf-67a9-4e3b-a782-eca3313a50cd","stateCode":"H","latitude":"38.80998000","longitude":"22.64544000"},{"id":"60a55e75-8717-44e6-b601-59299c06c5f5","name":"Mytikas","ru":"Mytikas","country":"5770e692-24de-424b-bf23-444c56b909fe","countryCode":"GR","state":"92e9d3cf-67a9-4e3b-a782-eca3313a50cd","stateCode":"H","latitude":"38.44373000","longitude":"23.65365000"},{"id":"28b90bfe-4e18-4eb5-a6f7-2a7a6a38a3a8","name":"Néa Artáki","ru":"Néa Artáki","country":"5770e692-24de-424b-bf23-444c56b909fe","countryCode":"GR","state":"92e9d3cf-67a9-4e3b-a782-eca3313a50cd","stateCode":"H","latitude":"38.52027000","longitude":"23.63296000"},{"id":"a3f8a3de-93ac-4f49-bd2d-f883655702d8","name":"Néa Lámpsakos","ru":"Néa Lámpsakos","country":"5770e692-24de-424b-bf23-444c56b909fe","countryCode":"GR","state":"92e9d3cf-67a9-4e3b-a782-eca3313a50cd","stateCode":"H","latitude":"38.43729000","longitude":"23.62824000"},{"id":"827fc33b-086c-4e2b-9012-a6aba29e3b23","name":"Néa Stíra","ru":"Néa Stíra","country":"5770e692-24de-424b-bf23-444c56b909fe","countryCode":"GR","state":"92e9d3cf-67a9-4e3b-a782-eca3313a50cd","stateCode":"H","latitude":"38.17935000","longitude":"24.20842000"},{"id":"e35a5811-a3fa-44dc-a91b-1ab520db3073","name":"Néon Monastírion","ru":"Néon Monastírion","country":"5770e692-24de-424b-bf23-444c56b909fe","countryCode":"GR","state":"92e9d3cf-67a9-4e3b-a782-eca3313a50cd","stateCode":"H","latitude":"39.23988000","longitude":"22.27465000"},{"id":"b78250d7-39b4-4c67-beef-a99e124d5810","name":"Nomós Evrytanías","ru":"Nomós Evrytanías","country":"5770e692-24de-424b-bf23-444c56b909fe","countryCode":"GR","state":"92e9d3cf-67a9-4e3b-a782-eca3313a50cd","stateCode":"H","latitude":"39.00000000","longitude":"21.66667000"},{"id":"39bf5dfb-7bfa-4d4b-95a2-e69fd9e21a40","name":"Nomós Fokídos","ru":"Nomós Fokídos","country":"5770e692-24de-424b-bf23-444c56b909fe","countryCode":"GR","state":"92e9d3cf-67a9-4e3b-a782-eca3313a50cd","stateCode":"H","latitude":"38.50000000","longitude":"22.25000000"},{"id":"8b52ff9d-8178-4c76-b3aa-c06d5666c244","name":"Oinófyta","ru":"Oinófyta","country":"5770e692-24de-424b-bf23-444c56b909fe","countryCode":"GR","state":"92e9d3cf-67a9-4e3b-a782-eca3313a50cd","stateCode":"H","latitude":"38.31163000","longitude":"23.64000000"},{"id":"d383af8e-0d3a-4abf-9ed6-ecb8c379cc3a","name":"Omvriakí","ru":"Omvriakí","country":"5770e692-24de-424b-bf23-444c56b909fe","countryCode":"GR","state":"92e9d3cf-67a9-4e3b-a782-eca3313a50cd","stateCode":"H","latitude":"39.10118000","longitude":"22.27106000"},{"id":"f16e79b2-8bdd-4dd4-a6fc-a59e924f8ffe","name":"Orchomenós","ru":"Orchomenós","country":"5770e692-24de-424b-bf23-444c56b909fe","countryCode":"GR","state":"92e9d3cf-67a9-4e3b-a782-eca3313a50cd","stateCode":"H","latitude":"38.49290000","longitude":"22.97962000"},{"id":"ad17a920-726c-41b0-86f8-a42990e9f2d3","name":"Oreoí","ru":"Oreoí","country":"5770e692-24de-424b-bf23-444c56b909fe","countryCode":"GR","state":"92e9d3cf-67a9-4e3b-a782-eca3313a50cd","stateCode":"H","latitude":"38.95034000","longitude":"23.09191000"},{"id":"4fa9b3c7-5f93-427c-be19-fb023c93c598","name":"Oxílithos","ru":"Oxílithos","country":"5770e692-24de-424b-bf23-444c56b909fe","countryCode":"GR","state":"92e9d3cf-67a9-4e3b-a782-eca3313a50cd","stateCode":"H","latitude":"38.57988000","longitude":"24.11184000"},{"id":"09c3a221-f7f6-4939-9f1e-fb1b2dc6a0ab","name":"Paralía Avlídhos","ru":"Paralía Avlídhos","country":"5770e692-24de-424b-bf23-444c56b909fe","countryCode":"GR","state":"92e9d3cf-67a9-4e3b-a782-eca3313a50cd","stateCode":"H","latitude":"38.38002000","longitude":"23.62842000"},{"id":"1bae744c-15c5-446a-a271-fba980ba811b","name":"Pelasgía","ru":"Pelasgía","country":"5770e692-24de-424b-bf23-444c56b909fe","countryCode":"GR","state":"92e9d3cf-67a9-4e3b-a782-eca3313a50cd","stateCode":"H","latitude":"38.94813000","longitude":"22.83980000"},{"id":"0648bec7-7451-4bd1-b151-6332257f6a0c","name":"Pláka Dílesi","ru":"Pláka Dílesi","country":"5770e692-24de-424b-bf23-444c56b909fe","countryCode":"GR","state":"92e9d3cf-67a9-4e3b-a782-eca3313a50cd","stateCode":"H","latitude":"38.34950000","longitude":"23.65056000"},{"id":"678e7e64-bfe8-47d7-9be8-eebc04b3b786","name":"Politiká","ru":"Politiká","country":"5770e692-24de-424b-bf23-444c56b909fe","countryCode":"GR","state":"92e9d3cf-67a9-4e3b-a782-eca3313a50cd","stateCode":"H","latitude":"38.59673000","longitude":"23.54457000"},{"id":"e9c97a6f-a8a4-48ad-853b-84bcabffedb1","name":"Prokópi","ru":"Prokópi","country":"5770e692-24de-424b-bf23-444c56b909fe","countryCode":"GR","state":"92e9d3cf-67a9-4e3b-a782-eca3313a50cd","stateCode":"H","latitude":"38.73402000","longitude":"23.49060000"},{"id":"df1beb84-2a10-49cc-8847-28c071f6222c","name":"Psachná","ru":"Psachná","country":"5770e692-24de-424b-bf23-444c56b909fe","countryCode":"GR","state":"92e9d3cf-67a9-4e3b-a782-eca3313a50cd","stateCode":"H","latitude":"38.57852000","longitude":"23.64326000"},{"id":"1aa64bac-c07e-4bb1-944c-0e6812fb7f3b","name":"Rodhítsa","ru":"Rodhítsa","country":"5770e692-24de-424b-bf23-444c56b909fe","countryCode":"GR","state":"92e9d3cf-67a9-4e3b-a782-eca3313a50cd","stateCode":"H","latitude":"38.88829000","longitude":"22.46410000"},{"id":"e49b47f3-dbe4-4562-9229-b2e381b6d9d2","name":"Roviés","ru":"Roviés","country":"5770e692-24de-424b-bf23-444c56b909fe","countryCode":"GR","state":"92e9d3cf-67a9-4e3b-a782-eca3313a50cd","stateCode":"H","latitude":"38.80971000","longitude":"23.23073000"},{"id":"e015d0e0-195f-4bd6-9204-231d1651bf12","name":"Schimatári","ru":"Schimatári","country":"5770e692-24de-424b-bf23-444c56b909fe","countryCode":"GR","state":"92e9d3cf-67a9-4e3b-a782-eca3313a50cd","stateCode":"H","latitude":"38.35000000","longitude":"23.58333000"},{"id":"89f8054c-8626-48ba-9644-79a1de3de6a0","name":"Skýros","ru":"Skýros","country":"5770e692-24de-424b-bf23-444c56b909fe","countryCode":"GR","state":"92e9d3cf-67a9-4e3b-a782-eca3313a50cd","stateCode":"H","latitude":"38.90417000","longitude":"24.56306000"},{"id":"67eaebc1-3caf-42dc-92ef-d49791fa566f","name":"Spercheiáda","ru":"Spercheiáda","country":"5770e692-24de-424b-bf23-444c56b909fe","countryCode":"GR","state":"92e9d3cf-67a9-4e3b-a782-eca3313a50cd","stateCode":"H","latitude":"38.90656000","longitude":"22.12792000"},{"id":"606f32ed-2a09-47b0-94af-13b7b1614ca1","name":"Stavrós","ru":"Stavrós","country":"5770e692-24de-424b-bf23-444c56b909fe","countryCode":"GR","state":"92e9d3cf-67a9-4e3b-a782-eca3313a50cd","stateCode":"H","latitude":"38.89641000","longitude":"22.37082000"},{"id":"f8e07ab6-0eea-49ba-9b4a-273fc069a31d","name":"Steíri","ru":"Steíri","country":"5770e692-24de-424b-bf23-444c56b909fe","countryCode":"GR","state":"92e9d3cf-67a9-4e3b-a782-eca3313a50cd","stateCode":"H","latitude":"38.40831000","longitude":"22.71162000"},{"id":"180aa693-692c-4a9c-bc05-ba44390bd330","name":"Stylída","ru":"Stylída","country":"5770e692-24de-424b-bf23-444c56b909fe","countryCode":"GR","state":"92e9d3cf-67a9-4e3b-a782-eca3313a50cd","stateCode":"H","latitude":"38.91667000","longitude":"22.61667000"},{"id":"63f96374-0522-4f20-895c-160e4762207f","name":"Thívai","ru":"Thívai","country":"5770e692-24de-424b-bf23-444c56b909fe","countryCode":"GR","state":"92e9d3cf-67a9-4e3b-a782-eca3313a50cd","stateCode":"H","latitude":"38.32500000","longitude":"23.31889000"},{"id":"ee91e7c0-5c35-4be6-916d-a630752b3940","name":"Thespiés","ru":"Thespiés","country":"5770e692-24de-424b-bf23-444c56b909fe","countryCode":"GR","state":"92e9d3cf-67a9-4e3b-a782-eca3313a50cd","stateCode":"H","latitude":"38.30300000","longitude":"23.15016000"},{"id":"a2888f5a-60fc-4946-95d9-0bbee214f87c","name":"Vasilikón","ru":"Vasilikón","country":"5770e692-24de-424b-bf23-444c56b909fe","countryCode":"GR","state":"92e9d3cf-67a9-4e3b-a782-eca3313a50cd","stateCode":"H","latitude":"38.42586000","longitude":"23.67189000"},{"id":"a33de882-82ce-49d5-ad2f-b500e0bcab31","name":"Vathí","ru":"Vathí","country":"5770e692-24de-424b-bf23-444c56b909fe","countryCode":"GR","state":"92e9d3cf-67a9-4e3b-a782-eca3313a50cd","stateCode":"H","latitude":"38.40490000","longitude":"23.60332000"},{"id":"952cbf84-c7c5-4707-ad3a-2a1dbd4e8855","name":"Vágia","ru":"Vágia","country":"5770e692-24de-424b-bf23-444c56b909fe","countryCode":"GR","state":"92e9d3cf-67a9-4e3b-a782-eca3313a50cd","stateCode":"H","latitude":"38.31748000","longitude":"23.17752000"},{"id":"0aeaa1c1-10e9-4018-b071-394c43493cec","name":"Yimnón","ru":"Yimnón","country":"5770e692-24de-424b-bf23-444c56b909fe","countryCode":"GR","state":"92e9d3cf-67a9-4e3b-a782-eca3313a50cd","stateCode":"H","latitude":"38.44048000","longitude":"23.88400000"},{"id":"f000e852-ee86-4795-98ee-0e2b5baaecec","name":"Agía Paraskeví","ru":"Agía Paraskeví","country":"5770e692-24de-424b-bf23-444c56b909fe","countryCode":"GR","state":"289b4197-56d9-4f1f-970e-86df69a4f8dd","stateCode":"B","latitude":"40.48150000","longitude":"23.04863000"},{"id":"d5c8d8be-b035-4371-b7af-a78f54327012","name":"Agía Triáda","ru":"Agía Triáda","country":"5770e692-24de-424b-bf23-444c56b909fe","countryCode":"GR","state":"289b4197-56d9-4f1f-970e-86df69a4f8dd","stateCode":"B","latitude":"40.50003000","longitude":"22.87351000"},{"id":"9a74c82d-2cd7-4780-9dc9-27a8a10cbfa0","name":"Agkathiá","ru":"Agkathiá","country":"5770e692-24de-424b-bf23-444c56b909fe","countryCode":"GR","state":"289b4197-56d9-4f1f-970e-86df69a4f8dd","stateCode":"B","latitude":"40.55535000","longitude":"22.47083000"},{"id":"cdef02bf-3f12-4907-a743-7b74ce671499","name":"Aigínio","ru":"Aigínio","country":"5770e692-24de-424b-bf23-444c56b909fe","countryCode":"GR","state":"289b4197-56d9-4f1f-970e-86df69a4f8dd","stateCode":"B","latitude":"40.50139000","longitude":"22.54000000"},{"id":"47ade8e0-26ac-4dfc-935f-35ed35bd5e28","name":"Akrolímni","ru":"Akrolímni","country":"5770e692-24de-424b-bf23-444c56b909fe","countryCode":"GR","state":"289b4197-56d9-4f1f-970e-86df69a4f8dd","stateCode":"B","latitude":"40.68020000","longitude":"22.26450000"},{"id":"e3f08ca4-d767-436b-831e-f90b511e8f39","name":"Alexándreia","ru":"Alexándreia","country":"5770e692-24de-424b-bf23-444c56b909fe","countryCode":"GR","state":"289b4197-56d9-4f1f-970e-86df69a4f8dd","stateCode":"B","latitude":"40.62667000","longitude":"22.44417000"},{"id":"68c4676f-8298-41c0-bee3-3c52fa31eec2","name":"Alistráti","ru":"Alistráti","country":"5770e692-24de-424b-bf23-444c56b909fe","countryCode":"GR","state":"289b4197-56d9-4f1f-970e-86df69a4f8dd","stateCode":"B","latitude":"41.06443000","longitude":"23.95751000"},{"id":"bf419989-30ed-4279-8bbb-bfea44e35792","name":"Ampelókipoi","ru":"Ampelókipoi","country":"5770e692-24de-424b-bf23-444c56b909fe","countryCode":"GR","state":"289b4197-56d9-4f1f-970e-86df69a4f8dd","stateCode":"B","latitude":"40.65304000","longitude":"22.92624000"},{"id":"582bf14b-37e6-4db9-99c8-b0deb30ec2bd","name":"Ampeleíes","ru":"Ampeleíes","country":"5770e692-24de-424b-bf23-444c56b909fe","countryCode":"GR","state":"289b4197-56d9-4f1f-970e-86df69a4f8dd","stateCode":"B","latitude":"40.83417000","longitude":"22.38767000"},{"id":"47a64244-4d15-412b-8589-ff6ee1c1c624","name":"Anatolikó","ru":"Anatolikó","country":"5770e692-24de-424b-bf23-444c56b909fe","countryCode":"GR","state":"289b4197-56d9-4f1f-970e-86df69a4f8dd","stateCode":"B","latitude":"40.66152000","longitude":"22.71190000"},{"id":"97cafcaa-8f88-4340-aa51-60532b0a2303","name":"Angelochóri","ru":"Angelochóri","country":"5770e692-24de-424b-bf23-444c56b909fe","countryCode":"GR","state":"289b4197-56d9-4f1f-970e-86df69a4f8dd","stateCode":"B","latitude":"40.67862000","longitude":"22.19933000"},{"id":"c44ccdb2-63fa-4337-85b9-9dd1996ea62d","name":"Aravissós","ru":"Aravissós","country":"5770e692-24de-424b-bf23-444c56b909fe","countryCode":"GR","state":"289b4197-56d9-4f1f-970e-86df69a4f8dd","stateCode":"B","latitude":"40.84352000","longitude":"22.30178000"},{"id":"4cf61a67-de6e-4a79-b580-f3c92a73c602","name":"Aridaía","ru":"Aridaía","country":"5770e692-24de-424b-bf23-444c56b909fe","countryCode":"GR","state":"289b4197-56d9-4f1f-970e-86df69a4f8dd","stateCode":"B","latitude":"40.97306000","longitude":"22.05639000"},{"id":"8dfdc46d-852a-42a4-98ca-0e178b3d52f6","name":"Arnaía","ru":"Arnaía","country":"5770e692-24de-424b-bf23-444c56b909fe","countryCode":"GR","state":"289b4197-56d9-4f1f-970e-86df69a4f8dd","stateCode":"B","latitude":"40.48652000","longitude":"23.59537000"},{"id":"d2ff2bb0-d245-402d-a3f3-8bf8c2942287","name":"Arsénio","ru":"Arsénio","country":"5770e692-24de-424b-bf23-444c56b909fe","countryCode":"GR","state":"289b4197-56d9-4f1f-970e-86df69a4f8dd","stateCode":"B","latitude":"40.71412000","longitude":"22.15923000"},{"id":"c728ea0a-88aa-4d7d-b47e-dbc22af89fc7","name":"Askós","ru":"Askós","country":"5770e692-24de-424b-bf23-444c56b909fe","countryCode":"GR","state":"289b4197-56d9-4f1f-970e-86df69a4f8dd","stateCode":"B","latitude":"40.75105000","longitude":"23.38721000"},{"id":"5ac29af4-c7d7-49ee-9fcf-dfd343410468","name":"Asproválta","ru":"Asproválta","country":"5770e692-24de-424b-bf23-444c56b909fe","countryCode":"GR","state":"289b4197-56d9-4f1f-970e-86df69a4f8dd","stateCode":"B","latitude":"40.73049000","longitude":"23.71180000"},{"id":"9cc977fc-2d6f-4aba-b614-bb129a369d5a","name":"Asvestochóri","ru":"Asvestochóri","country":"5770e692-24de-424b-bf23-444c56b909fe","countryCode":"GR","state":"289b4197-56d9-4f1f-970e-86df69a4f8dd","stateCode":"B","latitude":"40.64125000","longitude":"23.02528000"},{"id":"37b519a6-02ca-4156-b6ca-ee0adf6bbf6f","name":"Axós","ru":"Axós","country":"5770e692-24de-424b-bf23-444c56b909fe","countryCode":"GR","state":"289b4197-56d9-4f1f-970e-86df69a4f8dd","stateCode":"B","latitude":"40.80223000","longitude":"22.36158000"},{"id":"6b52ebdf-fa01-4ddb-b183-909dfd50a861","name":"Axioúpoli","ru":"Axioúpoli","country":"5770e692-24de-424b-bf23-444c56b909fe","countryCode":"GR","state":"289b4197-56d9-4f1f-970e-86df69a4f8dd","stateCode":"B","latitude":"40.98582000","longitude":"22.54165000"},{"id":"3ed397f7-ff2f-4cae-8012-9a22d83c05ac","name":"Ádendro","ru":"Ádendro","country":"5770e692-24de-424b-bf23-444c56b909fe","countryCode":"GR","state":"289b4197-56d9-4f1f-970e-86df69a4f8dd","stateCode":"B","latitude":"40.67131000","longitude":"22.60466000"},{"id":"a58e1960-5f3d-4a81-8e62-21c113903e16","name":"Áfytos","ru":"Áfytos","country":"5770e692-24de-424b-bf23-444c56b909fe","countryCode":"GR","state":"289b4197-56d9-4f1f-970e-86df69a4f8dd","stateCode":"B","latitude":"40.09915000","longitude":"23.43670000"},{"id":"b4a0216a-653d-4f47-975e-278a59b3fbf2","name":"Ágio Pnévma","ru":"Ágio Pnévma","country":"5770e692-24de-424b-bf23-444c56b909fe","countryCode":"GR","state":"289b4197-56d9-4f1f-970e-86df69a4f8dd","stateCode":"B","latitude":"41.10142000","longitude":"23.67992000"},{"id":"87285db3-566d-4fde-9974-e3fb4e3e1e3f","name":"Ágios Athanásios","ru":"Ágios Athanásios","country":"5770e692-24de-424b-bf23-444c56b909fe","countryCode":"GR","state":"289b4197-56d9-4f1f-970e-86df69a4f8dd","stateCode":"B","latitude":"40.71598000","longitude":"22.72841000"},{"id":"d79c91ea-98de-42ec-98ac-7696814f56e8","name":"Ágios Geórgios","ru":"Ágios Geórgios","country":"5770e692-24de-424b-bf23-444c56b909fe","countryCode":"GR","state":"289b4197-56d9-4f1f-970e-86df69a4f8dd","stateCode":"B","latitude":"40.60215000","longitude":"22.19430000"},{"id":"57b35924-301c-42d0-9a9f-45ecb27b0ef0","name":"Ágios Loukás","ru":"Ágios Loukás","country":"5770e692-24de-424b-bf23-444c56b909fe","countryCode":"GR","state":"289b4197-56d9-4f1f-970e-86df69a4f8dd","stateCode":"B","latitude":"40.71799000","longitude":"22.29545000"},{"id":"b430a30f-61a4-4759-a25f-436cd33fb360","name":"Ágios Nikólaos","ru":"Ágios Nikólaos","country":"5770e692-24de-424b-bf23-444c56b909fe","countryCode":"GR","state":"289b4197-56d9-4f1f-970e-86df69a4f8dd","stateCode":"B","latitude":"40.24926000","longitude":"23.69616000"},{"id":"44f5c025-4d84-4774-a151-6494432ae079","name":"Ágios Pávlos","ru":"Ágios Pávlos","country":"5770e692-24de-424b-bf23-444c56b909fe","countryCode":"GR","state":"289b4197-56d9-4f1f-970e-86df69a4f8dd","stateCode":"B","latitude":"40.64075000","longitude":"22.96039000"},{"id":"f245adc4-6935-49d0-b4f5-76b1e83bced6","name":"Ágios Pétros","ru":"Ágios Pétros","country":"5770e692-24de-424b-bf23-444c56b909fe","countryCode":"GR","state":"289b4197-56d9-4f1f-970e-86df69a4f8dd","stateCode":"B","latitude":"40.86725000","longitude":"22.58298000"},{"id":"12f7ce86-9ff3-4ff8-8d89-7b81291c7463","name":"Ágios Spyrídon","ru":"Ágios Spyrídon","country":"5770e692-24de-424b-bf23-444c56b909fe","countryCode":"GR","state":"289b4197-56d9-4f1f-970e-86df69a4f8dd","stateCode":"B","latitude":"40.20778000","longitude":"22.44311000"},{"id":"c7dabcbe-ec3e-4c0f-a54e-2078d0e9f688","name":"Ágios Vasíleios","ru":"Ágios Vasíleios","country":"5770e692-24de-424b-bf23-444c56b909fe","countryCode":"GR","state":"289b4197-56d9-4f1f-970e-86df69a4f8dd","stateCode":"B","latitude":"40.66424000","longitude":"23.11373000"},{"id":"d41766aa-3ccb-4a55-bb21-593e403d5322","name":"Ápsalos","ru":"Ápsalos","country":"5770e692-24de-424b-bf23-444c56b909fe","countryCode":"GR","state":"289b4197-56d9-4f1f-970e-86df69a4f8dd","stateCode":"B","latitude":"40.89240000","longitude":"22.05709000"},{"id":"eb371ad2-2d81-44da-88b6-d50fb1dbdbb5","name":"Árnissa","ru":"Árnissa","country":"5770e692-24de-424b-bf23-444c56b909fe","countryCode":"GR","state":"289b4197-56d9-4f1f-970e-86df69a4f8dd","stateCode":"B","latitude":"40.79555000","longitude":"21.83577000"},{"id":"fd7deb3f-c56f-433b-89ae-fdfcc7325dca","name":"Ássiros","ru":"Ássiros","country":"5770e692-24de-424b-bf23-444c56b909fe","countryCode":"GR","state":"289b4197-56d9-4f1f-970e-86df69a4f8dd","stateCode":"B","latitude":"40.82143000","longitude":"23.03008000"},{"id":"58b04981-b8ab-41d7-95b0-029bf3f36503","name":"Áthyra","ru":"Áthyra","country":"5770e692-24de-424b-bf23-444c56b909fe","countryCode":"GR","state":"289b4197-56d9-4f1f-970e-86df69a4f8dd","stateCode":"B","latitude":"40.82615000","longitude":"22.59279000"},{"id":"4d79fad0-4be5-4075-b717-34ac15e7b609","name":"Ólynthos","ru":"Ólynthos","country":"5770e692-24de-424b-bf23-444c56b909fe","countryCode":"GR","state":"289b4197-56d9-4f1f-970e-86df69a4f8dd","stateCode":"B","latitude":"40.29147000","longitude":"23.34205000"},{"id":"503739fa-7008-4a50-bb6e-2c64ed0ed9c0","name":"Édessa","ru":"Édessa","country":"5770e692-24de-424b-bf23-444c56b909fe","countryCode":"GR","state":"289b4197-56d9-4f1f-970e-86df69a4f8dd","stateCode":"B","latitude":"40.80260000","longitude":"22.04751000"},{"id":"e214badf-0d90-4d25-8e3f-e32f06ef455c","name":"Évosmos","ru":"Évosmos","country":"5770e692-24de-424b-bf23-444c56b909fe","countryCode":"GR","state":"289b4197-56d9-4f1f-970e-86df69a4f8dd","stateCode":"B","latitude":"40.67056000","longitude":"22.90833000"},{"id":"820b9bbb-1f32-4bd7-b348-5bf836f02307","name":"Chalástra","ru":"Chalástra","country":"5770e692-24de-424b-bf23-444c56b909fe","countryCode":"GR","state":"289b4197-56d9-4f1f-970e-86df69a4f8dd","stateCode":"B","latitude":"40.62643000","longitude":"22.73291000"},{"id":"d1434b7f-9d5c-4be0-98b7-9b31e90afc55","name":"Chalkidóna","ru":"Chalkidóna","country":"5770e692-24de-424b-bf23-444c56b909fe","countryCode":"GR","state":"289b4197-56d9-4f1f-970e-86df69a4f8dd","stateCode":"B","latitude":"40.73184000","longitude":"22.59992000"},{"id":"19b2e6af-f32a-4df2-8b2c-072954555bb1","name":"Charopó","ru":"Charopó","country":"5770e692-24de-424b-bf23-444c56b909fe","countryCode":"GR","state":"289b4197-56d9-4f1f-970e-86df69a4f8dd","stateCode":"B","latitude":"41.26031000","longitude":"23.37279000"},{"id":"0f592d71-f521-48e1-9d78-93e6cf5fce90","name":"Chortiátis","ru":"Chortiátis","country":"5770e692-24de-424b-bf23-444c56b909fe","countryCode":"GR","state":"289b4197-56d9-4f1f-970e-86df69a4f8dd","stateCode":"B","latitude":"40.60954000","longitude":"23.10014000"},{"id":"8794378a-fd1b-49bd-8308-41dced64ba3e","name":"Chrysó","ru":"Chrysó","country":"5770e692-24de-424b-bf23-444c56b909fe","countryCode":"GR","state":"289b4197-56d9-4f1f-970e-86df69a4f8dd","stateCode":"B","latitude":"41.05806000","longitude":"23.65108000"},{"id":"47bff688-ecbd-4238-90f1-fdfb6814dc5b","name":"Chrysochórafa","ru":"Chrysochórafa","country":"5770e692-24de-424b-bf23-444c56b909fe","countryCode":"GR","state":"289b4197-56d9-4f1f-970e-86df69a4f8dd","stateCode":"B","latitude":"41.18097000","longitude":"23.23551000"},{"id":"57aa9f4d-e27b-46ab-9b37-ecc017804555","name":"Díon","ru":"Díon","country":"5770e692-24de-424b-bf23-444c56b909fe","countryCode":"GR","state":"289b4197-56d9-4f1f-970e-86df69a4f8dd","stateCode":"B","latitude":"40.17169000","longitude":"22.48463000"},{"id":"4ad51573-d42a-49a6-80ac-155b457c6607","name":"Diavatá","ru":"Diavatá","country":"5770e692-24de-424b-bf23-444c56b909fe","countryCode":"GR","state":"289b4197-56d9-4f1f-970e-86df69a4f8dd","stateCode":"B","latitude":"40.68744000","longitude":"22.85799000"},{"id":"e8948b34-4a44-4a1d-95f1-0e351fa05005","name":"Diavatós","ru":"Diavatós","country":"5770e692-24de-424b-bf23-444c56b909fe","countryCode":"GR","state":"289b4197-56d9-4f1f-970e-86df69a4f8dd","stateCode":"B","latitude":"40.54606000","longitude":"22.26686000"},{"id":"d0be8e05-54d8-45d2-94e2-14dd8d2da50b","name":"Dravískos","ru":"Dravískos","country":"5770e692-24de-424b-bf23-444c56b909fe","countryCode":"GR","state":"289b4197-56d9-4f1f-970e-86df69a4f8dd","stateCode":"B","latitude":"40.92393000","longitude":"23.87119000"},{"id":"320f9e96-4574-4d35-9700-fc0f975c2d82","name":"Drymós","ru":"Drymós","country":"5770e692-24de-424b-bf23-444c56b909fe","countryCode":"GR","state":"289b4197-56d9-4f1f-970e-86df69a4f8dd","stateCode":"B","latitude":"40.78099000","longitude":"22.95889000"},{"id":"aa11f78b-b8dc-4801-8f52-a01c069b4be1","name":"Efkarpía","ru":"Efkarpía","country":"5770e692-24de-424b-bf23-444c56b909fe","countryCode":"GR","state":"289b4197-56d9-4f1f-970e-86df69a4f8dd","stateCode":"B","latitude":"40.68797000","longitude":"22.95348000"},{"id":"d7b65242-9335-405d-b25f-5fce30a0cf67","name":"Eirinoúpoli","ru":"Eirinoúpoli","country":"5770e692-24de-424b-bf23-444c56b909fe","countryCode":"GR","state":"289b4197-56d9-4f1f-970e-86df69a4f8dd","stateCode":"B","latitude":"40.67806000","longitude":"22.19278000"},{"id":"4d641953-1ee1-407d-b373-d69215c86691","name":"Epanomí","ru":"Epanomí","country":"5770e692-24de-424b-bf23-444c56b909fe","countryCode":"GR","state":"289b4197-56d9-4f1f-970e-86df69a4f8dd","stateCode":"B","latitude":"40.42614000","longitude":"22.92782000"},{"id":"a47e97e0-292e-4db6-b32a-6f0ba655eefc","name":"Episkopí","ru":"Episkopí","country":"5770e692-24de-424b-bf23-444c56b909fe","countryCode":"GR","state":"289b4197-56d9-4f1f-970e-86df69a4f8dd","stateCode":"B","latitude":"40.68748000","longitude":"22.13640000"},{"id":"1ad64ee9-99f0-491c-bdca-51e274366ca0","name":"Evropós","ru":"Evropós","country":"5770e692-24de-424b-bf23-444c56b909fe","countryCode":"GR","state":"289b4197-56d9-4f1f-970e-86df69a4f8dd","stateCode":"B","latitude":"40.89703000","longitude":"22.55277000"},{"id":"62249cb9-8fde-445c-a1a3-3b43e9042598","name":"Exaplátanos","ru":"Exaplátanos","country":"5770e692-24de-424b-bf23-444c56b909fe","countryCode":"GR","state":"289b4197-56d9-4f1f-970e-86df69a4f8dd","stateCode":"B","latitude":"40.97643000","longitude":"22.12958000"},{"id":"ae01389d-2865-45b0-bff1-fb052c30c773","name":"Fíliro","ru":"Fíliro","country":"5770e692-24de-424b-bf23-444c56b909fe","countryCode":"GR","state":"289b4197-56d9-4f1f-970e-86df69a4f8dd","stateCode":"B","latitude":"40.69151000","longitude":"23.00460000"},{"id":"5ac79552-74e1-40b0-8e4d-a85c22718f02","name":"Galatádes","ru":"Galatádes","country":"5770e692-24de-424b-bf23-444c56b909fe","countryCode":"GR","state":"289b4197-56d9-4f1f-970e-86df69a4f8dd","stateCode":"B","latitude":"40.75590000","longitude":"22.28062000"},{"id":"7fef2705-49b0-4b75-a62d-755dbfcf9079","name":"Galátista","ru":"Galátista","country":"5770e692-24de-424b-bf23-444c56b909fe","countryCode":"GR","state":"289b4197-56d9-4f1f-970e-86df69a4f8dd","stateCode":"B","latitude":"40.46820000","longitude":"23.28015000"},{"id":"14d39426-76ce-4a76-9c39-c159107c90ee","name":"Gázoros","ru":"Gázoros","country":"5770e692-24de-424b-bf23-444c56b909fe","countryCode":"GR","state":"289b4197-56d9-4f1f-970e-86df69a4f8dd","stateCode":"B","latitude":"41.02557000","longitude":"23.77574000"},{"id":"48475e36-f60e-499d-b243-35f58415f177","name":"Géfyra","ru":"Géfyra","country":"5770e692-24de-424b-bf23-444c56b909fe","countryCode":"GR","state":"289b4197-56d9-4f1f-970e-86df69a4f8dd","stateCode":"B","latitude":"40.73253000","longitude":"22.69359000"},{"id":"5845b739-4b13-4dd0-ac97-df48a7e18f38","name":"Gerakaroú","ru":"Gerakaroú","country":"5770e692-24de-424b-bf23-444c56b909fe","countryCode":"GR","state":"289b4197-56d9-4f1f-970e-86df69a4f8dd","stateCode":"B","latitude":"40.62666000","longitude":"23.21566000"},{"id":"6002ac67-fbce-4c39-9caf-e50962a7248c","name":"Giannitsá","ru":"Giannitsá","country":"5770e692-24de-424b-bf23-444c56b909fe","countryCode":"GR","state":"289b4197-56d9-4f1f-970e-86df69a4f8dd","stateCode":"B","latitude":"40.79194000","longitude":"22.40750000"},{"id":"f5c5ada0-3288-40c1-b31b-6416484e3fe3","name":"Gouménissa","ru":"Gouménissa","country":"5770e692-24de-424b-bf23-444c56b909fe","countryCode":"GR","state":"289b4197-56d9-4f1f-970e-86df69a4f8dd","stateCode":"B","latitude":"40.94604000","longitude":"22.44974000"},{"id":"e5160340-bc57-48df-82b6-ccf8f8d495b8","name":"Ierissós","ru":"Ierissós","country":"5770e692-24de-424b-bf23-444c56b909fe","countryCode":"GR","state":"289b4197-56d9-4f1f-970e-86df69a4f8dd","stateCode":"B","latitude":"40.39748000","longitude":"23.87505000"},{"id":"cbf93c0d-21a3-463a-82c5-4a4041c3d620","name":"Irákleia","ru":"Irákleia","country":"5770e692-24de-424b-bf23-444c56b909fe","countryCode":"GR","state":"289b4197-56d9-4f1f-970e-86df69a4f8dd","stateCode":"B","latitude":"41.18217000","longitude":"23.28243000"},{"id":"6f3b7975-3754-47ba-9b39-8394f50dd815","name":"Kalamariá","ru":"Kalamariá","country":"5770e692-24de-424b-bf23-444c56b909fe","countryCode":"GR","state":"289b4197-56d9-4f1f-970e-86df69a4f8dd","stateCode":"B","latitude":"40.58250000","longitude":"22.95028000"},{"id":"b44af5d1-a52d-492f-aa89-9def46587f92","name":"Kalá Déndra","ru":"Kalá Déndra","country":"5770e692-24de-424b-bf23-444c56b909fe","countryCode":"GR","state":"289b4197-56d9-4f1f-970e-86df69a4f8dd","stateCode":"B","latitude":"41.09941000","longitude":"23.42396000"},{"id":"309aee35-e6bd-429c-83cd-190bad71adff","name":"Kalí","ru":"Kalí","country":"5770e692-24de-424b-bf23-444c56b909fe","countryCode":"GR","state":"289b4197-56d9-4f1f-970e-86df69a4f8dd","stateCode":"B","latitude":"40.81931000","longitude":"22.17761000"},{"id":"cb2f2291-4005-49f6-adcc-e6d4a4552088","name":"Kalýves Polygýrou","ru":"Kalýves Polygýrou","country":"5770e692-24de-424b-bf23-444c56b909fe","countryCode":"GR","state":"289b4197-56d9-4f1f-970e-86df69a4f8dd","stateCode":"B","latitude":"40.28659000","longitude":"23.39033000"},{"id":"16f21917-b3fa-402e-a04c-3845a183b704","name":"Kalývia","ru":"Kalývia","country":"5770e692-24de-424b-bf23-444c56b909fe","countryCode":"GR","state":"289b4197-56d9-4f1f-970e-86df69a4f8dd","stateCode":"B","latitude":"40.75508000","longitude":"22.21753000"},{"id":"dbe47be7-ce43-4b3a-a2b5-a5d2b0b5eeb9","name":"Kallithéa","ru":"Kallithéa","country":"5770e692-24de-424b-bf23-444c56b909fe","countryCode":"GR","state":"289b4197-56d9-4f1f-970e-86df69a4f8dd","stateCode":"B","latitude":"40.07374000","longitude":"23.44637000"},{"id":"1ee9a6bf-08fb-4860-851b-a0c62cbe987e","name":"Kalochóri","ru":"Kalochóri","country":"5770e692-24de-424b-bf23-444c56b909fe","countryCode":"GR","state":"289b4197-56d9-4f1f-970e-86df69a4f8dd","stateCode":"B","latitude":"40.64189000","longitude":"22.85734000"},{"id":"5563883f-bbc3-4c59-98e6-01a269cccc2f","name":"Kampánis","ru":"Kampánis","country":"5770e692-24de-424b-bf23-444c56b909fe","countryCode":"GR","state":"289b4197-56d9-4f1f-970e-86df69a4f8dd","stateCode":"B","latitude":"40.88951000","longitude":"22.91682000"},{"id":"fe1cd911-cfe9-481b-9b65-e36e61c7231e","name":"Karítsa","ru":"Karítsa","country":"5770e692-24de-424b-bf23-444c56b909fe","countryCode":"GR","state":"289b4197-56d9-4f1f-970e-86df69a4f8dd","stateCode":"B","latitude":"40.18745000","longitude":"22.48171000"},{"id":"1d7e463c-a78a-4528-977c-e1dee070429d","name":"Kardiá","ru":"Kardiá","country":"5770e692-24de-424b-bf23-444c56b909fe","countryCode":"GR","state":"289b4197-56d9-4f1f-970e-86df69a4f8dd","stateCode":"B","latitude":"40.46909000","longitude":"22.99378000"},{"id":"fe34a0b4-4c00-42db-85bf-b8be32204d11","name":"Karyótissa","ru":"Karyótissa","country":"5770e692-24de-424b-bf23-444c56b909fe","countryCode":"GR","state":"289b4197-56d9-4f1f-970e-86df69a4f8dd","stateCode":"B","latitude":"40.76915000","longitude":"22.31331000"},{"id":"8283ad1f-a267-4056-9b24-12a23e50525e","name":"Kassándreia","ru":"Kassándreia","country":"5770e692-24de-424b-bf23-444c56b909fe","countryCode":"GR","state":"289b4197-56d9-4f1f-970e-86df69a4f8dd","stateCode":"B","latitude":"40.04835000","longitude":"23.41362000"},{"id":"e5dbfc3f-c2e9-40d6-a4a7-df53e8002c16","name":"Kateríni","ru":"Kateríni","country":"5770e692-24de-424b-bf23-444c56b909fe","countryCode":"GR","state":"289b4197-56d9-4f1f-970e-86df69a4f8dd","stateCode":"B","latitude":"40.26956000","longitude":"22.50608000"},{"id":"a4e2023d-8b80-4d24-ac54-813a34ec56c8","name":"Kavallári","ru":"Kavallári","country":"5770e692-24de-424b-bf23-444c56b909fe","countryCode":"GR","state":"289b4197-56d9-4f1f-970e-86df69a4f8dd","stateCode":"B","latitude":"40.71539000","longitude":"23.04588000"},{"id":"2d4a4538-b0cd-49a0-8984-00582fb70fae","name":"Káto Kamíla","ru":"Káto Kamíla","country":"5770e692-24de-424b-bf23-444c56b909fe","countryCode":"GR","state":"289b4197-56d9-4f1f-970e-86df69a4f8dd","stateCode":"B","latitude":"41.02119000","longitude":"23.48336000"},{"id":"8c9506c6-c119-43ce-9601-4f9df550e8e9","name":"Káto Lipochóri","ru":"Káto Lipochóri","country":"5770e692-24de-424b-bf23-444c56b909fe","countryCode":"GR","state":"289b4197-56d9-4f1f-970e-86df69a4f8dd","stateCode":"B","latitude":"40.75754000","longitude":"22.17962000"},{"id":"edadf00d-9f56-41c9-9a81-dc8d2db92082","name":"Káto Miliá","ru":"Káto Miliá","country":"5770e692-24de-424b-bf23-444c56b909fe","countryCode":"GR","state":"289b4197-56d9-4f1f-970e-86df69a4f8dd","stateCode":"B","latitude":"40.25403000","longitude":"22.34342000"},{"id":"e5b6c2d6-549f-4fa4-8ed1-e7e46ed88e11","name":"Káto Scholári","ru":"Káto Scholári","country":"5770e692-24de-424b-bf23-444c56b909fe","countryCode":"GR","state":"289b4197-56d9-4f1f-970e-86df69a4f8dd","stateCode":"B","latitude":"40.42906000","longitude":"23.02978000"},{"id":"a5a8c34c-d421-4b45-9f66-f12b3d7fdfc5","name":"Kítros","ru":"Kítros","country":"5770e692-24de-424b-bf23-444c56b909fe","countryCode":"GR","state":"289b4197-56d9-4f1f-970e-86df69a4f8dd","stateCode":"B","latitude":"40.37399000","longitude":"22.57862000"},{"id":"06fd6ab9-5770-45c5-9476-0082b29f344a","name":"Kýmina","ru":"Kýmina","country":"5770e692-24de-424b-bf23-444c56b909fe","countryCode":"GR","state":"289b4197-56d9-4f1f-970e-86df69a4f8dd","stateCode":"B","latitude":"40.61354000","longitude":"22.69278000"},{"id":"063df6de-f7c3-4bc3-bea7-69e4f2f6b77e","name":"Kilkís","ru":"Kilkís","country":"5770e692-24de-424b-bf23-444c56b909fe","countryCode":"GR","state":"289b4197-56d9-4f1f-970e-86df69a4f8dd","stateCode":"B","latitude":"40.99302000","longitude":"22.87433000"},{"id":"c214ab18-7ec8-4462-a09c-bc61189176f3","name":"Kleidí","ru":"Kleidí","country":"5770e692-24de-424b-bf23-444c56b909fe","countryCode":"GR","state":"289b4197-56d9-4f1f-970e-86df69a4f8dd","stateCode":"B","latitude":"40.56632000","longitude":"22.59033000"},{"id":"c0a4a603-72af-485f-bc03-5ff14a984f1d","name":"Koímisi","ru":"Koímisi","country":"5770e692-24de-424b-bf23-444c56b909fe","countryCode":"GR","state":"289b4197-56d9-4f1f-970e-86df69a4f8dd","stateCode":"B","latitude":"41.21282000","longitude":"23.30035000"},{"id":"c4084a9b-d13e-4207-bd08-02e026670ea1","name":"Kolchikón","ru":"Kolchikón","country":"5770e692-24de-424b-bf23-444c56b909fe","countryCode":"GR","state":"289b4197-56d9-4f1f-970e-86df69a4f8dd","stateCode":"B","latitude":"40.75662000","longitude":"23.13377000"},{"id":"7dbb8be2-8bea-426f-a1b8-d5b6914a698b","name":"Kolindrós","ru":"Kolindrós","country":"5770e692-24de-424b-bf23-444c56b909fe","countryCode":"GR","state":"289b4197-56d9-4f1f-970e-86df69a4f8dd","stateCode":"B","latitude":"40.47888000","longitude":"22.48319000"},{"id":"2190839c-a2bf-4283-bf6b-57384058847f","name":"Kontariótissa","ru":"Kontariótissa","country":"5770e692-24de-424b-bf23-444c56b909fe","countryCode":"GR","state":"289b4197-56d9-4f1f-970e-86df69a4f8dd","stateCode":"B","latitude":"40.22754000","longitude":"22.46100000"},{"id":"a9817529-bd9e-4397-9a54-14738f11afb6","name":"Kopanós","ru":"Kopanós","country":"5770e692-24de-424b-bf23-444c56b909fe","countryCode":"GR","state":"289b4197-56d9-4f1f-970e-86df69a4f8dd","stateCode":"B","latitude":"40.63382000","longitude":"22.12893000"},{"id":"b021916c-98f6-4c7f-bc89-3f24300a181a","name":"Korinós","ru":"Korinós","country":"5770e692-24de-424b-bf23-444c56b909fe","countryCode":"GR","state":"289b4197-56d9-4f1f-970e-86df69a4f8dd","stateCode":"B","latitude":"40.31659000","longitude":"22.58817000"},{"id":"8ec85dfe-9c47-46df-bb23-155d096be573","name":"Koryfí","ru":"Koryfí","country":"5770e692-24de-424b-bf23-444c56b909fe","countryCode":"GR","state":"289b4197-56d9-4f1f-970e-86df69a4f8dd","stateCode":"B","latitude":"40.60286000","longitude":"22.50681000"},{"id":"8339a747-c158-4a4a-b29d-384e45b1a8f1","name":"Koufália","ru":"Koufália","country":"5770e692-24de-424b-bf23-444c56b909fe","countryCode":"GR","state":"289b4197-56d9-4f1f-970e-86df69a4f8dd","stateCode":"B","latitude":"40.77778000","longitude":"22.57194000"},{"id":"30ebba00-174d-4a7d-9b5c-f196e752e5b7","name":"Kouloúra","ru":"Kouloúra","country":"5770e692-24de-424b-bf23-444c56b909fe","countryCode":"GR","state":"289b4197-56d9-4f1f-970e-86df69a4f8dd","stateCode":"B","latitude":"40.54652000","longitude":"22.31795000"},{"id":"2eb7cd36-809e-4eef-8b67-b5cce662c5f0","name":"Krýa Vrýsi","ru":"Krýa Vrýsi","country":"5770e692-24de-424b-bf23-444c56b909fe","countryCode":"GR","state":"289b4197-56d9-4f1f-970e-86df69a4f8dd","stateCode":"B","latitude":"40.68738000","longitude":"22.30516000"},{"id":"639fc558-e7d5-42d2-943d-e96a6e0f5bdf","name":"Krithiá","ru":"Krithiá","country":"5770e692-24de-424b-bf23-444c56b909fe","countryCode":"GR","state":"289b4197-56d9-4f1f-970e-86df69a4f8dd","stateCode":"B","latitude":"40.84184000","longitude":"22.98292000"},{"id":"5e06aab6-1648-45fa-a46c-2e8625e6b778","name":"Lagkadás","ru":"Lagkadás","country":"5770e692-24de-424b-bf23-444c56b909fe","countryCode":"GR","state":"289b4197-56d9-4f1f-970e-86df69a4f8dd","stateCode":"B","latitude":"40.75000000","longitude":"23.06667000"},{"id":"1d7f56d5-282b-49d3-ab4a-da38a149415e","name":"Lagyná","ru":"Lagyná","country":"5770e692-24de-424b-bf23-444c56b909fe","countryCode":"GR","state":"289b4197-56d9-4f1f-970e-86df69a4f8dd","stateCode":"B","latitude":"40.72351000","longitude":"23.00420000"},{"id":"04611647-1dab-4118-a2bf-7d940fdd7a2c","name":"Lákkoma","ru":"Lákkoma","country":"5770e692-24de-424b-bf23-444c56b909fe","countryCode":"GR","state":"289b4197-56d9-4f1f-970e-86df69a4f8dd","stateCode":"B","latitude":"40.39139000","longitude":"23.05578000"},{"id":"205c2e4d-81b0-43c8-baa1-1dd858399802","name":"Lófos","ru":"Lófos","country":"5770e692-24de-424b-bf23-444c56b909fe","countryCode":"GR","state":"289b4197-56d9-4f1f-970e-86df69a4f8dd","stateCode":"B","latitude":"40.24395000","longitude":"22.38033000"},{"id":"779d6fa2-7e55-46c8-b692-15c960818e15","name":"Lefkónas","ru":"Lefkónas","country":"5770e692-24de-424b-bf23-444c56b909fe","countryCode":"GR","state":"289b4197-56d9-4f1f-970e-86df69a4f8dd","stateCode":"B","latitude":"41.10029000","longitude":"23.49658000"},{"id":"09b421cc-7711-49c9-95b5-4beea3220edd","name":"Leptokaryá","ru":"Leptokaryá","country":"5770e692-24de-424b-bf23-444c56b909fe","countryCode":"GR","state":"289b4197-56d9-4f1f-970e-86df69a4f8dd","stateCode":"B","latitude":"40.06032000","longitude":"22.56120000"},{"id":"9d452bb3-50e6-4206-8232-69f7b81987a4","name":"Lianovérgi","ru":"Lianovérgi","country":"5770e692-24de-424b-bf23-444c56b909fe","countryCode":"GR","state":"289b4197-56d9-4f1f-970e-86df69a4f8dd","stateCode":"B","latitude":"40.63526000","longitude":"22.50820000"},{"id":"91f6fcb6-e8ff-409e-9ef0-d575c8c81d19","name":"Lití","ru":"Lití","country":"5770e692-24de-424b-bf23-444c56b909fe","countryCode":"GR","state":"289b4197-56d9-4f1f-970e-86df69a4f8dd","stateCode":"B","latitude":"40.74533000","longitude":"22.97982000"},{"id":"98b6ddbe-0fe9-43ed-bb6c-17be2ca49f63","name":"Litóchoro","ru":"Litóchoro","country":"5770e692-24de-424b-bf23-444c56b909fe","countryCode":"GR","state":"289b4197-56d9-4f1f-970e-86df69a4f8dd","stateCode":"B","latitude":"40.10056000","longitude":"22.49778000"},{"id":"907be619-60e1-44c8-872f-07e5e69e49ed","name":"Loutráki","ru":"Loutráki","country":"5770e692-24de-424b-bf23-444c56b909fe","countryCode":"GR","state":"289b4197-56d9-4f1f-970e-86df69a4f8dd","stateCode":"B","latitude":"40.97116000","longitude":"21.94659000"},{"id":"759734b7-5e08-46bd-bf5f-8833c0c01f70","name":"Loutrós","ru":"Loutrós","country":"5770e692-24de-424b-bf23-444c56b909fe","countryCode":"GR","state":"289b4197-56d9-4f1f-970e-86df69a4f8dd","stateCode":"B","latitude":"40.58873000","longitude":"22.39976000"},{"id":"966d9283-caec-474b-bdfd-850f52ad8faa","name":"Makrýgialos","ru":"Makrýgialos","country":"5770e692-24de-424b-bf23-444c56b909fe","countryCode":"GR","state":"289b4197-56d9-4f1f-970e-86df69a4f8dd","stateCode":"B","latitude":"40.41551000","longitude":"22.60392000"},{"id":"ac4efc12-9890-475e-9d49-296572521940","name":"Makrochóri","ru":"Makrochóri","country":"5770e692-24de-424b-bf23-444c56b909fe","countryCode":"GR","state":"289b4197-56d9-4f1f-970e-86df69a4f8dd","stateCode":"B","latitude":"40.55125000","longitude":"22.24955000"},{"id":"9d061d79-9fb3-4d02-92a6-ed0e40c1e1c3","name":"Marína","ru":"Marína","country":"5770e692-24de-424b-bf23-444c56b909fe","countryCode":"GR","state":"289b4197-56d9-4f1f-970e-86df69a4f8dd","stateCode":"B","latitude":"40.69200000","longitude":"22.10099000"},{"id":"c5f640e7-0cf0-4745-8293-225cca0c43ca","name":"Mavrothálassa","ru":"Mavrothálassa","country":"5770e692-24de-424b-bf23-444c56b909fe","countryCode":"GR","state":"289b4197-56d9-4f1f-970e-86df69a4f8dd","stateCode":"B","latitude":"40.89427000","longitude":"23.75048000"},{"id":"e58cbbbc-29d6-42b9-8f6d-e4f92988c2bb","name":"Mavrovoúni","ru":"Mavrovoúni","country":"5770e692-24de-424b-bf23-444c56b909fe","countryCode":"GR","state":"289b4197-56d9-4f1f-970e-86df69a4f8dd","stateCode":"B","latitude":"40.78243000","longitude":"22.15629000"},{"id":"08135991-1108-4e35-8d4c-29a8b583017b","name":"Mándalo","ru":"Mándalo","country":"5770e692-24de-424b-bf23-444c56b909fe","countryCode":"GR","state":"289b4197-56d9-4f1f-970e-86df69a4f8dd","stateCode":"B","latitude":"40.85677000","longitude":"22.21264000"},{"id":"81305ed1-b6c5-440b-aa13-bb9c828b92a9","name":"Megáli Panagía","ru":"Megáli Panagía","country":"5770e692-24de-424b-bf23-444c56b909fe","countryCode":"GR","state":"289b4197-56d9-4f1f-970e-86df69a4f8dd","stateCode":"B","latitude":"40.44505000","longitude":"23.67999000"},{"id":"ff6da11c-607a-46b3-932c-ab086ee25b0f","name":"Melíki","ru":"Melíki","country":"5770e692-24de-424b-bf23-444c56b909fe","countryCode":"GR","state":"289b4197-56d9-4f1f-970e-86df69a4f8dd","stateCode":"B","latitude":"40.51685000","longitude":"22.39599000"},{"id":"5b311144-9b06-47bf-a73c-4c8ea1f5c2c5","name":"Melíssi","ru":"Melíssi","country":"5770e692-24de-424b-bf23-444c56b909fe","countryCode":"GR","state":"289b4197-56d9-4f1f-970e-86df69a4f8dd","stateCode":"B","latitude":"40.77406000","longitude":"22.35304000"},{"id":"b1b6d546-7bfe-4bdd-afaf-a7b13624c10e","name":"Melissochóri","ru":"Melissochóri","country":"5770e692-24de-424b-bf23-444c56b909fe","countryCode":"GR","state":"289b4197-56d9-4f1f-970e-86df69a4f8dd","stateCode":"B","latitude":"40.76796000","longitude":"22.92858000"},{"id":"04d30f25-49dd-41ce-af6e-a307ee3f710b","name":"Meneméni","ru":"Meneméni","country":"5770e692-24de-424b-bf23-444c56b909fe","countryCode":"GR","state":"289b4197-56d9-4f1f-970e-86df69a4f8dd","stateCode":"B","latitude":"40.65829000","longitude":"22.89712000"},{"id":"dc38ca5a-9e6b-4b23-9f81-8e0c2783452e","name":"Mesiméri","ru":"Mesiméri","country":"5770e692-24de-424b-bf23-444c56b909fe","countryCode":"GR","state":"289b4197-56d9-4f1f-970e-86df69a4f8dd","stateCode":"B","latitude":"40.41344000","longitude":"23.00750000"},{"id":"a74099c5-d803-41ac-ac59-01c5e1e7bc9f","name":"Mikró Monastíri","ru":"Mikró Monastíri","country":"5770e692-24de-424b-bf23-444c56b909fe","countryCode":"GR","state":"289b4197-56d9-4f1f-970e-86df69a4f8dd","stateCode":"B","latitude":"40.70430000","longitude":"22.54112000"},{"id":"8951a06d-d265-4f9d-97e9-7f94ae8b60da","name":"Mitroúsi","ru":"Mitroúsi","country":"5770e692-24de-424b-bf23-444c56b909fe","countryCode":"GR","state":"289b4197-56d9-4f1f-970e-86df69a4f8dd","stateCode":"B","latitude":"41.07041000","longitude":"23.46064000"},{"id":"3603ebc2-fe2b-452f-b80e-f26f7a94496b","name":"Náousa","ru":"Náousa","country":"5770e692-24de-424b-bf23-444c56b909fe","countryCode":"GR","state":"289b4197-56d9-4f1f-970e-86df69a4f8dd","stateCode":"B","latitude":"40.62944000","longitude":"22.06806000"},{"id":"6bbc2f9c-0c08-43dd-8229-0cce01552395","name":"Néa Apollonía","ru":"Néa Apollonía","country":"5770e692-24de-424b-bf23-444c56b909fe","countryCode":"GR","state":"289b4197-56d9-4f1f-970e-86df69a4f8dd","stateCode":"B","latitude":"40.62558000","longitude":"23.44074000"},{"id":"f9d695cf-1870-4902-aec1-13342ce04670","name":"Néa Éfesos","ru":"Néa Éfesos","country":"5770e692-24de-424b-bf23-444c56b909fe","countryCode":"GR","state":"289b4197-56d9-4f1f-970e-86df69a4f8dd","stateCode":"B","latitude":"40.22923000","longitude":"22.49811000"},{"id":"872d9d72-4e2a-4ee2-9284-4e1270b0006b","name":"Néa Fókaia","ru":"Néa Fókaia","country":"5770e692-24de-424b-bf23-444c56b909fe","countryCode":"GR","state":"289b4197-56d9-4f1f-970e-86df69a4f8dd","stateCode":"B","latitude":"40.13333000","longitude":"23.39754000"},{"id":"3f30c88d-9bff-4f47-aeda-fa90ab2c0d36","name":"Néa Flogitá","ru":"Néa Flogitá","country":"5770e692-24de-424b-bf23-444c56b909fe","countryCode":"GR","state":"289b4197-56d9-4f1f-970e-86df69a4f8dd","stateCode":"B","latitude":"40.26108000","longitude":"23.22107000"},{"id":"62117fd1-0071-4930-9a24-e20d0260fdcc","name":"Néa Kallikráteia","ru":"Néa Kallikráteia","country":"5770e692-24de-424b-bf23-444c56b909fe","countryCode":"GR","state":"289b4197-56d9-4f1f-970e-86df69a4f8dd","stateCode":"B","latitude":"40.31312000","longitude":"23.06343000"},{"id":"394fc18c-e454-4fc9-9c37-d9ea7e1cd83b","name":"Néa Magnisía","ru":"Néa Magnisía","country":"5770e692-24de-424b-bf23-444c56b909fe","countryCode":"GR","state":"289b4197-56d9-4f1f-970e-86df69a4f8dd","stateCode":"B","latitude":"40.68785000","longitude":"22.84582000"},{"id":"8c3634cd-cefb-4187-b340-9d76cf47de3c","name":"Néa Málgara","ru":"Néa Málgara","country":"5770e692-24de-424b-bf23-444c56b909fe","countryCode":"GR","state":"289b4197-56d9-4f1f-970e-86df69a4f8dd","stateCode":"B","latitude":"40.60985000","longitude":"22.68196000"},{"id":"93b2b7d7-a051-4716-b7ba-b879ea7869c0","name":"Néa Mesimvría","ru":"Néa Mesimvría","country":"5770e692-24de-424b-bf23-444c56b909fe","countryCode":"GR","state":"289b4197-56d9-4f1f-970e-86df69a4f8dd","stateCode":"B","latitude":"40.75158000","longitude":"22.76904000"},{"id":"0e38b108-0793-4265-b976-aa2045bce61f","name":"Néa Michanióna","ru":"Néa Michanióna","country":"5770e692-24de-424b-bf23-444c56b909fe","countryCode":"GR","state":"289b4197-56d9-4f1f-970e-86df69a4f8dd","stateCode":"B","latitude":"40.46371000","longitude":"22.86170000"},{"id":"ccbfe61d-c118-4f6b-8c0b-ce742028c5ae","name":"Néa Moudhaniá","ru":"Néa Moudhaniá","country":"5770e692-24de-424b-bf23-444c56b909fe","countryCode":"GR","state":"289b4197-56d9-4f1f-970e-86df69a4f8dd","stateCode":"B","latitude":"40.24390000","longitude":"23.28484000"},{"id":"45f8e352-dceb-4e18-b10e-bdef33e86995","name":"Néa Pélla","ru":"Néa Pélla","country":"5770e692-24de-424b-bf23-444c56b909fe","countryCode":"GR","state":"289b4197-56d9-4f1f-970e-86df69a4f8dd","stateCode":"B","latitude":"40.76516000","longitude":"22.49173000"},{"id":"865a39a1-6f14-4fa8-9a66-48e3a1a093ad","name":"Néa Plágia","ru":"Néa Plágia","country":"5770e692-24de-424b-bf23-444c56b909fe","countryCode":"GR","state":"289b4197-56d9-4f1f-970e-86df69a4f8dd","stateCode":"B","latitude":"40.26537000","longitude":"23.20376000"},{"id":"0d671bc1-68a8-4887-ad33-9b47cafb6f13","name":"Néa Potídhaia","ru":"Néa Potídhaia","country":"5770e692-24de-424b-bf23-444c56b909fe","countryCode":"GR","state":"289b4197-56d9-4f1f-970e-86df69a4f8dd","stateCode":"B","latitude":"40.19428000","longitude":"23.32874000"},{"id":"17ee878f-c574-4707-b7bf-98e0abd9d0b3","name":"Néa Poteídaia","ru":"Néa Poteídaia","country":"5770e692-24de-424b-bf23-444c56b909fe","countryCode":"GR","state":"289b4197-56d9-4f1f-970e-86df69a4f8dd","stateCode":"B","latitude":"40.19409000","longitude":"23.32832000"},{"id":"8507264e-72a0-4c30-b846-e5a479259abc","name":"Néa Róda","ru":"Néa Róda","country":"5770e692-24de-424b-bf23-444c56b909fe","countryCode":"GR","state":"289b4197-56d9-4f1f-970e-86df69a4f8dd","stateCode":"B","latitude":"40.38119000","longitude":"23.92374000"},{"id":"0ef26e10-8177-49d1-ac83-0aab9904ce5c","name":"Néa Sánta","ru":"Néa Sánta","country":"5770e692-24de-424b-bf23-444c56b909fe","countryCode":"GR","state":"289b4197-56d9-4f1f-970e-86df69a4f8dd","stateCode":"B","latitude":"40.84084000","longitude":"22.92163000"},{"id":"03d6f2e0-af48-44fc-bd38-c0fc973cb13d","name":"Néa Tríglia","ru":"Néa Tríglia","country":"5770e692-24de-424b-bf23-444c56b909fe","countryCode":"GR","state":"289b4197-56d9-4f1f-970e-86df69a4f8dd","stateCode":"B","latitude":"40.30575000","longitude":"23.20660000"},{"id":"ef0c42f9-70f0-40ec-aaa3-1f1344b76e8b","name":"Néa Vrasná","ru":"Néa Vrasná","country":"5770e692-24de-424b-bf23-444c56b909fe","countryCode":"GR","state":"289b4197-56d9-4f1f-970e-86df69a4f8dd","stateCode":"B","latitude":"40.70592000","longitude":"23.69850000"},{"id":"8a82f436-67a8-433b-924f-bbf2bb06fc07","name":"Néa Zíchni","ru":"Néa Zíchni","country":"5770e692-24de-424b-bf23-444c56b909fe","countryCode":"GR","state":"289b4197-56d9-4f1f-970e-86df69a4f8dd","stateCode":"B","latitude":"41.03204000","longitude":"23.82870000"},{"id":"351ca380-d265-47bc-9de7-b6c1afcb7744","name":"Néo Agionéri","ru":"Néo Agionéri","country":"5770e692-24de-424b-bf23-444c56b909fe","countryCode":"GR","state":"289b4197-56d9-4f1f-970e-86df69a4f8dd","stateCode":"B","latitude":"40.80826000","longitude":"22.70733000"},{"id":"ce9fe040-58e8-4d6b-834a-f11dbf177c65","name":"Néo Petrítsi","ru":"Néo Petrítsi","country":"5770e692-24de-424b-bf23-444c56b909fe","countryCode":"GR","state":"289b4197-56d9-4f1f-970e-86df69a4f8dd","stateCode":"B","latitude":"41.27459000","longitude":"23.29381000"},