[{"id":"bbc7cfe6-f9d2-4be9-a582-89870b4d6b54","name":"Chibombo","ru":"Chibombo","country":"d1c017d8-a250-4c5a-a46f-a2860bae0342","countryCode":"ZM","state":"4a8b4dec-28d6-4442-abd2-cef84ee0ba44","stateCode":"02","latitude":"-14.65685000","longitude":"28.07057000"},{"id":"10bc9d43-2249-4e75-920e-379c0df51c2f","name":"Chibombo District","ru":"Chibombo District","country":"d1c017d8-a250-4c5a-a46f-a2860bae0342","countryCode":"ZM","state":"4a8b4dec-28d6-4442-abd2-cef84ee0ba44","stateCode":"02","latitude":"-14.65808000","longitude":"28.07376000"},{"id":"3d631a06-9bab-45ac-bbf9-00420bc24a2a","name":"Kabwe","ru":"Kabwe","country":"d1c017d8-a250-4c5a-a46f-a2860bae0342","countryCode":"ZM","state":"4a8b4dec-28d6-4442-abd2-cef84ee0ba44","stateCode":"02","latitude":"-14.44690000","longitude":"28.44644000"},{"id":"e376a0f1-37b6-409c-b89a-0816620ebaa3","name":"Kapiri Mposhi","ru":"Kapiri Mposhi","country":"d1c017d8-a250-4c5a-a46f-a2860bae0342","countryCode":"ZM","state":"4a8b4dec-28d6-4442-abd2-cef84ee0ba44","stateCode":"02","latitude":"-13.97147000","longitude":"28.66985000"},{"id":"f1bed3ea-4a4c-4008-869f-1cd5d952d108","name":"Mkushi","ru":"Mkushi","country":"d1c017d8-a250-4c5a-a46f-a2860bae0342","countryCode":"ZM","state":"4a8b4dec-28d6-4442-abd2-cef84ee0ba44","stateCode":"02","latitude":"-13.62015000","longitude":"29.39390000"},{"id":"ea081713-095a-49e1-92fc-fa8d71b7715e","name":"Mumbwa","ru":"Mumbwa","country":"d1c017d8-a250-4c5a-a46f-a2860bae0342","countryCode":"ZM","state":"4a8b4dec-28d6-4442-abd2-cef84ee0ba44","stateCode":"02","latitude":"-14.98293000","longitude":"27.06190000"},{"id":"f89325bf-ee79-4a84-988c-8a261ea382c7","name":"Serenje","ru":"Serenje","country":"d1c017d8-a250-4c5a-a46f-a2860bae0342","countryCode":"ZM","state":"4a8b4dec-28d6-4442-abd2-cef84ee0ba44","stateCode":"02","latitude":"-13.23251000","longitude":"30.23522000"},{"id":"598cdd53-aebf-4c24-b90f-07c7780fc5b7","name":"Chambishi","ru":"Chambishi","country":"d1c017d8-a250-4c5a-a46f-a2860bae0342","countryCode":"ZM","state":"95913e6b-03d6-49c5-a064-ee5d059e5751","stateCode":"08","latitude":"-12.63247000","longitude":"28.05367000"},{"id":"9030bd41-3796-4ac5-b9f7-0840f4e1c502","name":"Chililabombwe","ru":"Chililabombwe","country":"d1c017d8-a250-4c5a-a46f-a2860bae0342","countryCode":"ZM","state":"95913e6b-03d6-49c5-a064-ee5d059e5751","stateCode":"08","latitude":"-12.36475000","longitude":"27.82286000"},{"id":"c8d4fb07-5307-4762-8df7-d0448ed31fcc","name":"Chingola","ru":"Chingola","country":"d1c017d8-a250-4c5a-a46f-a2860bae0342","countryCode":"ZM","state":"95913e6b-03d6-49c5-a064-ee5d059e5751","stateCode":"08","latitude":"-12.52897000","longitude":"27.88382000"},{"id":"9cf6d4ef-e305-4164-804e-c015bf953883","name":"Chingola District","ru":"Chingola District","country":"d1c017d8-a250-4c5a-a46f-a2860bae0342","countryCode":"ZM","state":"95913e6b-03d6-49c5-a064-ee5d059e5751","stateCode":"08","latitude":"-12.48478000","longitude":"27.66313000"},{"id":"78757afb-1ca4-4524-b724-128e43c03880","name":"Kalulushi","ru":"Kalulushi","country":"d1c017d8-a250-4c5a-a46f-a2860bae0342","countryCode":"ZM","state":"95913e6b-03d6-49c5-a064-ee5d059e5751","stateCode":"08","latitude":"-12.84151000","longitude":"28.09479000"},{"id":"f315a78a-cb8d-4de2-8943-ba22a0238eae","name":"Kataba","ru":"Kataba","country":"d1c017d8-a250-4c5a-a46f-a2860bae0342","countryCode":"ZM","state":"95913e6b-03d6-49c5-a064-ee5d059e5751","stateCode":"08","latitude":"-11.88333000","longitude":"29.78333000"},{"id":"3f90c471-85a4-4202-b685-bfb0ff6e8051","name":"Kitwe","ru":"Kitwe","country":"d1c017d8-a250-4c5a-a46f-a2860bae0342","countryCode":"ZM","state":"95913e6b-03d6-49c5-a064-ee5d059e5751","stateCode":"08","latitude":"-12.80243000","longitude":"28.21323000"},{"id":"5625283f-0fb3-4e09-93c6-c8918d6ed4e9","name":"Luanshya","ru":"Luanshya","country":"d1c017d8-a250-4c5a-a46f-a2860bae0342","countryCode":"ZM","state":"95913e6b-03d6-49c5-a064-ee5d059e5751","stateCode":"08","latitude":"-13.13667000","longitude":"28.41661000"},{"id":"65741353-e6dd-44e3-90a5-c9716ecaa096","name":"Mpongwe","ru":"Mpongwe","country":"d1c017d8-a250-4c5a-a46f-a2860bae0342","countryCode":"ZM","state":"95913e6b-03d6-49c5-a064-ee5d059e5751","stateCode":"08","latitude":"-13.50914000","longitude":"28.15504000"},{"id":"1806557e-427b-4dad-856a-3f92a73ee1b8","name":"Mufulira","ru":"Mufulira","country":"d1c017d8-a250-4c5a-a46f-a2860bae0342","countryCode":"ZM","state":"95913e6b-03d6-49c5-a064-ee5d059e5751","stateCode":"08","latitude":"-12.54982000","longitude":"28.24071000"},{"id":"84183c81-3c41-40f8-8fc9-36da4fc3b764","name":"Ndola","ru":"Ndola","country":"d1c017d8-a250-4c5a-a46f-a2860bae0342","countryCode":"ZM","state":"95913e6b-03d6-49c5-a064-ee5d059e5751","stateCode":"08","latitude":"-12.95867000","longitude":"28.63659000"},{"id":"f171411f-9b63-4e2d-8320-8a27f32ea7e9","name":"Chadiza","ru":"Chadiza","country":"d1c017d8-a250-4c5a-a46f-a2860bae0342","countryCode":"ZM","state":"a1e7eb89-5a3d-471e-824f-da07d93037da","stateCode":"03","latitude":"-14.06779000","longitude":"32.43917000"},{"id":"43389af9-2741-4be6-aba8-0577d94863a3","name":"Chipata","ru":"Chipata","country":"d1c017d8-a250-4c5a-a46f-a2860bae0342","countryCode":"ZM","state":"a1e7eb89-5a3d-471e-824f-da07d93037da","stateCode":"03","latitude":"-13.63333000","longitude":"32.65000000"},{"id":"0ffbc9d4-edf5-4d88-a4eb-c7bad2057db9","name":"Lundazi","ru":"Lundazi","country":"d1c017d8-a250-4c5a-a46f-a2860bae0342","countryCode":"ZM","state":"a1e7eb89-5a3d-471e-824f-da07d93037da","stateCode":"03","latitude":"-12.29292000","longitude":"33.17820000"},{"id":"d45e931e-7fba-4091-9eab-3284d72d143d","name":"Nyimba","ru":"Nyimba","country":"d1c017d8-a250-4c5a-a46f-a2860bae0342","countryCode":"ZM","state":"a1e7eb89-5a3d-471e-824f-da07d93037da","stateCode":"03","latitude":"-14.55656000","longitude":"30.81490000"},{"id":"c15dc38e-0418-4047-ae0a-4d01ac088d91","name":"Petauke","ru":"Petauke","country":"d1c017d8-a250-4c5a-a46f-a2860bae0342","countryCode":"ZM","state":"a1e7eb89-5a3d-471e-824f-da07d93037da","stateCode":"03","latitude":"-14.24117000","longitude":"31.31975000"},{"id":"3eb276f2-dea5-405d-84b6-aec8f9f5d3c2","name":"Kawambwa","ru":"Kawambwa","country":"d1c017d8-a250-4c5a-a46f-a2860bae0342","countryCode":"ZM","state":"bc9fd002-b550-45d8-b242-fe8aa92468f1","stateCode":"04","latitude":"-9.79150000","longitude":"29.07913000"},{"id":"2b0ef378-3ec8-4a28-9ece-d3a7869e5079","name":"Mansa","ru":"Mansa","country":"d1c017d8-a250-4c5a-a46f-a2860bae0342","countryCode":"ZM","state":"bc9fd002-b550-45d8-b242-fe8aa92468f1","stateCode":"04","latitude":"-11.19976000","longitude":"28.89431000"},{"id":"58a7f6ee-d18f-44fb-a1b9-8c187bfba98b","name":"Mwense","ru":"Mwense","country":"d1c017d8-a250-4c5a-a46f-a2860bae0342","countryCode":"ZM","state":"bc9fd002-b550-45d8-b242-fe8aa92468f1","stateCode":"04","latitude":"-10.38447000","longitude":"28.69800000"},{"id":"4d690b03-081b-452e-8fa7-2e189c890706","name":"Nchelenge","ru":"Nchelenge","country":"d1c017d8-a250-4c5a-a46f-a2860bae0342","countryCode":"ZM","state":"bc9fd002-b550-45d8-b242-fe8aa92468f1","stateCode":"04","latitude":"-9.34506000","longitude":"28.73396000"},{"id":"28472927-a0dc-4227-a7a5-de72eb3ae5f4","name":"Samfya","ru":"Samfya","country":"d1c017d8-a250-4c5a-a46f-a2860bae0342","countryCode":"ZM","state":"bc9fd002-b550-45d8-b242-fe8aa92468f1","stateCode":"04","latitude":"-11.36491000","longitude":"29.55652000"},{"id":"d2bc1673-fea5-46f4-906b-25567e7ee375","name":"Chongwe","ru":"Chongwe","country":"d1c017d8-a250-4c5a-a46f-a2860bae0342","countryCode":"ZM","state":"6376e008-7951-4ba2-a9ad-767bebb7673b","stateCode":"09","latitude":"-15.32916000","longitude":"28.68204000"},{"id":"f2209eb5-01ca-4335-88d9-765b408ba29c","name":"Kafue","ru":"Kafue","country":"d1c017d8-a250-4c5a-a46f-a2860bae0342","countryCode":"ZM","state":"6376e008-7951-4ba2-a9ad-767bebb7673b","stateCode":"09","latitude":"-15.76911000","longitude":"28.18136000"},{"id":"605992ff-9f16-4210-a7c9-3c6a739a2817","name":"Luangwa","ru":"Luangwa","country":"d1c017d8-a250-4c5a-a46f-a2860bae0342","countryCode":"ZM","state":"6376e008-7951-4ba2-a9ad-767bebb7673b","stateCode":"09","latitude":"-15.61667000","longitude":"30.41667000"},{"id":"df892f5a-ab52-428d-970d-d5cc42f76ada","name":"Lusaka","ru":"Lusaka","country":"d1c017d8-a250-4c5a-a46f-a2860bae0342","countryCode":"ZM","state":"6376e008-7951-4ba2-a9ad-767bebb7673b","stateCode":"09","latitude":"-15.40669000","longitude":"28.28713000"},{"id":"6515c877-6844-4060-a5d7-b9d978488831","name":"Chama","ru":"Chama","country":"d1c017d8-a250-4c5a-a46f-a2860bae0342","countryCode":"ZM","state":"9cf3bd78-9d71-482e-a0d8-6f460c4b37b4","stateCode":"10","latitude":"-11.21303000","longitude":"33.15210000"},{"id":"6aa87a03-8320-43fa-bfc9-37dbc3950755","name":"Chinsali","ru":"Chinsali","country":"d1c017d8-a250-4c5a-a46f-a2860bae0342","countryCode":"ZM","state":"9cf3bd78-9d71-482e-a0d8-6f460c4b37b4","stateCode":"10","latitude":"-10.54142000","longitude":"32.08162000"},{"id":"5c778781-f1d4-4b8f-a426-f84efc436dd8","name":"Isoka","ru":"Isoka","country":"d1c017d8-a250-4c5a-a46f-a2860bae0342","countryCode":"ZM","state":"9cf3bd78-9d71-482e-a0d8-6f460c4b37b4","stateCode":"10","latitude":"-10.16062000","longitude":"32.63353000"},{"id":"1f16ef1b-49b9-4224-82c7-936ed1ed8cfc","name":"Mpika","ru":"Mpika","country":"d1c017d8-a250-4c5a-a46f-a2860bae0342","countryCode":"ZM","state":"9cf3bd78-9d71-482e-a0d8-6f460c4b37b4","stateCode":"10","latitude":"-11.83431000","longitude":"31.45287000"},{"id":"04417529-003c-44d0-9b9d-cfc9441d1020","name":"Nakonde","ru":"Nakonde","country":"d1c017d8-a250-4c5a-a46f-a2860bae0342","countryCode":"ZM","state":"9cf3bd78-9d71-482e-a0d8-6f460c4b37b4","stateCode":"10","latitude":"-9.34213000","longitude":"32.74500000"},{"id":"5f28fb4a-cbc4-4d09-b9a6-f3579b1fbcd9","name":"Kaputa","ru":"Kaputa","country":"d1c017d8-a250-4c5a-a46f-a2860bae0342","countryCode":"ZM","state":"a1df003d-fdc3-462f-a5c9-1e58fd61ba8f","stateCode":"05","latitude":"-8.46887000","longitude":"29.66193000"},{"id":"e68a74f8-3f50-496b-96d7-55d3b29efd8a","name":"Kasama","ru":"Kasama","country":"d1c017d8-a250-4c5a-a46f-a2860bae0342","countryCode":"ZM","state":"a1df003d-fdc3-462f-a5c9-1e58fd61ba8f","stateCode":"05","latitude":"-10.21289000","longitude":"31.18084000"},{"id":"cef65f6d-798c-47b9-a9d7-48b474d6b71c","name":"Luwingu","ru":"Luwingu","country":"d1c017d8-a250-4c5a-a46f-a2860bae0342","countryCode":"ZM","state":"a1df003d-fdc3-462f-a5c9-1e58fd61ba8f","stateCode":"05","latitude":"-10.26210000","longitude":"29.92712000"},{"id":"58b9488a-74d2-43e2-90c1-16359c0f7e84","name":"Mbala","ru":"Mbala","country":"d1c017d8-a250-4c5a-a46f-a2860bae0342","countryCode":"ZM","state":"a1df003d-fdc3-462f-a5c9-1e58fd61ba8f","stateCode":"05","latitude":"-8.84024000","longitude":"31.36587000"},{"id":"e494669d-0dec-4bbf-a9f3-3b46e6e4b18e","name":"Mporokoso","ru":"Mporokoso","country":"d1c017d8-a250-4c5a-a46f-a2860bae0342","countryCode":"ZM","state":"a1df003d-fdc3-462f-a5c9-1e58fd61ba8f","stateCode":"05","latitude":"-9.37273000","longitude":"30.12501000"},{"id":"a387de53-f4f2-4b87-9611-00af74736340","name":"Mpulungu","ru":"Mpulungu","country":"d1c017d8-a250-4c5a-a46f-a2860bae0342","countryCode":"ZM","state":"a1df003d-fdc3-462f-a5c9-1e58fd61ba8f","stateCode":"05","latitude":"-8.76234000","longitude":"31.11405000"},{"id":"2adca239-5bc5-4c05-bfb6-6588f796de88","name":"Mungwi","ru":"Mungwi","country":"d1c017d8-a250-4c5a-a46f-a2860bae0342","countryCode":"ZM","state":"a1df003d-fdc3-462f-a5c9-1e58fd61ba8f","stateCode":"05","latitude":"-10.17320000","longitude":"31.36942000"},{"id":"884beab9-96f3-49bb-af74-4e0e651b2d85","name":"Kabompo","ru":"Kabompo","country":"d1c017d8-a250-4c5a-a46f-a2860bae0342","countryCode":"ZM","state":"3560d82d-12ef-4624-9225-91b562cd016a","stateCode":"06","latitude":"-13.59268000","longitude":"24.20081000"},{"id":"c2976d23-5bff-40ad-90dc-6ec98d0b20b8","name":"Kalengwa","ru":"Kalengwa","country":"d1c017d8-a250-4c5a-a46f-a2860bae0342","countryCode":"ZM","state":"3560d82d-12ef-4624-9225-91b562cd016a","stateCode":"06","latitude":"-13.46586000","longitude":"25.00271000"},{"id":"70152921-9502-4887-b617-64c3f0a7331d","name":"Kansanshi","ru":"Kansanshi","country":"d1c017d8-a250-4c5a-a46f-a2860bae0342","countryCode":"ZM","state":"3560d82d-12ef-4624-9225-91b562cd016a","stateCode":"06","latitude":"-12.09514000","longitude":"26.42727000"},{"id":"960b4323-66e3-4e75-bc55-0e2be8df9a8b","name":"Kasempa","ru":"Kasempa","country":"d1c017d8-a250-4c5a-a46f-a2860bae0342","countryCode":"ZM","state":"3560d82d-12ef-4624-9225-91b562cd016a","stateCode":"06","latitude":"-13.45836000","longitude":"25.83380000"},{"id":"95cd2425-de42-4b7c-8f74-92785e0654a3","name":"Mufumbwe","ru":"Mufumbwe","country":"d1c017d8-a250-4c5a-a46f-a2860bae0342","countryCode":"ZM","state":"3560d82d-12ef-4624-9225-91b562cd016a","stateCode":"06","latitude":"-13.68333000","longitude":"24.80000000"},{"id":"58e50aba-49fc-4a39-ac42-3e6ca1637ba4","name":"Mwinilunga","ru":"Mwinilunga","country":"d1c017d8-a250-4c5a-a46f-a2860bae0342","countryCode":"ZM","state":"3560d82d-12ef-4624-9225-91b562cd016a","stateCode":"06","latitude":"-11.73584000","longitude":"24.42926000"},{"id":"483667ee-dd76-4bd0-8cd9-9631c99de3b4","name":"Solwezi","ru":"Solwezi","country":"d1c017d8-a250-4c5a-a46f-a2860bae0342","countryCode":"ZM","state":"3560d82d-12ef-4624-9225-91b562cd016a","stateCode":"06","latitude":"-12.16880000","longitude":"26.38938000"},{"id":"1ba1678b-bded-4cb7-ae16-14446644f506","name":"Zambezi","ru":"Zambezi","country":"d1c017d8-a250-4c5a-a46f-a2860bae0342","countryCode":"ZM","state":"3560d82d-12ef-4624-9225-91b562cd016a","stateCode":"06","latitude":"-13.54323000","longitude":"23.10467000"},{"id":"b088f839-b67a-46e3-b8ec-2d774f051e8a","name":"Choma","ru":"Choma","country":"d1c017d8-a250-4c5a-a46f-a2860bae0342","countryCode":"ZM","state":"88c0bffa-2133-4176-857f-15104424d71a","stateCode":"07","latitude":"-16.80889000","longitude":"26.98750000"},{"id":"b6e38377-9019-473e-b176-b7e5bd184b79","name":"Gwembe","ru":"Gwembe","country":"d1c017d8-a250-4c5a-a46f-a2860bae0342","countryCode":"ZM","state":"88c0bffa-2133-4176-857f-15104424d71a","stateCode":"07","latitude":"-16.49755000","longitude":"27.60691000"},{"id":"b239871e-8be9-425d-b774-41c0ed23d4ac","name":"Itezhi-Tezhi District","ru":"Itezhi-Tezhi District","country":"d1c017d8-a250-4c5a-a46f-a2860bae0342","countryCode":"ZM","state":"88c0bffa-2133-4176-857f-15104424d71a","stateCode":"07","latitude":"-15.74092000","longitude":"26.04146000"},{"id":"749b9b51-b2af-4bb2-857c-25dfddda75cb","name":"Livingstone","ru":"Livingstone","country":"d1c017d8-a250-4c5a-a46f-a2860bae0342","countryCode":"ZM","state":"88c0bffa-2133-4176-857f-15104424d71a","stateCode":"07","latitude":"-17.84194000","longitude":"25.85425000"},{"id":"361b02ba-c5f7-44d9-9332-8850842c03b7","name":"Maamba","ru":"Maamba","country":"d1c017d8-a250-4c5a-a46f-a2860bae0342","countryCode":"ZM","state":"88c0bffa-2133-4176-857f-15104424d71a","stateCode":"07","latitude":"-17.36667000","longitude":"27.15000000"},{"id":"8f533217-ca2e-4027-8895-d4423056983d","name":"Mazabuka","ru":"Mazabuka","country":"d1c017d8-a250-4c5a-a46f-a2860bae0342","countryCode":"ZM","state":"88c0bffa-2133-4176-857f-15104424d71a","stateCode":"07","latitude":"-15.85601000","longitude":"27.74800000"},{"id":"98efeef5-adcd-4ade-bc3f-e4302d092a03","name":"Monze","ru":"Monze","country":"d1c017d8-a250-4c5a-a46f-a2860bae0342","countryCode":"ZM","state":"88c0bffa-2133-4176-857f-15104424d71a","stateCode":"07","latitude":"-16.28333000","longitude":"27.48333000"},{"id":"38ec0fad-3df3-4267-a360-de5a18dafdf5","name":"Nakambala","ru":"Nakambala","country":"d1c017d8-a250-4c5a-a46f-a2860bae0342","countryCode":"ZM","state":"88c0bffa-2133-4176-857f-15104424d71a","stateCode":"07","latitude":"-15.83244000","longitude":"27.77994000"},{"id":"8f649b1b-b8ae-44a5-9335-16ba614bed2d","name":"Namwala","ru":"Namwala","country":"d1c017d8-a250-4c5a-a46f-a2860bae0342","countryCode":"ZM","state":"88c0bffa-2133-4176-857f-15104424d71a","stateCode":"07","latitude":"-15.75042000","longitude":"26.43839000"},{"id":"a7e835c4-9fd5-4559-9279-c0f5f93b9ca3","name":"Siavonga","ru":"Siavonga","country":"d1c017d8-a250-4c5a-a46f-a2860bae0342","countryCode":"ZM","state":"88c0bffa-2133-4176-857f-15104424d71a","stateCode":"07","latitude":"-16.53818000","longitude":"28.70876000"},{"id":"a7a11e93-43bb-4b4b-8035-269a045b7901","name":"Siavonga District","ru":"Siavonga District","country":"d1c017d8-a250-4c5a-a46f-a2860bae0342","countryCode":"ZM","state":"88c0bffa-2133-4176-857f-15104424d71a","stateCode":"07","latitude":"-16.26742000","longitude":"28.55036000"},{"id":"ca145e16-0c8f-436b-91c4-5a957e4ee943","name":"Sinazongwe","ru":"Sinazongwe","country":"d1c017d8-a250-4c5a-a46f-a2860bae0342","countryCode":"ZM","state":"88c0bffa-2133-4176-857f-15104424d71a","stateCode":"07","latitude":"-17.26140000","longitude":"27.46179000"},{"id":"28b231f3-b81c-4f3d-8d97-c331cd84b368","name":"Kalabo","ru":"Kalabo","country":"d1c017d8-a250-4c5a-a46f-a2860bae0342","countryCode":"ZM","state":"442000f8-e179-4828-8e26-0ef573a208f0","stateCode":"01","latitude":"-14.99307000","longitude":"22.67926000"},{"id":"696300bb-28d1-4e1d-a552-09cadb084248","name":"Kaoma","ru":"Kaoma","country":"d1c017d8-a250-4c5a-a46f-a2860bae0342","countryCode":"ZM","state":"442000f8-e179-4828-8e26-0ef573a208f0","stateCode":"01","latitude":"-14.78333000","longitude":"24.80000000"},{"id":"1eaf91ff-4a18-4424-9992-67b1b6c5387a","name":"Limulunga","ru":"Limulunga","country":"d1c017d8-a250-4c5a-a46f-a2860bae0342","countryCode":"ZM","state":"442000f8-e179-4828-8e26-0ef573a208f0","stateCode":"01","latitude":"-15.09691000","longitude":"23.13757000"},{"id":"1f0cac54-f2a3-4df2-bf56-1344f2721850","name":"Lukulu","ru":"Lukulu","country":"d1c017d8-a250-4c5a-a46f-a2860bae0342","countryCode":"ZM","state":"442000f8-e179-4828-8e26-0ef573a208f0","stateCode":"01","latitude":"-14.37067000","longitude":"23.24196000"},{"id":"9f5a1f63-7f39-4b53-959b-486f29ca6315","name":"Mongu","ru":"Mongu","country":"d1c017d8-a250-4c5a-a46f-a2860bae0342","countryCode":"ZM","state":"442000f8-e179-4828-8e26-0ef573a208f0","stateCode":"01","latitude":"-15.24835000","longitude":"23.12741000"},{"id":"5fb5882a-5d12-40f4-a2e4-2a911f9f2308","name":"Senanga","ru":"Senanga","country":"d1c017d8-a250-4c5a-a46f-a2860bae0342","countryCode":"ZM","state":"442000f8-e179-4828-8e26-0ef573a208f0","stateCode":"01","latitude":"-16.11667000","longitude":"23.26667000"},{"id":"85f496b6-f58c-424b-80e9-49e95daed21d","name":"Sesheke","ru":"Sesheke","country":"d1c017d8-a250-4c5a-a46f-a2860bae0342","countryCode":"ZM","state":"442000f8-e179-4828-8e26-0ef573a208f0","stateCode":"01","latitude":"-17.47593000","longitude":"24.29684000"}]