[{"id":"9917c357-62e0-4d67-9d3c-ac9644df3a6d","name":"Äänekoski","ru":"Äänekoski","country":"f8146eb7-d2c4-47a1-94f9-c5aa422f487d","countryCode":"FI","state":"7d1030f9-9356-4d58-b116-d67537b3a606","stateCode":"08","latitude":"62.60000000","longitude":"25.73333000"},{"id":"a7631744-5ead-4f22-8f35-61982280be86","name":"Hankasalmi","ru":"Hankasalmi","country":"f8146eb7-d2c4-47a1-94f9-c5aa422f487d","countryCode":"FI","state":"7d1030f9-9356-4d58-b116-d67537b3a606","stateCode":"08","latitude":"62.38333000","longitude":"26.43333000"},{"id":"885682f1-c93b-4887-930e-5307040df35d","name":"Jämsä","ru":"Jämsä","country":"f8146eb7-d2c4-47a1-94f9-c5aa422f487d","countryCode":"FI","state":"7d1030f9-9356-4d58-b116-d67537b3a606","stateCode":"08","latitude":"61.86420000","longitude":"25.19002000"},{"id":"5b915c94-7922-4cb0-b29d-931a0d614d8f","name":"Jämsänkoski","ru":"Jämsänkoski","country":"f8146eb7-d2c4-47a1-94f9-c5aa422f487d","countryCode":"FI","state":"7d1030f9-9356-4d58-b116-d67537b3a606","stateCode":"08","latitude":"61.91900000","longitude":"25.17011000"},{"id":"0a7c7646-7e6b-4c59-b97f-477a48d0c4b5","name":"Joutsa","ru":"Joutsa","country":"f8146eb7-d2c4-47a1-94f9-c5aa422f487d","countryCode":"FI","state":"7d1030f9-9356-4d58-b116-d67537b3a606","stateCode":"08","latitude":"61.73333000","longitude":"26.11667000"},{"id":"e5a52175-b4b6-4d82-9f57-54e03e276143","name":"Jyväskylä","ru":"Jyväskylä","country":"f8146eb7-d2c4-47a1-94f9-c5aa422f487d","countryCode":"FI","state":"7d1030f9-9356-4d58-b116-d67537b3a606","stateCode":"08","latitude":"62.24147000","longitude":"25.72088000"},{"id":"75a792d5-8c3b-44b0-ad04-1b31adf92e0b","name":"Kannonkoski","ru":"Kannonkoski","country":"f8146eb7-d2c4-47a1-94f9-c5aa422f487d","countryCode":"FI","state":"7d1030f9-9356-4d58-b116-d67537b3a606","stateCode":"08","latitude":"62.96667000","longitude":"25.25000000"},{"id":"62951502-4858-4934-96fd-6625204c9566","name":"Karstula","ru":"Karstula","country":"f8146eb7-d2c4-47a1-94f9-c5aa422f487d","countryCode":"FI","state":"7d1030f9-9356-4d58-b116-d67537b3a606","stateCode":"08","latitude":"62.86667000","longitude":"24.78333000"},{"id":"cc3060cf-25dd-4c98-9c5d-17ded2f1a3be","name":"Keuruu","ru":"Keuruu","country":"f8146eb7-d2c4-47a1-94f9-c5aa422f487d","countryCode":"FI","state":"7d1030f9-9356-4d58-b116-d67537b3a606","stateCode":"08","latitude":"62.26667000","longitude":"24.70000000"},{"id":"a2defa1a-2aac-4be9-8ab6-fea6673bf0df","name":"Kinnula","ru":"Kinnula","country":"f8146eb7-d2c4-47a1-94f9-c5aa422f487d","countryCode":"FI","state":"7d1030f9-9356-4d58-b116-d67537b3a606","stateCode":"08","latitude":"63.38333000","longitude":"24.95000000"},{"id":"33dd40c1-5926-4790-af3f-2e2e06667e63","name":"Kivijärvi","ru":"Kivijärvi","country":"f8146eb7-d2c4-47a1-94f9-c5aa422f487d","countryCode":"FI","state":"7d1030f9-9356-4d58-b116-d67537b3a606","stateCode":"08","latitude":"63.11984000","longitude":"25.07835000"},{"id":"77cc7b0e-f5d8-4d67-9f25-b68f973c6d41","name":"Konnevesi","ru":"Konnevesi","country":"f8146eb7-d2c4-47a1-94f9-c5aa422f487d","countryCode":"FI","state":"7d1030f9-9356-4d58-b116-d67537b3a606","stateCode":"08","latitude":"62.61667000","longitude":"26.31667000"},{"id":"f390c3cf-1f8f-4d01-852f-31c9a89c31e8","name":"Korpilahti","ru":"Korpilahti","country":"f8146eb7-d2c4-47a1-94f9-c5aa422f487d","countryCode":"FI","state":"7d1030f9-9356-4d58-b116-d67537b3a606","stateCode":"08","latitude":"62.01667000","longitude":"25.55000000"},{"id":"8174c4d9-4ef4-4c70-bedd-8b66c76ee5a7","name":"Kuhmoinen","ru":"Kuhmoinen","country":"f8146eb7-d2c4-47a1-94f9-c5aa422f487d","countryCode":"FI","state":"7d1030f9-9356-4d58-b116-d67537b3a606","stateCode":"08","latitude":"61.56667000","longitude":"25.18333000"},{"id":"5077ceaa-f700-4e32-8d25-e536c0be8a99","name":"Kyyjärvi","ru":"Kyyjärvi","country":"f8146eb7-d2c4-47a1-94f9-c5aa422f487d","countryCode":"FI","state":"7d1030f9-9356-4d58-b116-d67537b3a606","stateCode":"08","latitude":"63.03333000","longitude":"24.56667000"},{"id":"b56092ad-64b5-4ffb-9659-f6821d3ca83d","name":"Laukaa","ru":"Laukaa","country":"f8146eb7-d2c4-47a1-94f9-c5aa422f487d","countryCode":"FI","state":"7d1030f9-9356-4d58-b116-d67537b3a606","stateCode":"08","latitude":"62.41407000","longitude":"25.95194000"},{"id":"6d1d3e7b-e85d-41a7-b8ae-8e258942aff3","name":"Leivonmäki","ru":"Leivonmäki","country":"f8146eb7-d2c4-47a1-94f9-c5aa422f487d","countryCode":"FI","state":"7d1030f9-9356-4d58-b116-d67537b3a606","stateCode":"08","latitude":"61.91198000","longitude":"26.12796000"},{"id":"4388a680-9059-4b1d-a429-b6a81fa19d6d","name":"Luhanka","ru":"Luhanka","country":"f8146eb7-d2c4-47a1-94f9-c5aa422f487d","countryCode":"FI","state":"7d1030f9-9356-4d58-b116-d67537b3a606","stateCode":"08","latitude":"61.79682000","longitude":"25.70457000"},{"id":"b3ba5823-a517-4033-86fd-0357a8c51386","name":"Multia","ru":"Multia","country":"f8146eb7-d2c4-47a1-94f9-c5aa422f487d","countryCode":"FI","state":"7d1030f9-9356-4d58-b116-d67537b3a606","stateCode":"08","latitude":"62.41667000","longitude":"24.78333000"},{"id":"ee7a96e3-c07d-4d29-8112-98292038ae70","name":"Muurame","ru":"Muurame","country":"f8146eb7-d2c4-47a1-94f9-c5aa422f487d","countryCode":"FI","state":"7d1030f9-9356-4d58-b116-d67537b3a606","stateCode":"08","latitude":"62.13333000","longitude":"25.66667000"},{"id":"dc80a743-7940-47c8-bc8a-e79c776e71c1","name":"Petäjävesi","ru":"Petäjävesi","country":"f8146eb7-d2c4-47a1-94f9-c5aa422f487d","countryCode":"FI","state":"7d1030f9-9356-4d58-b116-d67537b3a606","stateCode":"08","latitude":"62.25000000","longitude":"25.20000000"},{"id":"74e3b4f5-064f-4cf6-9d93-60c3a0c645e6","name":"Pihtipudas","ru":"Pihtipudas","country":"f8146eb7-d2c4-47a1-94f9-c5aa422f487d","countryCode":"FI","state":"7d1030f9-9356-4d58-b116-d67537b3a606","stateCode":"08","latitude":"63.38333000","longitude":"25.56667000"},{"id":"b4564187-0678-4e45-a0a2-0587c07244af","name":"Pylkönmäki","ru":"Pylkönmäki","country":"f8146eb7-d2c4-47a1-94f9-c5aa422f487d","countryCode":"FI","state":"7d1030f9-9356-4d58-b116-d67537b3a606","stateCode":"08","latitude":"62.66667000","longitude":"24.80000000"},{"id":"a3275510-317b-48f9-a49e-50ede47278da","name":"Saarijärvi","ru":"Saarijärvi","country":"f8146eb7-d2c4-47a1-94f9-c5aa422f487d","countryCode":"FI","state":"7d1030f9-9356-4d58-b116-d67537b3a606","stateCode":"08","latitude":"62.70486000","longitude":"25.25396000"},{"id":"3c571f18-0a08-4284-92ab-c48d8ace899c","name":"Säynätsalo","ru":"Säynätsalo","country":"f8146eb7-d2c4-47a1-94f9-c5aa422f487d","countryCode":"FI","state":"7d1030f9-9356-4d58-b116-d67537b3a606","stateCode":"08","latitude":"62.14025000","longitude":"25.76948000"},{"id":"d1a127d9-9153-46e5-a1fb-5cbc62b0f0a0","name":"Sumiainen","ru":"Sumiainen","country":"f8146eb7-d2c4-47a1-94f9-c5aa422f487d","countryCode":"FI","state":"7d1030f9-9356-4d58-b116-d67537b3a606","stateCode":"08","latitude":"62.65736000","longitude":"26.04642000"},{"id":"47e07433-ba03-450b-9c02-c991be69094a","name":"Suolahti","ru":"Suolahti","country":"f8146eb7-d2c4-47a1-94f9-c5aa422f487d","countryCode":"FI","state":"7d1030f9-9356-4d58-b116-d67537b3a606","stateCode":"08","latitude":"62.56421000","longitude":"25.85363000"},{"id":"ca9d7405-e88a-487d-8927-fba7dfa7b7bc","name":"Toivakka","ru":"Toivakka","country":"f8146eb7-d2c4-47a1-94f9-c5aa422f487d","countryCode":"FI","state":"7d1030f9-9356-4d58-b116-d67537b3a606","stateCode":"08","latitude":"62.10000000","longitude":"26.08333000"},{"id":"a7edfa01-4a6c-433a-b2b8-24069a9c8094","name":"Uurainen","ru":"Uurainen","country":"f8146eb7-d2c4-47a1-94f9-c5aa422f487d","countryCode":"FI","state":"7d1030f9-9356-4d58-b116-d67537b3a606","stateCode":"08","latitude":"62.50000000","longitude":"25.45000000"},{"id":"fee3026e-8c72-46d3-abd5-aef308ff602d","name":"Viitasaari","ru":"Viitasaari","country":"f8146eb7-d2c4-47a1-94f9-c5aa422f487d","countryCode":"FI","state":"7d1030f9-9356-4d58-b116-d67537b3a606","stateCode":"08","latitude":"63.06667000","longitude":"25.86667000"},{"id":"3cc008f3-e278-4d2a-a95f-6996dce934df","name":"Halsua","ru":"Halsua","country":"f8146eb7-d2c4-47a1-94f9-c5aa422f487d","countryCode":"FI","state":"243a49e2-320d-4cc0-afbd-d3ab8bfe4b5a","stateCode":"07","latitude":"63.46667000","longitude":"24.16667000"},{"id":"c5b78ae2-aa41-4dac-9162-0635bab2db94","name":"Kannus","ru":"Kannus","country":"f8146eb7-d2c4-47a1-94f9-c5aa422f487d","countryCode":"FI","state":"243a49e2-320d-4cc0-afbd-d3ab8bfe4b5a","stateCode":"07","latitude":"63.90000000","longitude":"23.90000000"},{"id":"6be9c988-08fb-43f5-b772-99e6256f1baf","name":"Kaustinen","ru":"Kaustinen","country":"f8146eb7-d2c4-47a1-94f9-c5aa422f487d","countryCode":"FI","state":"243a49e2-320d-4cc0-afbd-d3ab8bfe4b5a","stateCode":"07","latitude":"63.54878000","longitude":"23.68845000"},{"id":"965bb0f1-77c4-4aec-b863-8e0ce4c871d5","name":"Kälviä","ru":"Kälviä","country":"f8146eb7-d2c4-47a1-94f9-c5aa422f487d","countryCode":"FI","state":"243a49e2-320d-4cc0-afbd-d3ab8bfe4b5a","stateCode":"07","latitude":"63.86067000","longitude":"23.45289000"},{"id":"588e7ff4-aa7d-4639-875f-0811ac0e2bc4","name":"Kokkola","ru":"Kokkola","country":"f8146eb7-d2c4-47a1-94f9-c5aa422f487d","countryCode":"FI","state":"243a49e2-320d-4cc0-afbd-d3ab8bfe4b5a","stateCode":"07","latitude":"63.85414000","longitude":"23.58562000"},{"id":"f3e79de0-e534-4b88-8d6d-8ab36aab107f","name":"Lestijärvi","ru":"Lestijärvi","country":"f8146eb7-d2c4-47a1-94f9-c5aa422f487d","countryCode":"FI","state":"243a49e2-320d-4cc0-afbd-d3ab8bfe4b5a","stateCode":"07","latitude":"63.53333000","longitude":"24.65000000"},{"id":"c6275fc7-2591-488b-9393-bf6009cb5d80","name":"Lohtaja","ru":"Lohtaja","country":"f8146eb7-d2c4-47a1-94f9-c5aa422f487d","countryCode":"FI","state":"243a49e2-320d-4cc0-afbd-d3ab8bfe4b5a","stateCode":"07","latitude":"64.02472000","longitude":"23.50482000"},{"id":"f8a97b9f-354c-48fd-a1c7-b4be3df87b9f","name":"Perho","ru":"Perho","country":"f8146eb7-d2c4-47a1-94f9-c5aa422f487d","countryCode":"FI","state":"243a49e2-320d-4cc0-afbd-d3ab8bfe4b5a","stateCode":"07","latitude":"63.21667000","longitude":"24.41667000"},{"id":"8a80f1f8-cc6e-487c-88e6-fd1fbe6ca852","name":"Toholampi","ru":"Toholampi","country":"f8146eb7-d2c4-47a1-94f9-c5aa422f487d","countryCode":"FI","state":"243a49e2-320d-4cc0-afbd-d3ab8bfe4b5a","stateCode":"07","latitude":"63.76667000","longitude":"24.25000000"},{"id":"0c3bbbd0-451a-495f-94ad-8b1f59051b8c","name":"Ullava","ru":"Ullava","country":"f8146eb7-d2c4-47a1-94f9-c5aa422f487d","countryCode":"FI","state":"243a49e2-320d-4cc0-afbd-d3ab8bfe4b5a","stateCode":"07","latitude":"63.60000000","longitude":"24.08333000"},{"id":"c552577c-c066-4b7f-86fc-eb270af5a139","name":"Veteli","ru":"Veteli","country":"f8146eb7-d2c4-47a1-94f9-c5aa422f487d","countryCode":"FI","state":"243a49e2-320d-4cc0-afbd-d3ab8bfe4b5a","stateCode":"07","latitude":"63.47839000","longitude":"23.78285000"},{"id":"68979e9b-60f4-4098-96bc-97e2232908a1","name":"Alastaro","ru":"Alastaro","country":"f8146eb7-d2c4-47a1-94f9-c5aa422f487d","countryCode":"FI","state":"28e3a007-d49f-4828-ac13-fb4a60f244fb","stateCode":"19","latitude":"60.95000000","longitude":"22.85000000"},{"id":"7fa37c84-d709-4ec8-89e9-22fb830904a2","name":"Askainen","ru":"Askainen","country":"f8146eb7-d2c4-47a1-94f9-c5aa422f487d","countryCode":"FI","state":"28e3a007-d49f-4828-ac13-fb4a60f244fb","stateCode":"19","latitude":"60.56667000","longitude":"21.86667000"},{"id":"38374060-2a73-420d-9b9c-b0131adbd69f","name":"Aura","ru":"Aura","country":"f8146eb7-d2c4-47a1-94f9-c5aa422f487d","countryCode":"FI","state":"28e3a007-d49f-4828-ac13-fb4a60f244fb","stateCode":"19","latitude":"60.64710000","longitude":"22.58755000"},{"id":"b8e8fe10-a472-4d36-98d2-c3d35a3dde6c","name":"Dragsfjärd","ru":"Dragsfjärd","country":"f8146eb7-d2c4-47a1-94f9-c5aa422f487d","countryCode":"FI","state":"28e3a007-d49f-4828-ac13-fb4a60f244fb","stateCode":"19","latitude":"60.06667000","longitude":"22.48333000"},{"id":"18613e8e-026d-48c7-a525-619bfc0b2e92","name":"Halikko","ru":"Halikko","country":"f8146eb7-d2c4-47a1-94f9-c5aa422f487d","countryCode":"FI","state":"28e3a007-d49f-4828-ac13-fb4a60f244fb","stateCode":"19","latitude":"60.40000000","longitude":"23.08333000"},{"id":"36b2918d-d618-4c59-8463-f3a3c0793823","name":"Houtskär","ru":"Houtskär","country":"f8146eb7-d2c4-47a1-94f9-c5aa422f487d","countryCode":"FI","state":"28e3a007-d49f-4828-ac13-fb4a60f244fb","stateCode":"19","latitude":"60.22284000","longitude":"21.37218000"},{"id":"fc0f7feb-8e69-4404-a8cb-6d8ee583f678","name":"Iniö","ru":"Iniö","country":"f8146eb7-d2c4-47a1-94f9-c5aa422f487d","countryCode":"FI","state":"28e3a007-d49f-4828-ac13-fb4a60f244fb","stateCode":"19","latitude":"60.40000000","longitude":"21.40000000"},{"id":"eaadf6e0-5415-42ec-b0f8-be2d1d2444e1","name":"Kaarina","ru":"Kaarina","country":"f8146eb7-d2c4-47a1-94f9-c5aa422f487d","countryCode":"FI","state":"28e3a007-d49f-4828-ac13-fb4a60f244fb","stateCode":"19","latitude":"60.40724000","longitude":"22.36904000"},{"id":"68894f0e-9960-4bec-9b3a-f272603dc8f6","name":"Karinainen","ru":"Karinainen","country":"f8146eb7-d2c4-47a1-94f9-c5aa422f487d","countryCode":"FI","state":"28e3a007-d49f-4828-ac13-fb4a60f244fb","stateCode":"19","latitude":"60.66667000","longitude":"22.76667000"},{"id":"be54fff6-36c9-44c3-ab2c-515b3af07b65","name":"Kiikala","ru":"Kiikala","country":"f8146eb7-d2c4-47a1-94f9-c5aa422f487d","countryCode":"FI","state":"28e3a007-d49f-4828-ac13-fb4a60f244fb","stateCode":"19","latitude":"60.46667000","longitude":"23.56667000"},{"id":"b1dbb532-3036-42c5-b734-cd0c439cc256","name":"Kimito","ru":"Kimito","country":"f8146eb7-d2c4-47a1-94f9-c5aa422f487d","countryCode":"FI","state":"28e3a007-d49f-4828-ac13-fb4a60f244fb","stateCode":"19","latitude":"60.16047000","longitude":"22.72900000"},{"id":"acec0d3d-2ed5-47be-ba84-1e9474d84941","name":"Kisko","ru":"Kisko","country":"f8146eb7-d2c4-47a1-94f9-c5aa422f487d","countryCode":"FI","state":"28e3a007-d49f-4828-ac13-fb4a60f244fb","stateCode":"19","latitude":"60.23333000","longitude":"23.48333000"},{"id":"3305b01f-56db-4fcc-8b1a-6d3bbbe88b9a","name":"Kustavi","ru":"Kustavi","country":"f8146eb7-d2c4-47a1-94f9-c5aa422f487d","countryCode":"FI","state":"28e3a007-d49f-4828-ac13-fb4a60f244fb","stateCode":"19","latitude":"60.54529000","longitude":"21.35880000"},{"id":"d6ffc0ab-4424-451c-bf7c-a313c32cff54","name":"Kuusjoki","ru":"Kuusjoki","country":"f8146eb7-d2c4-47a1-94f9-c5aa422f487d","countryCode":"FI","state":"28e3a007-d49f-4828-ac13-fb4a60f244fb","stateCode":"19","latitude":"60.51667000","longitude":"23.20000000"},{"id":"4a294660-e8f7-497f-abce-e4c0374d0aab","name":"Laitila","ru":"Laitila","country":"f8146eb7-d2c4-47a1-94f9-c5aa422f487d","countryCode":"FI","state":"28e3a007-d49f-4828-ac13-fb4a60f244fb","stateCode":"19","latitude":"60.87575000","longitude":"21.69765000"},{"id":"4f1c1708-ac2d-4e8a-9c2e-b38958057676","name":"Lemu","ru":"Lemu","country":"f8146eb7-d2c4-47a1-94f9-c5aa422f487d","countryCode":"FI","state":"28e3a007-d49f-4828-ac13-fb4a60f244fb","stateCode":"19","latitude":"60.56667000","longitude":"21.96667000"},{"id":"7ca434ea-5f4c-4fad-9e4a-4cf69d8fed50","name":"Lieto","ru":"Lieto","country":"f8146eb7-d2c4-47a1-94f9-c5aa422f487d","countryCode":"FI","state":"28e3a007-d49f-4828-ac13-fb4a60f244fb","stateCode":"19","latitude":"60.51032000","longitude":"22.46176000"},{"id":"32012f85-3ea9-44b7-b8c5-eba369422d35","name":"Marttila","ru":"Marttila","country":"f8146eb7-d2c4-47a1-94f9-c5aa422f487d","countryCode":"FI","state":"28e3a007-d49f-4828-ac13-fb4a60f244fb","stateCode":"19","latitude":"60.58333000","longitude":"22.90000000"},{"id":"8a75427e-1353-4a7f-8be4-a6191f70bb74","name":"Masku","ru":"Masku","country":"f8146eb7-d2c4-47a1-94f9-c5aa422f487d","countryCode":"FI","state":"28e3a007-d49f-4828-ac13-fb4a60f244fb","stateCode":"19","latitude":"60.57082000","longitude":"22.09883000"},{"id":"e84b4022-a800-48ce-9f8f-6c48a5b5b8fc","name":"Mellilä","ru":"Mellilä","country":"f8146eb7-d2c4-47a1-94f9-c5aa422f487d","countryCode":"FI","state":"28e3a007-d49f-4828-ac13-fb4a60f244fb","stateCode":"19","latitude":"60.76667000","longitude":"22.95000000"},{"id":"bb47450b-d65b-4519-813b-9c0cef0a0b9a","name":"Merimasku","ru":"Merimasku","country":"f8146eb7-d2c4-47a1-94f9-c5aa422f487d","countryCode":"FI","state":"28e3a007-d49f-4828-ac13-fb4a60f244fb","stateCode":"19","latitude":"60.48333000","longitude":"21.86667000"},{"id":"3f4ff620-9e6b-426d-b13c-a489f615524b","name":"Mietoinen","ru":"Mietoinen","country":"f8146eb7-d2c4-47a1-94f9-c5aa422f487d","countryCode":"FI","state":"28e3a007-d49f-4828-ac13-fb4a60f244fb","stateCode":"19","latitude":"60.63333000","longitude":"21.93333000"},{"id":"827087c0-c300-43eb-9328-04e620fdbdb0","name":"Muurla","ru":"Muurla","country":"f8146eb7-d2c4-47a1-94f9-c5aa422f487d","countryCode":"FI","state":"28e3a007-d49f-4828-ac13-fb4a60f244fb","stateCode":"19","latitude":"60.35000000","longitude":"23.28333000"},{"id":"1769bb88-ad64-44e6-9cee-96ef725e6151","name":"Mynämäki","ru":"Mynämäki","country":"f8146eb7-d2c4-47a1-94f9-c5aa422f487d","countryCode":"FI","state":"28e3a007-d49f-4828-ac13-fb4a60f244fb","stateCode":"19","latitude":"60.67915000","longitude":"21.99274000"},{"id":"3d42ad3f-6c6b-4874-a22a-ec0efb26731a","name":"Naantali","ru":"Naantali","country":"f8146eb7-d2c4-47a1-94f9-c5aa422f487d","countryCode":"FI","state":"28e3a007-d49f-4828-ac13-fb4a60f244fb","stateCode":"19","latitude":"60.46744000","longitude":"22.02428000"},{"id":"961ada6f-7a2b-46fd-a171-5ee111b43c9a","name":"Nagu","ru":"Nagu","country":"f8146eb7-d2c4-47a1-94f9-c5aa422f487d","countryCode":"FI","state":"28e3a007-d49f-4828-ac13-fb4a60f244fb","stateCode":"19","latitude":"60.19375000","longitude":"21.90972000"},{"id":"859b5243-fdcd-4f6d-bdd2-4cdedc73fc7b","name":"Nousiainen","ru":"Nousiainen","country":"f8146eb7-d2c4-47a1-94f9-c5aa422f487d","countryCode":"FI","state":"28e3a007-d49f-4828-ac13-fb4a60f244fb","stateCode":"19","latitude":"60.60416000","longitude":"22.07926000"},{"id":"26d95b1d-52a1-4ef1-a52d-a1e44ea10e6b","name":"Oripää","ru":"Oripää","country":"f8146eb7-d2c4-47a1-94f9-c5aa422f487d","countryCode":"FI","state":"28e3a007-d49f-4828-ac13-fb4a60f244fb","stateCode":"19","latitude":"60.85000000","longitude":"22.68333000"},{"id":"5e84b552-8cf3-4cbc-995c-bb87ca0f6a1e","name":"Paimio","ru":"Paimio","country":"f8146eb7-d2c4-47a1-94f9-c5aa422f487d","countryCode":"FI","state":"28e3a007-d49f-4828-ac13-fb4a60f244fb","stateCode":"19","latitude":"60.45671000","longitude":"22.68694000"},{"id":"e066139b-be8e-4c0c-b2e1-0dcaba34c4c6","name":"Pargas","ru":"Pargas","country":"f8146eb7-d2c4-47a1-94f9-c5aa422f487d","countryCode":"FI","state":"28e3a007-d49f-4828-ac13-fb4a60f244fb","stateCode":"19","latitude":"60.30672000","longitude":"22.30097000"},{"id":"14ecc5a1-d50b-4d01-8474-d36541f2b106","name":"Pöytyä","ru":"Pöytyä","country":"f8146eb7-d2c4-47a1-94f9-c5aa422f487d","countryCode":"FI","state":"28e3a007-d49f-4828-ac13-fb4a60f244fb","stateCode":"19","latitude":"60.76667000","longitude":"22.66667000"},{"id":"b45008e5-f2c0-41c2-8295-18ab821730f0","name":"Perniö","ru":"Perniö","country":"f8146eb7-d2c4-47a1-94f9-c5aa422f487d","countryCode":"FI","state":"28e3a007-d49f-4828-ac13-fb4a60f244fb","stateCode":"19","latitude":"60.20000000","longitude":"23.13333000"},{"id":"50162034-eb89-4e05-95f9-6017816b6014","name":"Pertteli","ru":"Pertteli","country":"f8146eb7-d2c4-47a1-94f9-c5aa422f487d","countryCode":"FI","state":"28e3a007-d49f-4828-ac13-fb4a60f244fb","stateCode":"19","latitude":"60.43333000","longitude":"23.26667000"},{"id":"570dd324-0ceb-4049-b6a4-aab3c3625c7e","name":"Piikkiö","ru":"Piikkiö","country":"f8146eb7-d2c4-47a1-94f9-c5aa422f487d","countryCode":"FI","state":"28e3a007-d49f-4828-ac13-fb4a60f244fb","stateCode":"19","latitude":"60.42481000","longitude":"22.51601000"},{"id":"af85a870-d911-4924-af9e-ceb93412e0bc","name":"Pyhäranta","ru":"Pyhäranta","country":"f8146eb7-d2c4-47a1-94f9-c5aa422f487d","countryCode":"FI","state":"28e3a007-d49f-4828-ac13-fb4a60f244fb","stateCode":"19","latitude":"60.95000000","longitude":"21.45000000"},{"id":"d07fd0f0-6828-456f-b4ce-b557d8c1be75","name":"Raisio","ru":"Raisio","country":"f8146eb7-d2c4-47a1-94f9-c5aa422f487d","countryCode":"FI","state":"28e3a007-d49f-4828-ac13-fb4a60f244fb","stateCode":"19","latitude":"60.48592000","longitude":"22.16895000"},{"id":"e7df10ac-1323-4e78-9bb6-6c4b4e0e51f5","name":"Rusko","ru":"Rusko","country":"f8146eb7-d2c4-47a1-94f9-c5aa422f487d","countryCode":"FI","state":"28e3a007-d49f-4828-ac13-fb4a60f244fb","stateCode":"19","latitude":"60.53333000","longitude":"22.21667000"},{"id":"f4b61759-5721-40a3-afd3-bd44aa0e56a3","name":"Rymättylä","ru":"Rymättylä","country":"f8146eb7-d2c4-47a1-94f9-c5aa422f487d","countryCode":"FI","state":"28e3a007-d49f-4828-ac13-fb4a60f244fb","stateCode":"19","latitude":"60.37658000","longitude":"21.94184000"},{"id":"579f52bb-d30b-4d8b-860b-e752ca13bf0e","name":"Salo","ru":"Salo","country":"f8146eb7-d2c4-47a1-94f9-c5aa422f487d","countryCode":"FI","state":"28e3a007-d49f-4828-ac13-fb4a60f244fb","stateCode":"19","latitude":"60.38333000","longitude":"23.13333000"},{"id":"32dbb962-432b-48a1-a586-8377ef6ab06f","name":"Sauvo","ru":"Sauvo","country":"f8146eb7-d2c4-47a1-94f9-c5aa422f487d","countryCode":"FI","state":"28e3a007-d49f-4828-ac13-fb4a60f244fb","stateCode":"19","latitude":"60.34306000","longitude":"22.69642000"},{"id":"676d6fa7-f350-448c-83f4-1491390bd854","name":"Särkisalo","ru":"Särkisalo","country":"f8146eb7-d2c4-47a1-94f9-c5aa422f487d","countryCode":"FI","state":"28e3a007-d49f-4828-ac13-fb4a60f244fb","stateCode":"19","latitude":"60.11389000","longitude":"22.95000000"},{"id":"64abc05f-3cf3-49bc-8a9f-940a99442725","name":"Somero","ru":"Somero","country":"f8146eb7-d2c4-47a1-94f9-c5aa422f487d","countryCode":"FI","state":"28e3a007-d49f-4828-ac13-fb4a60f244fb","stateCode":"19","latitude":"60.61667000","longitude":"23.53333000"},{"id":"fa0c4b03-58f0-46ee-8434-ffea9ae75493","name":"Suomusjärvi","ru":"Suomusjärvi","country":"f8146eb7-d2c4-47a1-94f9-c5aa422f487d","countryCode":"FI","state":"28e3a007-d49f-4828-ac13-fb4a60f244fb","stateCode":"19","latitude":"60.35000000","longitude":"23.65000000"},{"id":"fefcde21-11f0-4c6e-8ee1-8cee67c88c04","name":"Taivassalo","ru":"Taivassalo","country":"f8146eb7-d2c4-47a1-94f9-c5aa422f487d","countryCode":"FI","state":"28e3a007-d49f-4828-ac13-fb4a60f244fb","stateCode":"19","latitude":"60.56085000","longitude":"21.61639000"},{"id":"76ae61bc-0350-4369-ab4e-d7fc20a09422","name":"Tarvasjoki","ru":"Tarvasjoki","country":"f8146eb7-d2c4-47a1-94f9-c5aa422f487d","countryCode":"FI","state":"28e3a007-d49f-4828-ac13-fb4a60f244fb","stateCode":"19","latitude":"60.58333000","longitude":"22.73333000"},{"id":"09353960-471d-4b57-a02c-4fcd9fd7acb5","name":"Turku","ru":"Turku","country":"f8146eb7-d2c4-47a1-94f9-c5aa422f487d","countryCode":"FI","state":"28e3a007-d49f-4828-ac13-fb4a60f244fb","stateCode":"19","latitude":"60.45148000","longitude":"22.26869000"},{"id":"5edaeed7-626e-42cb-8833-5ba7fb339a41","name":"Uusikaupunki","ru":"Uusikaupunki","country":"f8146eb7-d2c4-47a1-94f9-c5aa422f487d","countryCode":"FI","state":"28e3a007-d49f-4828-ac13-fb4a60f244fb","stateCode":"19","latitude":"60.80043000","longitude":"21.40841000"},{"id":"a60edd3e-64c2-4295-836e-8967a65e63b8","name":"Vahto","ru":"Vahto","country":"f8146eb7-d2c4-47a1-94f9-c5aa422f487d","countryCode":"FI","state":"28e3a007-d49f-4828-ac13-fb4a60f244fb","stateCode":"19","latitude":"60.60000000","longitude":"22.30000000"},{"id":"89133ef3-d8e0-43fc-9337-b8ead5b381b4","name":"Västanfjärd","ru":"Västanfjärd","country":"f8146eb7-d2c4-47a1-94f9-c5aa422f487d","countryCode":"FI","state":"28e3a007-d49f-4828-ac13-fb4a60f244fb","stateCode":"19","latitude":"60.05000000","longitude":"22.68333000"},{"id":"c2eb69ea-5767-479b-ad1d-ccce446e5dfb","name":"Väståboland","ru":"Väståboland","country":"f8146eb7-d2c4-47a1-94f9-c5aa422f487d","countryCode":"FI","state":"28e3a007-d49f-4828-ac13-fb4a60f244fb","stateCode":"19","latitude":"60.29972000","longitude":"22.30040000"},{"id":"03dff29f-fec2-45e7-b962-5e7baf32b51a","name":"Vehmaa","ru":"Vehmaa","country":"f8146eb7-d2c4-47a1-94f9-c5aa422f487d","countryCode":"FI","state":"28e3a007-d49f-4828-ac13-fb4a60f244fb","stateCode":"19","latitude":"60.68333000","longitude":"21.66667000"},{"id":"7d7dffc3-33a1-4d06-bb3a-118ff9ac2f0a","name":"Velkua","ru":"Velkua","country":"f8146eb7-d2c4-47a1-94f9-c5aa422f487d","countryCode":"FI","state":"28e3a007-d49f-4828-ac13-fb4a60f244fb","stateCode":"19","latitude":"60.46667000","longitude":"21.66667000"},{"id":"8d5a498e-0d68-4934-bd72-d45e508d0b02","name":"Yläne","ru":"Yläne","country":"f8146eb7-d2c4-47a1-94f9-c5aa422f487d","countryCode":"FI","state":"28e3a007-d49f-4828-ac13-fb4a60f244fb","stateCode":"19","latitude":"60.88333000","longitude":"22.41667000"},{"id":"73440bc2-533d-4fe6-8078-7d0b68bcdf82","name":"Hyrynsalmi","ru":"Hyrynsalmi","country":"f8146eb7-d2c4-47a1-94f9-c5aa422f487d","countryCode":"FI","state":"4521af31-c431-4fe1-bf66-80d80267b6a8","stateCode":"05","latitude":"64.66667000","longitude":"28.53333000"},{"id":"ad56d0f9-e25d-49f0-9349-1a3c52cd2b1f","name":"Kajaani","ru":"Kajaani","country":"f8146eb7-d2c4-47a1-94f9-c5aa422f487d","countryCode":"FI","state":"4521af31-c431-4fe1-bf66-80d80267b6a8","stateCode":"05","latitude":"64.22728000","longitude":"27.72846000"},{"id":"befdbdfe-6f15-4d2b-8144-06c18b9ab90e","name":"Kuhmo","ru":"Kuhmo","country":"f8146eb7-d2c4-47a1-94f9-c5aa422f487d","countryCode":"FI","state":"4521af31-c431-4fe1-bf66-80d80267b6a8","stateCode":"05","latitude":"64.13333000","longitude":"29.51667000"},{"id":"07349880-411e-443d-a380-d2241c7045ff","name":"Paltamo","ru":"Paltamo","country":"f8146eb7-d2c4-47a1-94f9-c5aa422f487d","countryCode":"FI","state":"4521af31-c431-4fe1-bf66-80d80267b6a8","stateCode":"05","latitude":"64.41667000","longitude":"27.83333000"},{"id":"a3c80603-facc-499e-b2cf-968b460bdfda","name":"Puolanka","ru":"Puolanka","country":"f8146eb7-d2c4-47a1-94f9-c5aa422f487d","countryCode":"FI","state":"4521af31-c431-4fe1-bf66-80d80267b6a8","stateCode":"05","latitude":"64.86667000","longitude":"27.66667000"},{"id":"dcfb6eae-c973-4380-adc8-2ab2cf4ebe8c","name":"Ristijärvi","ru":"Ristijärvi","country":"f8146eb7-d2c4-47a1-94f9-c5aa422f487d","countryCode":"FI","state":"4521af31-c431-4fe1-bf66-80d80267b6a8","stateCode":"05","latitude":"64.50000000","longitude":"28.21667000"},{"id":"4dd5107f-13d6-4198-a758-23ef68fc7e83","name":"Sotkamo","ru":"Sotkamo","country":"f8146eb7-d2c4-47a1-94f9-c5aa422f487d","countryCode":"FI","state":"4521af31-c431-4fe1-bf66-80d80267b6a8","stateCode":"05","latitude":"64.13333000","longitude":"28.41667000"},{"id":"be38c481-d657-4904-b6e9-e8bd2bad819e","name":"Suomussalmi","ru":"Suomussalmi","country":"f8146eb7-d2c4-47a1-94f9-c5aa422f487d","countryCode":"FI","state":"4521af31-c431-4fe1-bf66-80d80267b6a8","stateCode":"05","latitude":"64.88685000","longitude":"28.90778000"},{"id":"8141865c-dae8-430b-8aac-cd095715c177","name":"Vaala","ru":"Vaala","country":"f8146eb7-d2c4-47a1-94f9-c5aa422f487d","countryCode":"FI","state":"4521af31-c431-4fe1-bf66-80d80267b6a8","stateCode":"05","latitude":"64.56667000","longitude":"26.83333000"},{"id":"0b9aa366-36d3-474b-b79e-e1c91231da6b","name":"Vuokatti","ru":"Vuokatti","country":"f8146eb7-d2c4-47a1-94f9-c5aa422f487d","countryCode":"FI","state":"4521af31-c431-4fe1-bf66-80d80267b6a8","stateCode":"05","latitude":"64.14466000","longitude":"28.28196000"},{"id":"e51c2f17-d318-4948-86cd-a5ef7f081c93","name":"Vuolijoki","ru":"Vuolijoki","country":"f8146eb7-d2c4-47a1-94f9-c5aa422f487d","countryCode":"FI","state":"4521af31-c431-4fe1-bf66-80d80267b6a8","stateCode":"05","latitude":"64.18538000","longitude":"26.99547000"},{"id":"0b43e47a-07dd-4889-9544-1f4e0282cf38","name":"Anjala","ru":"Anjala","country":"f8146eb7-d2c4-47a1-94f9-c5aa422f487d","countryCode":"FI","state":"bad37811-6a97-4ff7-bd5b-c7d2507b4a84","stateCode":"09","latitude":"60.68333000","longitude":"26.83333000"},{"id":"90f04d77-fa1c-408f-9bdd-102ffc9c3d1c","name":"Elimäki","ru":"Elimäki","country":"f8146eb7-d2c4-47a1-94f9-c5aa422f487d","countryCode":"FI","state":"bad37811-6a97-4ff7-bd5b-c7d2507b4a84","stateCode":"09","latitude":"60.71667000","longitude":"26.46667000"},{"id":"8ea10bb9-5ab0-4a70-a508-3c37814ab79b","name":"Hamina","ru":"Hamina","country":"f8146eb7-d2c4-47a1-94f9-c5aa422f487d","countryCode":"FI","state":"bad37811-6a97-4ff7-bd5b-c7d2507b4a84","stateCode":"09","latitude":"60.56974000","longitude":"27.19794000"},{"id":"e7def86f-a2ea-4af5-99f7-9d75ca9867a6","name":"Iitti","ru":"Iitti","country":"f8146eb7-d2c4-47a1-94f9-c5aa422f487d","countryCode":"FI","state":"bad37811-6a97-4ff7-bd5b-c7d2507b4a84","stateCode":"09","latitude":"60.89488000","longitude":"26.33869000"},{"id":"f437ead3-558b-49b1-a729-8afea124136c","name":"Jaala","ru":"Jaala","country":"f8146eb7-d2c4-47a1-94f9-c5aa422f487d","countryCode":"FI","state":"bad37811-6a97-4ff7-bd5b-c7d2507b4a84","stateCode":"09","latitude":"61.05251000","longitude":"26.48117000"},{"id":"db6dbeee-f015-491f-83c9-5f7a126e4fab","name":"Karhula","ru":"Karhula","country":"f8146eb7-d2c4-47a1-94f9-c5aa422f487d","countryCode":"FI","state":"bad37811-6a97-4ff7-bd5b-c7d2507b4a84","stateCode":"09","latitude":"60.52156000","longitude":"26.93125000"},{"id":"f1bea288-d982-41a7-aec4-e9cbb51b7327","name":"Kotka","ru":"Kotka","country":"f8146eb7-d2c4-47a1-94f9-c5aa422f487d","countryCode":"FI","state":"bad37811-6a97-4ff7-bd5b-c7d2507b4a84","stateCode":"09","latitude":"60.46640000","longitude":"26.94582000"},{"id":"ae2a3114-eefa-4a44-9898-8940bc643332","name":"Kouvola","ru":"Kouvola","country":"f8146eb7-d2c4-47a1-94f9-c5aa422f487d","countryCode":"FI","state":"bad37811-6a97-4ff7-bd5b-c7d2507b4a84","stateCode":"09","latitude":"60.86667000","longitude":"26.70000000"},{"id":"ac35aa8e-fd7d-40c2-8e67-bddd28689279","name":"Miehikkälä","ru":"Miehikkälä","country":"f8146eb7-d2c4-47a1-94f9-c5aa422f487d","countryCode":"FI","state":"bad37811-6a97-4ff7-bd5b-c7d2507b4a84","stateCode":"09","latitude":"60.66667000","longitude":"27.70000000"},{"id":"f51f2409-0394-4e34-ad03-1466e7020e16","name":"Pyhtää","ru":"Pyhtää","country":"f8146eb7-d2c4-47a1-94f9-c5aa422f487d","countryCode":"FI","state":"bad37811-6a97-4ff7-bd5b-c7d2507b4a84","stateCode":"09","latitude":"60.49349000","longitude":"26.54346000"},{"id":"014a12ff-7ca8-45a9-84be-ab7d3e882fbf","name":"Virojoki","ru":"Virojoki","country":"f8146eb7-d2c4-47a1-94f9-c5aa422f487d","countryCode":"FI","state":"bad37811-6a97-4ff7-bd5b-c7d2507b4a84","stateCode":"09","latitude":"60.57940000","longitude":"27.70354000"},{"id":"aeb6d790-c152-42c3-ab54-60d73cde8168","name":"Enontekiö","ru":"Enontekiö","country":"f8146eb7-d2c4-47a1-94f9-c5aa422f487d","countryCode":"FI","state":"4865f37d-816f-426d-a44e-0409d4813f37","stateCode":"LL","latitude":"68.38573000","longitude":"23.63215000"},{"id":"01299c82-3e2c-4833-8c59-2e6e7930d842","name":"Inari","ru":"Inari","country":"f8146eb7-d2c4-47a1-94f9-c5aa422f487d","countryCode":"FI","state":"4865f37d-816f-426d-a44e-0409d4813f37","stateCode":"LL","latitude":"68.90596000","longitude":"27.02881000"},{"id":"a88d83c2-c098-491f-8ba2-d64c6c7aabc4","name":"Ivalo","ru":"Ivalo","country":"f8146eb7-d2c4-47a1-94f9-c5aa422f487d","countryCode":"FI","state":"4865f37d-816f-426d-a44e-0409d4813f37","stateCode":"LL","latitude":"68.65986000","longitude":"27.53891000"},{"id":"40a7184d-df03-4b15-8968-6ecd2842245b","name":"Kemi","ru":"Kemi","country":"f8146eb7-d2c4-47a1-94f9-c5aa422f487d","countryCode":"FI","state":"4865f37d-816f-426d-a44e-0409d4813f37","stateCode":"LL","latitude":"65.73641000","longitude":"24.56371000"},{"id":"c5a92b24-8e6d-4db2-9272-82509f3c5f8a","name":"Kemijärvi","ru":"Kemijärvi","country":"f8146eb7-d2c4-47a1-94f9-c5aa422f487d","countryCode":"FI","state":"4865f37d-816f-426d-a44e-0409d4813f37","stateCode":"LL","latitude":"66.71309000","longitude":"27.43056000"},{"id":"5c9230b1-eab6-425d-8362-8a3fccb51497","name":"Keminmaa","ru":"Keminmaa","country":"f8146eb7-d2c4-47a1-94f9-c5aa422f487d","countryCode":"FI","state":"4865f37d-816f-426d-a44e-0409d4813f37","stateCode":"LL","latitude":"65.80158000","longitude":"24.54483000"},{"id":"5e136fe3-15f5-4a1e-b871-c1a1bb305700","name":"Kittilä","ru":"Kittilä","country":"f8146eb7-d2c4-47a1-94f9-c5aa422f487d","countryCode":"FI","state":"4865f37d-816f-426d-a44e-0409d4813f37","stateCode":"LL","latitude":"67.66474000","longitude":"24.89356000"},{"id":"06e23153-fc77-43d8-b2cf-f516fc3fa714","name":"Kolari","ru":"Kolari","country":"f8146eb7-d2c4-47a1-94f9-c5aa422f487d","countryCode":"FI","state":"4865f37d-816f-426d-a44e-0409d4813f37","stateCode":"LL","latitude":"67.33047000","longitude":"23.77785000"},{"id":"86581511-d448-4c85-913c-d0592236f8a7","name":"Muonio","ru":"Muonio","country":"f8146eb7-d2c4-47a1-94f9-c5aa422f487d","countryCode":"FI","state":"4865f37d-816f-426d-a44e-0409d4813f37","stateCode":"LL","latitude":"67.95000000","longitude":"23.70000000"},{"id":"ceea751d-ee11-40ee-905c-585dea30d1b0","name":"Pelkosenniemi","ru":"Pelkosenniemi","country":"f8146eb7-d2c4-47a1-94f9-c5aa422f487d","countryCode":"FI","state":"4865f37d-816f-426d-a44e-0409d4813f37","stateCode":"LL","latitude":"67.11083000","longitude":"27.51056000"},{"id":"5dcca844-4875-443e-8c48-394cb05a9dfe","name":"Pello","ru":"Pello","country":"f8146eb7-d2c4-47a1-94f9-c5aa422f487d","countryCode":"FI","state":"4865f37d-816f-426d-a44e-0409d4813f37","stateCode":"LL","latitude":"66.77364000","longitude":"23.96255000"},{"id":"1ca03513-79a3-4cbf-85d1-d583c2e01fb3","name":"Posio","ru":"Posio","country":"f8146eb7-d2c4-47a1-94f9-c5aa422f487d","countryCode":"FI","state":"4865f37d-816f-426d-a44e-0409d4813f37","stateCode":"LL","latitude":"66.10856000","longitude":"28.17186000"},{"id":"1a070203-a878-4acc-b772-708bff0c4027","name":"Pyhäjärvi","ru":"Pyhäjärvi","country":"f8146eb7-d2c4-47a1-94f9-c5aa422f487d","countryCode":"FI","state":"4865f37d-816f-426d-a44e-0409d4813f37","stateCode":"LL","latitude":"67.07010000","longitude":"27.21763000"},{"id":"9ee1e430-d76d-4e7a-8c7d-e424cb7776c8","name":"Ranua","ru":"Ranua","country":"f8146eb7-d2c4-47a1-94f9-c5aa422f487d","countryCode":"FI","state":"4865f37d-816f-426d-a44e-0409d4813f37","stateCode":"LL","latitude":"65.91667000","longitude":"26.53333000"},{"id":"09c1a137-9d37-4d20-8325-d303a1b93a81","name":"Rovaniemi","ru":"Rovaniemi","country":"f8146eb7-d2c4-47a1-94f9-c5aa422f487d","countryCode":"FI","state":"4865f37d-816f-426d-a44e-0409d4813f37","stateCode":"LL","latitude":"66.50000000","longitude":"25.71667000"},{"id":"d384dfed-a381-4641-87cc-6994518a4ed8","name":"Salla","ru":"Salla","country":"f8146eb7-d2c4-47a1-94f9-c5aa422f487d","countryCode":"FI","state":"4865f37d-816f-426d-a44e-0409d4813f37","stateCode":"LL","latitude":"66.83333000","longitude":"28.66667000"},{"id":"77ea8ce6-c531-4720-9d26-6382fd5ed15d","name":"Savukoski","ru":"Savukoski","country":"f8146eb7-d2c4-47a1-94f9-c5aa422f487d","countryCode":"FI","state":"4865f37d-816f-426d-a44e-0409d4813f37","stateCode":"LL","latitude":"67.29250000","longitude":"28.15806000"},{"id":"7c138de1-8ad6-491c-880f-1bcb7cddcaef","name":"Simo","ru":"Simo","country":"f8146eb7-d2c4-47a1-94f9-c5aa422f487d","countryCode":"FI","state":"4865f37d-816f-426d-a44e-0409d4813f37","stateCode":"LL","latitude":"65.66667000","longitude":"25.05000000"},{"id":"975a6c7c-b451-499a-90d9-70883ddf2513","name":"Sodankylä","ru":"Sodankylä","country":"f8146eb7-d2c4-47a1-94f9-c5aa422f487d","countryCode":"FI","state":"4865f37d-816f-426d-a44e-0409d4813f37","stateCode":"LL","latitude":"67.41667000","longitude":"26.60000000"},{"id":"3a23b680-1b6a-467b-aa3c-8126c9c5832d","name":"Tervola","ru":"Tervola","country":"f8146eb7-d2c4-47a1-94f9-c5aa422f487d","countryCode":"FI","state":"4865f37d-816f-426d-a44e-0409d4813f37","stateCode":"LL","latitude":"66.08333000","longitude":"24.80000000"},{"id":"d8cbcab5-40d4-4010-b47a-e4377bec5db7","name":"Tornio","ru":"Tornio","country":"f8146eb7-d2c4-47a1-94f9-c5aa422f487d","countryCode":"FI","state":"4865f37d-816f-426d-a44e-0409d4813f37","stateCode":"LL","latitude":"65.84811000","longitude":"24.14662000"},{"id":"e9dcf5cb-b185-4a48-ac3a-407c8a54a9dc","name":"Utsjoki","ru":"Utsjoki","country":"f8146eb7-d2c4-47a1-94f9-c5aa422f487d","countryCode":"FI","state":"4865f37d-816f-426d-a44e-0409d4813f37","stateCode":"LL","latitude":"69.90864000","longitude":"27.02843000"},{"id":"1bf958b9-49e4-48d0-ac82-4b547cbf18ae","name":"Ylitornio","ru":"Ylitornio","country":"f8146eb7-d2c4-47a1-94f9-c5aa422f487d","countryCode":"FI","state":"4865f37d-816f-426d-a44e-0409d4813f37","stateCode":"LL","latitude":"66.30893000","longitude":"23.67734000"},{"id":"f390b50a-06db-455b-9318-8fb6992e2bc8","name":"Eno","ru":"Eno","country":"f8146eb7-d2c4-47a1-94f9-c5aa422f487d","countryCode":"FI","state":"f8803dce-fc61-4eeb-aae4-77ce2d4dde84","stateCode":"13","latitude":"62.80511000","longitude":"30.15422000"},{"id":"f1728f65-aa70-4d60-9bd2-b414ab492d05","name":"Ilomantsi","ru":"Ilomantsi","country":"f8146eb7-d2c4-47a1-94f9-c5aa422f487d","countryCode":"FI","state":"f8803dce-fc61-4eeb-aae4-77ce2d4dde84","stateCode":"13","latitude":"62.67162000","longitude":"30.93276000"},{"id":"88700856-35cc-4f0c-8cd7-2a7fd6726465","name":"Joensuu","ru":"Joensuu","country":"f8146eb7-d2c4-47a1-94f9-c5aa422f487d","countryCode":"FI","state":"f8803dce-fc61-4eeb-aae4-77ce2d4dde84","stateCode":"13","latitude":"62.60118000","longitude":"29.76316000"},{"id":"a8a08f57-d2bc-4f37-8c97-6a9b3fdd382b","name":"Juuka","ru":"Juuka","country":"f8146eb7-d2c4-47a1-94f9-c5aa422f487d","countryCode":"FI","state":"f8803dce-fc61-4eeb-aae4-77ce2d4dde84","stateCode":"13","latitude":"63.23333000","longitude":"29.25000000"},{"id":"7a765a77-8a4d-4fb7-8045-94a164d6d46e","name":"Kesälahti","ru":"Kesälahti","country":"f8146eb7-d2c4-47a1-94f9-c5aa422f487d","countryCode":"FI","state":"f8803dce-fc61-4eeb-aae4-77ce2d4dde84","stateCode":"13","latitude":"61.89752000","longitude":"29.83494000"},{"id":"9f81946e-2568-488c-8e85-ee62d5ba5a59","name":"Kiihtelysvaara","ru":"Kiihtelysvaara","country":"f8146eb7-d2c4-47a1-94f9-c5aa422f487d","countryCode":"FI","state":"f8803dce-fc61-4eeb-aae4-77ce2d4dde84","stateCode":"13","latitude":"62.49525000","longitude":"30.25081000"},{"id":"c8077bad-cbd5-4d8d-910c-c4785dea32fa","name":"Kitee","ru":"Kitee","country":"f8146eb7-d2c4-47a1-94f9-c5aa422f487d","countryCode":"FI","state":"f8803dce-fc61-4eeb-aae4-77ce2d4dde84","stateCode":"13","latitude":"62.10000000","longitude":"30.15000000"},{"id":"12d089b6-aaf2-4cde-918e-da1b7d44a9a4","name":"Kontiolahti","ru":"Kontiolahti","country":"f8146eb7-d2c4-47a1-94f9-c5aa422f487d","countryCode":"FI","state":"f8803dce-fc61-4eeb-aae4-77ce2d4dde84","stateCode":"13","latitude":"62.76023000","longitude":"29.84711000"},{"id":"8359805f-8eb2-4c7d-a464-3aef6407c394","name":"Lieksa","ru":"Lieksa","country":"f8146eb7-d2c4-47a1-94f9-c5aa422f487d","countryCode":"FI","state":"f8803dce-fc61-4eeb-aae4-77ce2d4dde84","stateCode":"13","latitude":"63.31667000","longitude":"30.01667000"},{"id":"040334e1-0ec1-419d-beb7-20f1f78b9e23","name":"Liperi","ru":"Liperi","country":"f8146eb7-d2c4-47a1-94f9-c5aa422f487d","countryCode":"FI","state":"f8803dce-fc61-4eeb-aae4-77ce2d4dde84","stateCode":"13","latitude":"62.53333000","longitude":"29.36667000"},{"id":"ab15833e-b616-458f-9784-27828aadf412","name":"Nurmes","ru":"Nurmes","country":"f8146eb7-d2c4-47a1-94f9-c5aa422f487d","countryCode":"FI","state":"f8803dce-fc61-4eeb-aae4-77ce2d4dde84","stateCode":"13","latitude":"63.54205000","longitude":"29.13965000"},{"id":"afebcfdf-8954-4e18-a0b9-38079abff38b","name":"Outokumpu","ru":"Outokumpu","country":"f8146eb7-d2c4-47a1-94f9-c5aa422f487d","countryCode":"FI","state":"f8803dce-fc61-4eeb-aae4-77ce2d4dde84","stateCode":"13","latitude":"62.72685000","longitude":"29.01592000"},{"id":"73938463-5be7-4e0c-b4d0-25ff472d0b76","name":"Polvijärvi","ru":"Polvijärvi","country":"f8146eb7-d2c4-47a1-94f9-c5aa422f487d","countryCode":"FI","state":"f8803dce-fc61-4eeb-aae4-77ce2d4dde84","stateCode":"13","latitude":"62.85000000","longitude":"29.36667000"},{"id":"df8e92a0-100c-4a2d-a2dc-a8e596f4f7cc","name":"Pyhäselkä","ru":"Pyhäselkä","country":"f8146eb7-d2c4-47a1-94f9-c5aa422f487d","countryCode":"FI","state":"f8803dce-fc61-4eeb-aae4-77ce2d4dde84","stateCode":"13","latitude":"62.43333000","longitude":"29.96667000"},{"id":"505f2659-9e19-43fd-8dc2-6e3f22d7387d","name":"Rääkkylä","ru":"Rääkkylä","country":"f8146eb7-d2c4-47a1-94f9-c5aa422f487d","countryCode":"FI","state":"f8803dce-fc61-4eeb-aae4-77ce2d4dde84","stateCode":"13","latitude":"62.31667000","longitude":"29.61667000"},{"id":"e358fc2d-b27c-48b2-a838-8005cb8fd912","name":"Tohmajärvi","ru":"Tohmajärvi","country":"f8146eb7-d2c4-47a1-94f9-c5aa422f487d","countryCode":"FI","state":"f8803dce-fc61-4eeb-aae4-77ce2d4dde84","stateCode":"13","latitude":"62.18333000","longitude":"30.38333000"},{"id":"9450d6b4-1854-47b1-934d-06168b6dc5e9","name":"Tuupovaara","ru":"Tuupovaara","country":"f8146eb7-d2c4-47a1-94f9-c5aa422f487d","countryCode":"FI","state":"f8803dce-fc61-4eeb-aae4-77ce2d4dde84","stateCode":"13","latitude":"62.48372000","longitude":"30.62731000"},{"id":"f829ccfa-771f-417e-9ef6-4387c1fe3cfa","name":"Valtimo","ru":"Valtimo","country":"f8146eb7-d2c4-47a1-94f9-c5aa422f487d","countryCode":"FI","state":"f8803dce-fc61-4eeb-aae4-77ce2d4dde84","stateCode":"13","latitude":"63.66667000","longitude":"28.80000000"},{"id":"990ced1c-445a-4519-a2fc-6e1e57ebb25d","name":"Alavieska","ru":"Alavieska","country":"f8146eb7-d2c4-47a1-94f9-c5aa422f487d","countryCode":"FI","state":"41e89756-89dc-4b3d-9f6a-e445ef3d0868","stateCode":"14","latitude":"64.16667000","longitude":"24.30000000"},{"id":"0539287e-7b9a-4ff5-b0de-129657936e44","name":"Haapajärvi","ru":"Haapajärvi","country":"f8146eb7-d2c4-47a1-94f9-c5aa422f487d","countryCode":"FI","state":"41e89756-89dc-4b3d-9f6a-e445ef3d0868","stateCode":"14","latitude":"63.75000000","longitude":"25.33333000"},{"id":"72bb2654-3938-4497-9d89-485c08136ce0","name":"Haapavesi","ru":"Haapavesi","country":"f8146eb7-d2c4-47a1-94f9-c5aa422f487d","countryCode":"FI","state":"41e89756-89dc-4b3d-9f6a-e445ef3d0868","stateCode":"14","latitude":"64.13333000","longitude":"25.36667000"},{"id":"7862c2f5-248a-42b1-b381-ff720852244e","name":"Hailuoto","ru":"Hailuoto","country":"f8146eb7-d2c4-47a1-94f9-c5aa422f487d","countryCode":"FI","state":"41e89756-89dc-4b3d-9f6a-e445ef3d0868","stateCode":"14","latitude":"65.00900000","longitude":"24.71385000"},{"id":"0b51d421-ec4d-4ef2-806c-904a9769fd1a","name":"Haukipudas","ru":"Haukipudas","country":"f8146eb7-d2c4-47a1-94f9-c5aa422f487d","countryCode":"FI","state":"41e89756-89dc-4b3d-9f6a-e445ef3d0868","stateCode":"14","latitude":"65.17654000","longitude":"25.35233000"},{"id":"13da142a-8bf6-4da7-b7dd-94f741315b9e","name":"Himanka","ru":"Himanka","country":"f8146eb7-d2c4-47a1-94f9-c5aa422f487d","countryCode":"FI","state":"41e89756-89dc-4b3d-9f6a-e445ef3d0868","stateCode":"14","latitude":"64.06218000","longitude":"23.65447000"},{"id":"b3a415a5-edab-435c-a052-fea67bca1221","name":"Ii","ru":"Ii","country":"f8146eb7-d2c4-47a1-94f9-c5aa422f487d","countryCode":"FI","state":"41e89756-89dc-4b3d-9f6a-e445ef3d0868","stateCode":"14","latitude":"65.31735000","longitude":"25.37310000"},{"id":"944f6edd-ae1e-4f6d-aadf-d9180c504c3d","name":"Kalajoki","ru":"Kalajoki","country":"f8146eb7-d2c4-47a1-94f9-c5aa422f487d","countryCode":"FI","state":"41e89756-89dc-4b3d-9f6a-e445ef3d0868","stateCode":"14","latitude":"64.25000000","longitude":"23.95000000"},{"id":"0e302d71-16ff-4c75-8bc3-c75727abe0df","name":"Kärsämäki","ru":"Kärsämäki","country":"f8146eb7-d2c4-47a1-94f9-c5aa422f487d","countryCode":"FI","state":"41e89756-89dc-4b3d-9f6a-e445ef3d0868","stateCode":"14","latitude":"63.96667000","longitude":"25.76667000"},{"id":"28e976b6-2af9-4006-9945-515854f72cd9","name":"Kempele","ru":"Kempele","country":"f8146eb7-d2c4-47a1-94f9-c5aa422f487d","countryCode":"FI","state":"41e89756-89dc-4b3d-9f6a-e445ef3d0868","stateCode":"14","latitude":"64.91314000","longitude":"25.50339000"},{"id":"f79d219b-e352-48ae-8952-d9c5f1057c07","name":"Kestilä","ru":"Kestilä","country":"f8146eb7-d2c4-47a1-94f9-c5aa422f487d","countryCode":"FI","state":"41e89756-89dc-4b3d-9f6a-e445ef3d0868","stateCode":"14","latitude":"64.35002000","longitude":"26.27921000"},{"id":"092a8d76-bbd6-4c4f-8bd4-132fb602ac49","name":"Kiiminki","ru":"Kiiminki","country":"f8146eb7-d2c4-47a1-94f9-c5aa422f487d","countryCode":"FI","state":"41e89756-89dc-4b3d-9f6a-e445ef3d0868","stateCode":"14","latitude":"65.13139000","longitude":"25.79744000"},{"id":"89e6ebe9-2ec0-4705-b051-89f310beddbe","name":"Kuivaniemi","ru":"Kuivaniemi","country":"f8146eb7-d2c4-47a1-94f9-c5aa422f487d","countryCode":"FI","state":"41e89756-89dc-4b3d-9f6a-e445ef3d0868","stateCode":"14","latitude":"65.57847000","longitude":"25.18814000"},{"id":"1efaa7d8-86a9-4cc2-9e18-d1d8d8a84091","name":"Kuusamo","ru":"Kuusamo","country":"f8146eb7-d2c4-47a1-94f9-c5aa422f487d","countryCode":"FI","state":"41e89756-89dc-4b3d-9f6a-e445ef3d0868","stateCode":"14","latitude":"65.96667000","longitude":"29.18333000"},{"id":"3e884994-5f46-4b80-9734-68857421c3c9","name":"Liminka","ru":"Liminka","country":"f8146eb7-d2c4-47a1-94f9-c5aa422f487d","countryCode":"FI","state":"41e89756-89dc-4b3d-9f6a-e445ef3d0868","stateCode":"14","latitude":"64.80985000","longitude":"25.41545000"},{"id":"41bb2ab9-732f-45a9-87d4-16e762f14b56","name":"Lumijoki","ru":"Lumijoki","country":"f8146eb7-d2c4-47a1-94f9-c5aa422f487d","countryCode":"FI","state":"41e89756-89dc-4b3d-9f6a-e445ef3d0868","stateCode":"14","latitude":"64.83744000","longitude":"25.18607000"},{"id":"785e7c0c-a04c-4a9c-b2dc-53b63eafb164","name":"Merijärvi","ru":"Merijärvi","country":"f8146eb7-d2c4-47a1-94f9-c5aa422f487d","countryCode":"FI","state":"41e89756-89dc-4b3d-9f6a-e445ef3d0868","stateCode":"14","latitude":"64.30000000","longitude":"24.45000000"},{"id":"7824aa10-25a9-43c9-b4f2-533476704ff4","name":"Muhos","ru":"Muhos","country":"f8146eb7-d2c4-47a1-94f9-c5aa422f487d","countryCode":"FI","state":"41e89756-89dc-4b3d-9f6a-e445ef3d0868","stateCode":"14","latitude":"64.80798000","longitude":"25.99314000"},{"id":"69e63ef8-2e7d-4f9d-a498-dcd6a3d1a27a","name":"Nivala","ru":"Nivala","country":"f8146eb7-d2c4-47a1-94f9-c5aa422f487d","countryCode":"FI","state":"41e89756-89dc-4b3d-9f6a-e445ef3d0868","stateCode":"14","latitude":"63.91667000","longitude":"24.96667000"},{"id":"6d71ab9c-8e40-4bcf-ada5-796ba1805d81","name":"Oulainen","ru":"Oulainen","country":"f8146eb7-d2c4-47a1-94f9-c5aa422f487d","countryCode":"FI","state":"41e89756-89dc-4b3d-9f6a-e445ef3d0868","stateCode":"14","latitude":"64.26667000","longitude":"24.80000000"},{"id":"a61280e6-10c5-42c5-8c5b-d58d1d14d0d0","name":"Oulu","ru":"Oulu","country":"f8146eb7-d2c4-47a1-94f9-c5aa422f487d","countryCode":"FI","state":"41e89756-89dc-4b3d-9f6a-e445ef3d0868","stateCode":"14","latitude":"65.01236000","longitude":"25.46816000"},{"id":"135ef3e4-dc82-49bd-8aba-66f940524379","name":"Oulunsalo","ru":"Oulunsalo","country":"f8146eb7-d2c4-47a1-94f9-c5aa422f487d","countryCode":"FI","state":"41e89756-89dc-4b3d-9f6a-e445ef3d0868","stateCode":"14","latitude":"64.93456000","longitude":"25.41121000"},{"id":"8f51b010-db5e-4487-967c-d4fbe380fe9f","name":"Piippola","ru":"Piippola","country":"f8146eb7-d2c4-47a1-94f9-c5aa422f487d","countryCode":"FI","state":"41e89756-89dc-4b3d-9f6a-e445ef3d0868","stateCode":"14","latitude":"64.16667000","longitude":"25.96667000"},{"id":"194311bd-6e21-48f7-a4a7-7c1db02851e6","name":"Pudasjärvi","ru":"Pudasjärvi","country":"f8146eb7-d2c4-47a1-94f9-c5aa422f487d","countryCode":"FI","state":"41e89756-89dc-4b3d-9f6a-e445ef3d0868","stateCode":"14","latitude":"65.38333000","longitude":"26.91667000"},{"id":"8040f737-848d-45bc-a6cc-5953224e73ed","name":"Pulkkila","ru":"Pulkkila","country":"f8146eb7-d2c4-47a1-94f9-c5aa422f487d","countryCode":"FI","state":"41e89756-89dc-4b3d-9f6a-e445ef3d0868","stateCode":"14","latitude":"64.26667000","longitude":"25.86667000"},{"id":"979f3ff9-e9a5-4285-b7bb-c4858ec33737","name":"Pyhäjärvi","ru":"Pyhäjärvi","country":"f8146eb7-d2c4-47a1-94f9-c5aa422f487d","countryCode":"FI","state":"41e89756-89dc-4b3d-9f6a-e445ef3d0868","stateCode":"14","latitude":"63.66667000","longitude":"25.90000000"},{"id":"f8c9510f-10a0-4b22-b8de-82f560555f21","name":"Pyhäjoki","ru":"Pyhäjoki","country":"f8146eb7-d2c4-47a1-94f9-c5aa422f487d","countryCode":"FI","state":"41e89756-89dc-4b3d-9f6a-e445ef3d0868","stateCode":"14","latitude":"64.46667000","longitude":"24.23333000"},{"id":"fcafc579-eead-4bc5-99e4-1f4a790f6589","name":"Pyhäntä","ru":"Pyhäntä","country":"f8146eb7-d2c4-47a1-94f9-c5aa422f487d","countryCode":"FI","state":"41e89756-89dc-4b3d-9f6a-e445ef3d0868","stateCode":"14","latitude":"64.10000000","longitude":"26.31667000"},{"id":"afc7cadf-6b82-4d8d-87c5-9ef23a1149af","name":"Raahe","ru":"Raahe","country":"f8146eb7-d2c4-47a1-94f9-c5aa422f487d","countryCode":"FI","state":"41e89756-89dc-4b3d-9f6a-e445ef3d0868","stateCode":"14","latitude":"64.68333000","longitude":"24.48333000"},{"id":"f55ac87a-794b-44dc-9d73-1efc91c45ba8","name":"Rantsila","ru":"Rantsila","country":"f8146eb7-d2c4-47a1-94f9-c5aa422f487d","countryCode":"FI","state":"41e89756-89dc-4b3d-9f6a-e445ef3d0868","stateCode":"14","latitude":"64.50613000","longitude":"25.66449000"},{"id":"21966381-86cd-476e-888c-4e6e40287da8","name":"Reisjärvi","ru":"Reisjärvi","country":"f8146eb7-d2c4-47a1-94f9-c5aa422f487d","countryCode":"FI","state":"41e89756-89dc-4b3d-9f6a-e445ef3d0868","stateCode":"14","latitude":"63.61667000","longitude":"24.90000000"},{"id":"ee101edd-9f93-4112-bb5a-e3ad62e114c3","name":"Ruukki","ru":"Ruukki","country":"f8146eb7-d2c4-47a1-94f9-c5aa422f487d","countryCode":"FI","state":"41e89756-89dc-4b3d-9f6a-e445ef3d0868","stateCode":"14","latitude":"64.66667000","longitude":"25.10000000"},{"id":"ebacd0b0-f298-40bb-bf99-9aff08e53791","name":"Sievi","ru":"Sievi","country":"f8146eb7-d2c4-47a1-94f9-c5aa422f487d","countryCode":"FI","state":"41e89756-89dc-4b3d-9f6a-e445ef3d0868","stateCode":"14","latitude":"63.90000000","longitude":"24.50000000"},{"id":"076a5f74-c458-4b73-98fe-790caa80b234","name":"Siikajoki","ru":"Siikajoki","country":"f8146eb7-d2c4-47a1-94f9-c5aa422f487d","countryCode":"FI","state":"41e89756-89dc-4b3d-9f6a-e445ef3d0868","stateCode":"14","latitude":"64.81455000","longitude":"24.75924000"},{"id":"0a6e1f23-332e-4b21-ba70-e2fe1506a028","name":"Taivalkoski","ru":"Taivalkoski","country":"f8146eb7-d2c4-47a1-94f9-c5aa422f487d","countryCode":"FI","state":"41e89756-89dc-4b3d-9f6a-e445ef3d0868","stateCode":"14","latitude":"65.56667000","longitude":"28.25000000"},{"id":"973b29a9-ac49-4aef-aa4c-220c2cbafc9d","name":"Tyrnävä","ru":"Tyrnävä","country":"f8146eb7-d2c4-47a1-94f9-c5aa422f487d","countryCode":"FI","state":"41e89756-89dc-4b3d-9f6a-e445ef3d0868","stateCode":"14","latitude":"64.76469000","longitude":"25.65230000"},{"id":"b0640bd2-1c94-4738-944e-a17cb5b1a305","name":"Utajärvi","ru":"Utajärvi","country":"f8146eb7-d2c4-47a1-94f9-c5aa422f487d","countryCode":"FI","state":"41e89756-89dc-4b3d-9f6a-e445ef3d0868","stateCode":"14","latitude":"64.75000000","longitude":"26.38333000"},{"id":"b04a9869-f529-4101-89d5-6936a60a2d9a","name":"Vihanti","ru":"Vihanti","country":"f8146eb7-d2c4-47a1-94f9-c5aa422f487d","countryCode":"FI","state":"41e89756-89dc-4b3d-9f6a-e445ef3d0868","stateCode":"14","latitude":"64.48472000","longitude":"24.99157000"},{"id":"812c363d-1ba5-48ae-b35e-53a2f0207c28","name":"Yli-Ii","ru":"Yli-Ii","country":"f8146eb7-d2c4-47a1-94f9-c5aa422f487d","countryCode":"FI","state":"41e89756-89dc-4b3d-9f6a-e445ef3d0868","stateCode":"14","latitude":"65.37181000","longitude":"25.84580000"},{"id":"f522500a-39f1-4f2d-9039-8a4de56b28b2","name":"Ylikiiminki","ru":"Ylikiiminki","country":"f8146eb7-d2c4-47a1-94f9-c5aa422f487d","countryCode":"FI","state":"41e89756-89dc-4b3d-9f6a-e445ef3d0868","stateCode":"14","latitude":"65.08333000","longitude":"26.25000000"},{"id":"825bb11c-e703-4d3d-8fc0-0d2e92a66580","name":"Ylivieska","ru":"Ylivieska","country":"f8146eb7-d2c4-47a1-94f9-c5aa422f487d","countryCode":"FI","state":"41e89756-89dc-4b3d-9f6a-e445ef3d0868","stateCode":"14","latitude":"64.08333000","longitude":"24.55000000"},{"id":"1757ed39-618f-4626-9f9c-98f7a6817b7d","name":"Hietalahti","ru":"Hietalahti","country":"f8146eb7-d2c4-47a1-94f9-c5aa422f487d","countryCode":"FI","state":"a6747670-907b-4429-9295-b73414d3a870","stateCode":"12","latitude":"63.08480000","longitude":"21.61716000"},{"id":"e1813bdb-66d9-4b46-b5d2-f5b678a8eb16","name":"Isokyrö","ru":"Isokyrö","country":"f8146eb7-d2c4-47a1-94f9-c5aa422f487d","countryCode":"FI","state":"a6747670-907b-4429-9295-b73414d3a870","stateCode":"12","latitude":"63.01172000","longitude":"22.33332000"},{"id":"4c9dc91c-aebd-4029-af4d-f59e8c4deabc","name":"Jakobstad","ru":"Jakobstad","country":"f8146eb7-d2c4-47a1-94f9-c5aa422f487d","countryCode":"FI","state":"a6747670-907b-4429-9295-b73414d3a870","stateCode":"12","latitude":"63.67486000","longitude":"22.70256000"},{"id":"d0975163-2af1-4f30-a34c-472229e36d7c","name":"Kaskinen","ru":"Kaskinen","country":"f8146eb7-d2c4-47a1-94f9-c5aa422f487d","countryCode":"FI","state":"a6747670-907b-4429-9295-b73414d3a870","stateCode":"12","latitude":"62.38444000","longitude":"21.22331000"},{"id":"5b8fbf2b-7902-4a5f-8783-237535c443d2","name":"Korsholm","ru":"Korsholm","country":"f8146eb7-d2c4-47a1-94f9-c5aa422f487d","countryCode":"FI","state":"a6747670-907b-4429-9295-b73414d3a870","stateCode":"12","latitude":"63.11418000","longitude":"21.68216000"},{"id":"687f93e1-baa1-4b78-9990-529e838f311e","name":"Korsnäs","ru":"Korsnäs","country":"f8146eb7-d2c4-47a1-94f9-c5aa422f487d","countryCode":"FI","state":"a6747670-907b-4429-9295-b73414d3a870","stateCode":"12","latitude":"62.78333000","longitude":"21.20000000"},{"id":"40ead6ca-5807-4d66-9e13-5fc5106f5c25","name":"Kristinestad","ru":"Kristinestad","country":"f8146eb7-d2c4-47a1-94f9-c5aa422f487d","countryCode":"FI","state":"a6747670-907b-4429-9295-b73414d3a870","stateCode":"12","latitude":"62.27429000","longitude":"21.37596000"},{"id":"7d8a2bb0-af34-4724-b40c-574707f12901","name":"Kronoby","ru":"Kronoby","country":"f8146eb7-d2c4-47a1-94f9-c5aa422f487d","countryCode":"FI","state":"a6747670-907b-4429-9295-b73414d3a870","stateCode":"12","latitude":"63.72859000","longitude":"23.03387000"},{"id":"a44fb7a0-b361-417f-a363-2c7d2c5fb69e","name":"Laihia","ru":"Laihia","country":"f8146eb7-d2c4-47a1-94f9-c5aa422f487d","countryCode":"FI","state":"a6747670-907b-4429-9295-b73414d3a870","stateCode":"12","latitude":"62.97609000","longitude":"22.01143000"},{"id":"8af0f2e3-f669-4b9b-911c-094f0866af1e","name":"Larsmo","ru":"Larsmo","country":"f8146eb7-d2c4-47a1-94f9-c5aa422f487d","countryCode":"FI","state":"a6747670-907b-4429-9295-b73414d3a870","stateCode":"12","latitude":"63.75388000","longitude":"22.74728000"},{"id":"ecaf66c3-a55b-4258-aefb-122ba5fabe4f","name":"Malax","ru":"Malax","country":"f8146eb7-d2c4-47a1-94f9-c5aa422f487d","countryCode":"FI","state":"a6747670-907b-4429-9295-b73414d3a870","stateCode":"12","latitude":"62.94225000","longitude":"21.57311000"},{"id":"bce89ea2-6848-4e37-a853-ca9a15a1db99","name":"Nykarleby","ru":"Nykarleby","country":"f8146eb7-d2c4-47a1-94f9-c5aa422f487d","countryCode":"FI","state":"a6747670-907b-4429-9295-b73414d3a870","stateCode":"12","latitude":"63.52277000","longitude":"22.53073000"},{"id":"6bc15ba4-dadc-47c5-b583-494a0e460a9a","name":"Oravais","ru":"Oravais","country":"f8146eb7-d2c4-47a1-94f9-c5aa422f487d","countryCode":"FI","state":"a6747670-907b-4429-9295-b73414d3a870","stateCode":"12","latitude":"63.30135000","longitude":"22.37821000"},{"id":"0e7d9de2-10e7-412d-8c13-1ef2fbe140a3","name":"Pedersöre","ru":"Pedersöre","country":"f8146eb7-d2c4-47a1-94f9-c5aa422f487d","countryCode":"FI","state":"a6747670-907b-4429-9295-b73414d3a870","stateCode":"12","latitude":"63.65000000","longitude":"22.68333000"},{"id":"e8ec8c7f-d60c-4485-82ed-bbeff4033662","name":"Replot","ru":"Replot","country":"f8146eb7-d2c4-47a1-94f9-c5aa422f487d","countryCode":"FI","state":"a6747670-907b-4429-9295-b73414d3a870","stateCode":"12","latitude":"63.22882000","longitude":"21.41691000"},{"id":"be188b05-5824-4d26-9559-aac8aa757926","name":"Ristinummi","ru":"Ristinummi","country":"f8146eb7-d2c4-47a1-94f9-c5aa422f487d","countryCode":"FI","state":"a6747670-907b-4429-9295-b73414d3a870","stateCode":"12","latitude":"63.09192000","longitude":"21.72297000"},{"id":"b27eafec-5779-43a6-b062-bdee8339cd95","name":"Teeriniemi","ru":"Teeriniemi","country":"f8146eb7-d2c4-47a1-94f9-c5aa422f487d","countryCode":"FI","state":"a6747670-907b-4429-9295-b73414d3a870","stateCode":"12","latitude":"63.09705000","longitude":"21.69590000"},{"id":"fc8153e5-14f5-40fd-95b3-10e41a390ec3","name":"Vaasa","ru":"Vaasa","country":"f8146eb7-d2c4-47a1-94f9-c5aa422f487d","countryCode":"FI","state":"a6747670-907b-4429-9295-b73414d3a870","stateCode":"12","latitude":"63.09600000","longitude":"21.61577000"},{"id":"a8876b04-509e-4405-aa30-9e15afca1ee8","name":"Vähäkyrö","ru":"Vähäkyrö","country":"f8146eb7-d2c4-47a1-94f9-c5aa422f487d","countryCode":"FI","state":"a6747670-907b-4429-9295-b73414d3a870","stateCode":"12","latitude":"63.05635000","longitude":"22.10584000"},{"id":"b74284cb-8b82-4c26-9f77-e708d3bb8a37","name":"Vörå","ru":"Vörå","country":"f8146eb7-d2c4-47a1-94f9-c5aa422f487d","countryCode":"FI","state":"a6747670-907b-4429-9295-b73414d3a870","stateCode":"12","latitude":"63.13607000","longitude":"22.25223000"},{"id":"23fd1018-83fa-43be-9011-eb2ba1ecc2f8","name":"Artjärvi","ru":"Artjärvi","country":"f8146eb7-d2c4-47a1-94f9-c5aa422f487d","countryCode":"FI","state":"083e27db-5b48-46ae-8883-14593f2e3717","stateCode":"16","latitude":"60.74544000","longitude":"26.07084000"},{"id":"3961ae99-6a1b-4199-a53a-194c4e779679","name":"Asikkala","ru":"Asikkala","country":"f8146eb7-d2c4-47a1-94f9-c5aa422f487d","countryCode":"FI","state":"083e27db-5b48-46ae-8883-14593f2e3717","stateCode":"16","latitude":"61.21667000","longitude":"25.50000000"},{"id":"4f1ddb11-04af-44a1-97d0-0a900cfe55a9","name":"Auttoinen","ru":"Auttoinen","country":"f8146eb7-d2c4-47a1-94f9-c5aa422f487d","countryCode":"FI","state":"083e27db-5b48-46ae-8883-14593f2e3717","stateCode":"16","latitude":"61.29901000","longitude":"25.08887000"},{"id":"272b4890-6688-43f1-a427-a3cdd6b59bf1","name":"Hartola","ru":"Hartola","country":"f8146eb7-d2c4-47a1-94f9-c5aa422f487d","countryCode":"FI","state":"083e27db-5b48-46ae-8883-14593f2e3717","stateCode":"16","latitude":"61.58333000","longitude":"26.01667000"},{"id":"f4ddc2f0-639e-45ac-9e60-3bc84240185f","name":"Hämeenkoski","ru":"Hämeenkoski","country":"f8146eb7-d2c4-47a1-94f9-c5aa422f487d","countryCode":"FI","state":"083e27db-5b48-46ae-8883-14593f2e3717","stateCode":"16","latitude":"61.02222000","longitude":"25.15417000"},{"id":"d1714df8-1121-477d-8afc-49b99722a7da","name":"Heinola","ru":"Heinola","country":"f8146eb7-d2c4-47a1-94f9-c5aa422f487d","countryCode":"FI","state":"083e27db-5b48-46ae-8883-14593f2e3717","stateCode":"16","latitude":"61.20564000","longitude":"26.03811000"},{"id":"8ad90378-1427-4c27-b487-2be0f11868ac","name":"Hollola","ru":"Hollola","country":"f8146eb7-d2c4-47a1-94f9-c5aa422f487d","countryCode":"FI","state":"083e27db-5b48-46ae-8883-14593f2e3717","stateCode":"16","latitude":"61.05000000","longitude":"25.43333000"},{"id":"7b0d51a9-af1d-4d9d-b53d-3b91714f1d96","name":"Lahti","ru":"Lahti","country":"f8146eb7-d2c4-47a1-94f9-c5aa422f487d","countryCode":"FI","state":"083e27db-5b48-46ae-8883-14593f2e3717","stateCode":"16","latitude":"60.98267000","longitude":"25.66151000"},{"id":"caea40d8-f342-4af3-b617-15c3d72d5820","name":"Nastola","ru":"Nastola","country":"f8146eb7-d2c4-47a1-94f9-c5aa422f487d","countryCode":"FI","state":"083e27db-5b48-46ae-8883-14593f2e3717","stateCode":"16","latitude":"60.95000000","longitude":"25.93333000"},{"id":"fd22f16a-8a71-486a-b81a-2470b2785bb7","name":"Orimattila","ru":"Orimattila","country":"f8146eb7-d2c4-47a1-94f9-c5aa422f487d","countryCode":"FI","state":"083e27db-5b48-46ae-8883-14593f2e3717","stateCode":"16","latitude":"60.80487000","longitude":"25.72964000"},{"id":"d08f8921-2b5a-43fb-8757-691c2993aced","name":"Padasjoki","ru":"Padasjoki","country":"f8146eb7-d2c4-47a1-94f9-c5aa422f487d","countryCode":"FI","state":"083e27db-5b48-46ae-8883-14593f2e3717","stateCode":"16","latitude":"61.35000000","longitude":"25.28333000"},{"id":"e1cf4398-2fc2-40de-b839-46c4912fb636","name":"Sysmä","ru":"Sysmä","country":"f8146eb7-d2c4-47a1-94f9-c5aa422f487d","countryCode":"FI","state":"083e27db-5b48-46ae-8883-14593f2e3717","stateCode":"16","latitude":"61.50000000","longitude":"25.68333000"},{"id":"720f920a-eba8-4cee-9940-b52de6c2a4cd","name":"Iisalmi","ru":"Iisalmi","country":"f8146eb7-d2c4-47a1-94f9-c5aa422f487d","countryCode":"FI","state":"577b98ff-ecf9-4153-a59c-9e76bdb209e4","stateCode":"11","latitude":"63.55915000","longitude":"27.19067000"},{"id":"acddb46c-528a-4aff-8e39-27a7536b3e11","name":"Juankoski","ru":"Juankoski","country":"f8146eb7-d2c4-47a1-94f9-c5aa422f487d","countryCode":"FI","state":"577b98ff-ecf9-4153-a59c-9e76bdb209e4","stateCode":"11","latitude":"63.06667000","longitude":"28.35000000"},{"id":"bfb05832-a3dc-4d3b-9018-f4cc4b1adf61","name":"Kaavi","ru":"Kaavi","country":"f8146eb7-d2c4-47a1-94f9-c5aa422f487d","countryCode":"FI","state":"577b98ff-ecf9-4153-a59c-9e76bdb209e4","stateCode":"11","latitude":"62.98333000","longitude":"28.50000000"},{"id":"a710922c-3e47-4989-86f3-e1bd907d68d1","name":"Kangaslampi","ru":"Kangaslampi","country":"f8146eb7-d2c4-47a1-94f9-c5aa422f487d","countryCode":"FI","state":"577b98ff-ecf9-4153-a59c-9e76bdb209e4","stateCode":"11","latitude":"62.29563000","longitude":"28.25289000"},{"id":"eacf4595-d419-4957-900b-495bfd22f25d","name":"Karttula","ru":"Karttula","country":"f8146eb7-d2c4-47a1-94f9-c5aa422f487d","countryCode":"FI","state":"577b98ff-ecf9-4153-a59c-9e76bdb209e4","stateCode":"11","latitude":"62.89630000","longitude":"26.97045000"},{"id":"0ddd74f9-ce9a-4cec-ad7d-eb2c67817652","name":"Keitele","ru":"Keitele","country":"f8146eb7-d2c4-47a1-94f9-c5aa422f487d","countryCode":"FI","state":"577b98ff-ecf9-4153-a59c-9e76bdb209e4","stateCode":"11","latitude":"63.18333000","longitude":"26.36667000"},{"id":"689e2531-7476-474a-ba7c-03156dc01cf7","name":"Kiuruvesi","ru":"Kiuruvesi","country":"f8146eb7-d2c4-47a1-94f9-c5aa422f487d","countryCode":"FI","state":"577b98ff-ecf9-4153-a59c-9e76bdb209e4","stateCode":"11","latitude":"63.65000000","longitude":"26.61667000"},{"id":"14ca88b9-38eb-499f-99fa-34d9793745c2","name":"Kuopio","ru":"Kuopio","country":"f8146eb7-d2c4-47a1-94f9-c5aa422f487d","countryCode":"FI","state":"577b98ff-ecf9-4153-a59c-9e76bdb209e4","stateCode":"11","latitude":"62.89238000","longitude":"27.67703000"},{"id":"5c80ebe5-a649-43d2-8b0a-5e308dec4fe7","name":"Lapinlahti","ru":"Lapinlahti","country":"f8146eb7-d2c4-47a1-94f9-c5aa422f487d","countryCode":"FI","state":"577b98ff-ecf9-4153-a59c-9e76bdb209e4","stateCode":"11","latitude":"63.36667000","longitude":"27.40000000"},{"id":"dc83110d-1cb6-4037-b524-32cd32ea49a5","name":"Leppävirta","ru":"Leppävirta","country":"f8146eb7-d2c4-47a1-94f9-c5aa422f487d","countryCode":"FI","state":"577b98ff-ecf9-4153-a59c-9e76bdb209e4","stateCode":"11","latitude":"62.49009000","longitude":"27.78262000"},{"id":"70d7ba53-51e6-48b8-9294-ba877d57c471","name":"Maaninka","ru":"Maaninka","country":"f8146eb7-d2c4-47a1-94f9-c5aa422f487d","countryCode":"FI","state":"577b98ff-ecf9-4153-a59c-9e76bdb209e4","stateCode":"11","latitude":"63.15523000","longitude":"27.29939000"},{"id":"deea241c-41a5-4ce3-8bba-229dfc98805a","name":"Nilsiä","ru":"Nilsiä","country":"f8146eb7-d2c4-47a1-94f9-c5aa422f487d","countryCode":"FI","state":"577b98ff-ecf9-4153-a59c-9e76bdb209e4","stateCode":"11","latitude":"63.20746000","longitude":"28.08222000"},{"id":"c0ff4596-d8bf-4589-860c-7c7cc3491b84","name":"Pielavesi","ru":"Pielavesi","country":"f8146eb7-d2c4-47a1-94f9-c5aa422f487d","countryCode":"FI","state":"577b98ff-ecf9-4153-a59c-9e76bdb209e4","stateCode":"11","latitude":"63.23333000","longitude":"26.75000000"},{"id":"98f83c52-7c1a-4b9b-9dce-d8461ba36b41","name":"Rautalampi","ru":"Rautalampi","country":"f8146eb7-d2c4-47a1-94f9-c5aa422f487d","countryCode":"FI","state":"577b98ff-ecf9-4153-a59c-9e76bdb209e4","stateCode":"11","latitude":"62.63333000","longitude":"26.83333000"},{"id":"ba899bc4-9e8e-4ff1-a4f1-46373347c0dc","name":"Rautavaara","ru":"Rautavaara","country":"f8146eb7-d2c4-47a1-94f9-c5aa422f487d","countryCode":"FI","state":"577b98ff-ecf9-4153-a59c-9e76bdb209e4","stateCode":"11","latitude":"63.48333000","longitude":"28.30000000"},{"id":"9c6a8020-b4a2-4598-8b44-12161f91c33d","name":"Siilinjärvi","ru":"Siilinjärvi","country":"f8146eb7-d2c4-47a1-94f9-c5aa422f487d","countryCode":"FI","state":"577b98ff-ecf9-4153-a59c-9e76bdb209e4","stateCode":"11","latitude":"63.08333000","longitude":"27.66667000"},{"id":"821dd12a-cf28-4766-b88d-365375989592","name":"Sonkajärvi","ru":"Sonkajärvi","country":"f8146eb7-d2c4-47a1-94f9-c5aa422f487d","countryCode":"FI","state":"577b98ff-ecf9-4153-a59c-9e76bdb209e4","stateCode":"11","latitude":"63.66667000","longitude":"27.51667000"},{"id":"cf7c9aec-ec85-4251-a76c-079f793f851a","name":"Suonenjoki","ru":"Suonenjoki","country":"f8146eb7-d2c4-47a1-94f9-c5aa422f487d","countryCode":"FI","state":"577b98ff-ecf9-4153-a59c-9e76bdb209e4","stateCode":"11","latitude":"62.61667000","longitude":"27.13333000"},{"id":"c8370730-8831-4b91-81f9-9ad9b0cfa9cb","name":"Tervo","ru":"Tervo","country":"f8146eb7-d2c4-47a1-94f9-c5aa422f487d","countryCode":"FI","state":"577b98ff-ecf9-4153-a59c-9e76bdb209e4","stateCode":"11","latitude":"62.95000000","longitude":"26.75000000"},{"id":"3b9ddea9-2afd-412f-9617-44f10ccbec72","name":"Tuusniemi","ru":"Tuusniemi","country":"f8146eb7-d2c4-47a1-94f9-c5aa422f487d","countryCode":"FI","state":"577b98ff-ecf9-4153-a59c-9e76bdb209e4","stateCode":"11","latitude":"62.81667000","longitude":"28.50000000"},{"id":"a6fd6668-8b3d-4942-9496-d595541eff9b","name":"Varkaus","ru":"Varkaus","country":"f8146eb7-d2c4-47a1-94f9-c5aa422f487d","countryCode":"FI","state":"577b98ff-ecf9-4153-a59c-9e76bdb209e4","stateCode":"11","latitude":"62.31533000","longitude":"27.87300000"},{"id":"8abea604-fe99-4943-ae4f-d2701ce11ff8","name":"Varpaisjärvi","ru":"Varpaisjärvi","country":"f8146eb7-d2c4-47a1-94f9-c5aa422f487d","countryCode":"FI","state":"577b98ff-ecf9-4153-a59c-9e76bdb209e4","stateCode":"11","latitude":"63.35932000","longitude":"27.75506000"},{"id":"d7cc62ae-3632-4e8d-b772-d99edc85a875","name":"Vehmersalmi","ru":"Vehmersalmi","country":"f8146eb7-d2c4-47a1-94f9-c5aa422f487d","countryCode":"FI","state":"577b98ff-ecf9-4153-a59c-9e76bdb209e4","stateCode":"11","latitude":"62.76101000","longitude":"28.02853000"},{"id":"d75845a4-9016-4384-8bee-3d1cecf403eb","name":"Vesanto","ru":"Vesanto","country":"f8146eb7-d2c4-47a1-94f9-c5aa422f487d","countryCode":"FI","state":"577b98ff-ecf9-4153-a59c-9e76bdb209e4","stateCode":"11","latitude":"62.93333000","longitude":"26.41667000"},{"id":"05896cbe-686d-4ca5-b936-552d448fa88b","name":"Vieremä","ru":"Vieremä","country":"f8146eb7-d2c4-47a1-94f9-c5aa422f487d","countryCode":"FI","state":"577b98ff-ecf9-4153-a59c-9e76bdb209e4","stateCode":"11","latitude":"63.75000000","longitude":"27.01667000"},{"id":"86a6b104-282c-4aff-b078-90d12f76d4d3","name":"Eura","ru":"Eura","country":"f8146eb7-d2c4-47a1-94f9-c5aa422f487d","countryCode":"FI","state":"cc1c1134-2033-4a11-b6c1-95d3af01a5e0","stateCode":"17","latitude":"61.13333000","longitude":"22.13333000"},{"id":"09af824b-5a0f-4b11-a437-7aeae2345bc1","name":"Eurajoki","ru":"Eurajoki","country":"f8146eb7-d2c4-47a1-94f9-c5aa422f487d","countryCode":"FI","state":"cc1c1134-2033-4a11-b6c1-95d3af01a5e0","stateCode":"17","latitude":"61.20000000","longitude":"21.73333000"},{"id":"f77f5fe3-2362-49cd-8298-c215104254e4","name":"Harjavalta","ru":"Harjavalta","country":"f8146eb7-d2c4-47a1-94f9-c5aa422f487d","countryCode":"FI","state":"cc1c1134-2033-4a11-b6c1-95d3af01a5e0","stateCode":"17","latitude":"61.31667000","longitude":"22.13333000"},{"id":"34284f52-77c4-4111-8ef5-b041cfdfafd4","name":"Huittinen","ru":"Huittinen","country":"f8146eb7-d2c4-47a1-94f9-c5aa422f487d","countryCode":"FI","state":"cc1c1134-2033-4a11-b6c1-95d3af01a5e0","stateCode":"17","latitude":"61.18333000","longitude":"22.70000000"},{"id":"5d70adb6-a49e-4c89-bfb3-6222bfb09cb9","name":"Jämijärvi","ru":"Jämijärvi","country":"f8146eb7-d2c4-47a1-94f9-c5aa422f487d","countryCode":"FI","state":"cc1c1134-2033-4a11-b6c1-95d3af01a5e0","stateCode":"17","latitude":"61.81667000","longitude":"22.70000000"},{"id":"68cd70f3-62bc-4c2b-b813-d5135ec557f9","name":"Kankaanpää","ru":"Kankaanpää","country":"f8146eb7-d2c4-47a1-94f9-c5aa422f487d","countryCode":"FI","state":"cc1c1134-2033-4a11-b6c1-95d3af01a5e0","stateCode":"17","latitude":"61.80000000","longitude":"22.41667000"},{"id":"876822df-5f01-4a36-be6d-ea95954222e4","name":"Karvia","ru":"Karvia","country":"f8146eb7-d2c4-47a1-94f9-c5aa422f487d","countryCode":"FI","state":"cc1c1134-2033-4a11-b6c1-95d3af01a5e0","stateCode":"17","latitude":"62.13333000","longitude":"22.56667000"},{"id":"287de21b-6c13-45ce-b4f0-7422f96e321c","name":"Köyliö","ru":"Köyliö","country":"f8146eb7-d2c4-47a1-94f9-c5aa422f487d","countryCode":"FI","state":"cc1c1134-2033-4a11-b6c1-95d3af01a5e0","stateCode":"17","latitude":"61.11910000","longitude":"22.30976000"},{"id":"5851387a-7087-40ce-89db-f2b6a36b93a6","name":"Kiukainen","ru":"Kiukainen","country":"f8146eb7-d2c4-47a1-94f9-c5aa422f487d","countryCode":"FI","state":"cc1c1134-2033-4a11-b6c1-95d3af01a5e0","stateCode":"17","latitude":"61.21667000","longitude":"22.08333000"},{"id":"640dbb78-438f-4c3f-96fd-b6380729bc25","name":"Kokemäki","ru":"Kokemäki","country":"f8146eb7-d2c4-47a1-94f9-c5aa422f487d","countryCode":"FI","state":"cc1c1134-2033-4a11-b6c1-95d3af01a5e0","stateCode":"17","latitude":"61.25647000","longitude":"22.35643000"},{"id":"f5e7da2a-8aeb-4595-9184-eea514b126a7","name":"Kullaa","ru":"Kullaa","country":"f8146eb7-d2c4-47a1-94f9-c5aa422f487d","countryCode":"FI","state":"cc1c1134-2033-4a11-b6c1-95d3af01a5e0","stateCode":"17","latitude":"61.46998000","longitude":"22.16145000"},{"id":"3c688abf-a984-4e23-9bec-306e7a726650","name":"Lappi","ru":"Lappi","country":"f8146eb7-d2c4-47a1-94f9-c5aa422f487d","countryCode":"FI","state":"cc1c1134-2033-4a11-b6c1-95d3af01a5e0","stateCode":"17","latitude":"61.10000000","longitude":"21.83333000"},{"id":"f134cb7f-f780-46c7-887a-f0686654886a","name":"Lavia","ru":"Lavia","country":"f8146eb7-d2c4-47a1-94f9-c5aa422f487d","countryCode":"FI","state":"cc1c1134-2033-4a11-b6c1-95d3af01a5e0","stateCode":"17","latitude":"61.60000000","longitude":"22.60000000"},{"id":"b79b9454-fa9b-4a35-acd2-9afa6ea9327e","name":"Längelmäki","ru":"Längelmäki","country":"f8146eb7-d2c4-47a1-94f9-c5aa422f487d","countryCode":"FI","state":"cc1c1134-2033-4a11-b6c1-95d3af01a5e0","stateCode":"17","latitude":"61.65000000","longitude":"22.10000000"},{"id":"cbfc832c-c9a6-4d9d-a35f-f871baf7f6c6","name":"Luvia","ru":"Luvia","country":"f8146eb7-d2c4-47a1-94f9-c5aa422f487d","countryCode":"FI","state":"cc1c1134-2033-4a11-b6c1-95d3af01a5e0","stateCode":"17","latitude":"61.36375000","longitude":"21.62556000"},{"id":"3a4c596d-a4b7-4e67-b905-b2f535b2aea4","name":"Merikarvia","ru":"Merikarvia","country":"f8146eb7-d2c4-47a1-94f9-c5aa422f487d","countryCode":"FI","state":"cc1c1134-2033-4a11-b6c1-95d3af01a5e0","stateCode":"17","latitude":"61.85839000","longitude":"21.50035000"},{"id":"4ca88ede-be0b-4998-a9d5-03612c4849a2","name":"Nakkila","ru":"Nakkila","country":"f8146eb7-d2c4-47a1-94f9-c5aa422f487d","countryCode":"FI","state":"cc1c1134-2033-4a11-b6c1-95d3af01a5e0","stateCode":"17","latitude":"61.36667000","longitude":"22.00000000"},{"id":"46c5fb80-99e0-433e-a9f0-033a7cddb733","name":"Noormarkku","ru":"Noormarkku","country":"f8146eb7-d2c4-47a1-94f9-c5aa422f487d","countryCode":"FI","state":"cc1c1134-2033-4a11-b6c1-95d3af01a5e0","stateCode":"17","latitude":"61.59274000","longitude":"21.86846000"},{"id":"3470e630-70a2-4a30-8b3d-7957f755e1da","name":"Pomarkku","ru":"Pomarkku","country":"f8146eb7-d2c4-47a1-94f9-c5aa422f487d","countryCode":"FI","state":"cc1c1134-2033-4a11-b6c1-95d3af01a5e0","stateCode":"17","latitude":"61.69348000","longitude":"22.00862000"},{"id":"9c09478e-a443-4310-9ffb-d499e8f22e90","name":"Pori","ru":"Pori","country":"f8146eb7-d2c4-47a1-94f9-c5aa422f487d","countryCode":"FI","state":"cc1c1134-2033-4a11-b6c1-95d3af01a5e0","stateCode":"17","latitude":"61.48333000","longitude":"21.78333000"},{"id":"4e138996-516f-4e6e-9092-22ce50aad7c8","name":"Rauma","ru":"Rauma","country":"f8146eb7-d2c4-47a1-94f9-c5aa422f487d","countryCode":"FI","state":"cc1c1134-2033-4a11-b6c1-95d3af01a5e0","stateCode":"17","latitude":"61.12724000","longitude":"21.51127000"},{"id":"4fd81d79-45aa-40c4-9be1-1e8e942e115c","name":"Säkylä","ru":"Säkylä","country":"f8146eb7-d2c4-47a1-94f9-c5aa422f487d","countryCode":"FI","state":"cc1c1134-2033-4a11-b6c1-95d3af01a5e0","stateCode":"17","latitude":"61.03333000","longitude":"22.33333000"},{"id":"c646cc51-eabf-4fc9-a0b6-aa46fee24ff0","name":"Siikainen","ru":"Siikainen","country":"f8146eb7-d2c4-47a1-94f9-c5aa422f487d","countryCode":"FI","state":"cc1c1134-2033-4a11-b6c1-95d3af01a5e0","stateCode":"17","latitude":"61.87703000","longitude":"21.81945000"},{"id":"d63d0d98-7743-4100-b584-86530d65b303","name":"Ulvila","ru":"Ulvila","country":"f8146eb7-d2c4-47a1-94f9-c5aa422f487d","countryCode":"FI","state":"cc1c1134-2033-4a11-b6c1-95d3af01a5e0","stateCode":"17","latitude":"61.42844000","longitude":"21.87103000"},{"id":"e739be54-6e71-4c39-91b8-0fba0de6e4e4","name":"Vampula","ru":"Vampula","country":"f8146eb7-d2c4-47a1-94f9-c5aa422f487d","countryCode":"FI","state":"cc1c1134-2033-4a11-b6c1-95d3af01a5e0","stateCode":"17","latitude":"61.01667000","longitude":"22.70000000"},{"id":"eb5be524-47e7-4996-ac1b-761d939e6b1c","name":"Imatra","ru":"Imatra","country":"f8146eb7-d2c4-47a1-94f9-c5aa422f487d","countryCode":"FI","state":"1c1b3a9c-c54c-4447-8e9f-a2212043d070","stateCode":"02","latitude":"61.17185000","longitude":"28.75242000"},{"id":"7f41f51a-1a3c-44a6-a2e0-5583d086cf3a","name":"Joutseno","ru":"Joutseno","country":"f8146eb7-d2c4-47a1-94f9-c5aa422f487d","countryCode":"FI","state":"1c1b3a9c-c54c-4447-8e9f-a2212043d070","stateCode":"02","latitude":"61.11796000","longitude":"28.50763000"},{"id":"83766893-ab2c-4b88-a834-abd52f3a6198","name":"Lappeenranta","ru":"Lappeenranta","country":"f8146eb7-d2c4-47a1-94f9-c5aa422f487d","countryCode":"FI","state":"1c1b3a9c-c54c-4447-8e9f-a2212043d070","stateCode":"02","latitude":"61.05871000","longitude":"28.18871000"},{"id":"4d52daf2-f2b8-48fd-a242-350dfef486ac","name":"Lemi","ru":"Lemi","country":"f8146eb7-d2c4-47a1-94f9-c5aa422f487d","countryCode":"FI","state":"1c1b3a9c-c54c-4447-8e9f-a2212043d070","stateCode":"02","latitude":"61.06244000","longitude":"27.80571000"},{"id":"ff95a6f0-045b-4d8a-81a6-3ef1b18e1842","name":"Luumäki","ru":"Luumäki","country":"f8146eb7-d2c4-47a1-94f9-c5aa422f487d","countryCode":"FI","state":"1c1b3a9c-c54c-4447-8e9f-a2212043d070","stateCode":"02","latitude":"60.92618000","longitude":"27.58135000"},{"id":"7f08fda0-6978-4867-ad27-d19353ffd4aa","name":"Nuijamaa","ru":"Nuijamaa","country":"f8146eb7-d2c4-47a1-94f9-c5aa422f487d","countryCode":"FI","state":"1c1b3a9c-c54c-4447-8e9f-a2212043d070","stateCode":"02","latitude":"60.96011000","longitude":"28.55104000"},{"id":"bea5904b-27af-44ea-827e-09e282d74fa9","name":"Parikkala","ru":"Parikkala","country":"f8146eb7-d2c4-47a1-94f9-c5aa422f487d","countryCode":"FI","state":"1c1b3a9c-c54c-4447-8e9f-a2212043d070","stateCode":"02","latitude":"61.55000000","longitude":"29.50000000"},{"id":"a39d7fc7-3555-47e4-808b-c4b21b225d2f","name":"Rautjärvi","ru":"Rautjärvi","country":"f8146eb7-d2c4-47a1-94f9-c5aa422f487d","countryCode":"FI","state":"1c1b3a9c-c54c-4447-8e9f-a2212043d070","stateCode":"02","latitude":"61.43333000","longitude":"29.35000000"},{"id":"1653be26-94c7-4fdb-9ee1-b94d1f2dd753","name":"Ruokolahti","ru":"Ruokolahti","country":"f8146eb7-d2c4-47a1-94f9-c5aa422f487d","countryCode":"FI","state":"1c1b3a9c-c54c-4447-8e9f-a2212043d070","stateCode":"02","latitude":"61.28333000","longitude":"28.83333000"},{"id":"a36d17a3-25a8-4521-8c96-41f0f0a60053","name":"Saari","ru":"Saari","country":"f8146eb7-d2c4-47a1-94f9-c5aa422f487d","countryCode":"FI","state":"1c1b3a9c-c54c-4447-8e9f-a2212043d070","stateCode":"02","latitude":"61.65000000","longitude":"29.75000000"},{"id":"871eaf98-aff9-45c4-9b36-420790b73a94","name":"Savitaipale","ru":"Savitaipale","country":"f8146eb7-d2c4-47a1-94f9-c5aa422f487d","countryCode":"FI","state":"1c1b3a9c-c54c-4447-8e9f-a2212043d070","stateCode":"02","latitude":"61.20000000","longitude":"27.70000000"},{"id":"4c43263d-3d42-4eb0-86c6-066a3d3b2416","name":"Taipalsaari","ru":"Taipalsaari","country":"f8146eb7-d2c4-47a1-94f9-c5aa422f487d","countryCode":"FI","state":"1c1b3a9c-c54c-4447-8e9f-a2212043d070","stateCode":"02","latitude":"61.15000000","longitude":"28.05000000"},{"id":"8d1a7514-64d0-425f-ae87-363f23576ae0","name":"Ylämaa","ru":"Ylämaa","country":"f8146eb7-d2c4-47a1-94f9-c5aa422f487d","countryCode":"FI","state":"1c1b3a9c-c54c-4447-8e9f-a2212043d070","stateCode":"02","latitude":"60.80000000","longitude":"28.00000000"},{"id":"366a21a7-f1b9-477b-b154-b622261353ff","name":"Alahärmä","ru":"Alahärmä","country":"f8146eb7-d2c4-47a1-94f9-c5aa422f487d","countryCode":"FI","state":"20343953-16fb-448f-bb60-b1ad5bb58a91","stateCode":"03","latitude":"63.23333000","longitude":"22.85000000"},{"id":"cbe1efb9-cd1a-4dc0-91c8-87a96e6bf05e","name":"Alajärvi","ru":"Alajärvi","country":"f8146eb7-d2c4-47a1-94f9-c5aa422f487d","countryCode":"FI","state":"20343953-16fb-448f-bb60-b1ad5bb58a91","stateCode":"03","latitude":"63.00000000","longitude":"23.81667000"},{"id":"a20caa62-b63c-451e-9a38-8522b5c89bfd","name":"Alavus","ru":"Alavus","country":"f8146eb7-d2c4-47a1-94f9-c5aa422f487d","countryCode":"FI","state":"20343953-16fb-448f-bb60-b1ad5bb58a91","stateCode":"03","latitude":"62.58333000","longitude":"23.61667000"},{"id":"968c1799-5e6f-427e-8c01-c0c61c6ff5ed","name":"Ähtäri","ru":"Ähtäri","country":"f8146eb7-d2c4-47a1-94f9-c5aa422f487d","countryCode":"FI","state":"20343953-16fb-448f-bb60-b1ad5bb58a91","stateCode":"03","latitude":"62.55403000","longitude":"24.06186000"},{"id":"1f1cd56e-1b48-43ab-898c-ae73ac00c85a","name":"Älajärvi","ru":"Älajärvi","country":"f8146eb7-d2c4-47a1-94f9-c5aa422f487d","countryCode":"FI","state":"20343953-16fb-448f-bb60-b1ad5bb58a91","stateCode":"03","latitude":"63.00027000","longitude":"23.81586000"},{"id":"38c73178-4d4d-4711-b045-db9ae4d54685","name":"Evijärvi","ru":"Evijärvi","country":"f8146eb7-d2c4-47a1-94f9-c5aa422f487d","countryCode":"FI","state":"20343953-16fb-448f-bb60-b1ad5bb58a91","stateCode":"03","latitude":"63.36667000","longitude":"23.48333000"},{"id":"18d2bcd6-7448-4c42-b6a6-600df7226618","name":"Ilmajoki","ru":"Ilmajoki","country":"f8146eb7-d2c4-47a1-94f9-c5aa422f487d","countryCode":"FI","state":"20343953-16fb-448f-bb60-b1ad5bb58a91","stateCode":"03","latitude":"62.73333000","longitude":"22.56667000"},{"id":"b9e1521c-ac05-42d8-b3e2-457a15bbe805","name":"Isojoki","ru":"Isojoki","country":"f8146eb7-d2c4-47a1-94f9-c5aa422f487d","countryCode":"FI","state":"20343953-16fb-448f-bb60-b1ad5bb58a91","stateCode":"03","latitude":"62.11319000","longitude":"21.95884000"},{"id":"46ac34c0-dc48-4b19-8cc9-7f2d8b0e1d49","name":"Jalasjärvi","ru":"Jalasjärvi","country":"f8146eb7-d2c4-47a1-94f9-c5aa422f487d","countryCode":"FI","state":"20343953-16fb-448f-bb60-b1ad5bb58a91","stateCode":"03","latitude":"62.50000000","longitude":"22.75000000"},{"id":"4a6ed6d8-3d94-442a-bca0-5523638bcf0c","name":"Jurva","ru":"Jurva","country":"f8146eb7-d2c4-47a1-94f9-c5aa422f487d","countryCode":"FI","state":"20343953-16fb-448f-bb60-b1ad5bb58a91","stateCode":"03","latitude":"62.68333000","longitude":"21.98333000"},{"id":"e520a1b7-80b1-4ed8-8e79-440c852e1fb7","name":"Karijoki","ru":"Karijoki","country":"f8146eb7-d2c4-47a1-94f9-c5aa422f487d","countryCode":"FI","state":"20343953-16fb-448f-bb60-b1ad5bb58a91","stateCode":"03","latitude":"62.30851000","longitude":"21.70856000"},{"id":"5b0453e5-373f-4579-b7e5-447a0fa07f1d","name":"Kauhajoki","ru":"Kauhajoki","country":"f8146eb7-d2c4-47a1-94f9-c5aa422f487d","countryCode":"FI","state":"20343953-16fb-448f-bb60-b1ad5bb58a91","stateCode":"03","latitude":"62.43333000","longitude":"22.18333000"},{"id":"19966e3c-788a-4bcc-a039-5dc7a567a766","name":"Kauhava","ru":"Kauhava","country":"f8146eb7-d2c4-47a1-94f9-c5aa422f487d","countryCode":"FI","state":"20343953-16fb-448f-bb60-b1ad5bb58a91","stateCode":"03","latitude":"63.10299000","longitude":"23.07129000"},{"id":"8977b765-5165-4054-8920-f8b9de8dabf5","name":"Kortesjärvi","ru":"Kortesjärvi","country":"f8146eb7-d2c4-47a1-94f9-c5aa422f487d","countryCode":"FI","state":"20343953-16fb-448f-bb60-b1ad5bb58a91","stateCode":"03","latitude":"63.30000000","longitude":"23.16667000"},{"id":"5fe0334f-1cb3-4299-ab6e-389f3c8f3be7","name":"Kuortane","ru":"Kuortane","country":"f8146eb7-d2c4-47a1-94f9-c5aa422f487d","countryCode":"FI","state":"20343953-16fb-448f-bb60-b1ad5bb58a91","stateCode":"03","latitude":"62.80000000","longitude":"23.50000000"},{"id":"a5365272-2319-4f6f-96bb-715215400011","name":"Kurikka","ru":"Kurikka","country":"f8146eb7-d2c4-47a1-94f9-c5aa422f487d","countryCode":"FI","state":"20343953-16fb-448f-bb60-b1ad5bb58a91","stateCode":"03","latitude":"62.61667000","longitude":"22.41667000"},{"id":"11fce52e-ed10-404d-9adc-c0997887021b","name":"Lappajärvi","ru":"Lappajärvi","country":"f8146eb7-d2c4-47a1-94f9-c5aa422f487d","countryCode":"FI","state":"20343953-16fb-448f-bb60-b1ad5bb58a91","stateCode":"03","latitude":"63.20000000","longitude":"23.63333000"},{"id":"72b26c4b-894a-4ff6-9897-157fd5c0d340","name":"Lapua","ru":"Lapua","country":"f8146eb7-d2c4-47a1-94f9-c5aa422f487d","countryCode":"FI","state":"20343953-16fb-448f-bb60-b1ad5bb58a91","stateCode":"03","latitude":"62.96927000","longitude":"23.00880000"},{"id":"efab2d78-5615-4be6-b05c-270d6a8ebc23","name":"Lehtimäki","ru":"Lehtimäki","country":"f8146eb7-d2c4-47a1-94f9-c5aa422f487d","countryCode":"FI","state":"20343953-16fb-448f-bb60-b1ad5bb58a91","stateCode":"03","latitude":"62.78333000","longitude":"23.91667000"},{"id":"48429dad-e02c-4f1f-a036-ecca7fa2e7fe","name":"Nurmo","ru":"Nurmo","country":"f8146eb7-d2c4-47a1-94f9-c5aa422f487d","countryCode":"FI","state":"20343953-16fb-448f-bb60-b1ad5bb58a91","stateCode":"03","latitude":"62.82870000","longitude":"22.90990000"},{"id":"57cbe83f-339c-46bd-be9d-c1d22f79c643","name":"Seinäjoki","ru":"Seinäjoki","country":"f8146eb7-d2c4-47a1-94f9-c5aa422f487d","countryCode":"FI","state":"20343953-16fb-448f-bb60-b1ad5bb58a91","stateCode":"03","latitude":"62.79446000","longitude":"22.82822000"},{"id":"82109b6a-ea7b-44a0-a8c5-96801192e36d","name":"Soini","ru":"Soini","country":"f8146eb7-d2c4-47a1-94f9-c5aa422f487d","countryCode":"FI","state":"20343953-16fb-448f-bb60-b1ad5bb58a91","stateCode":"03","latitude":"62.86667000","longitude":"24.21667000"},{"id":"62e9c66f-f736-4ac3-8ba1-e78e3bc9c289","name":"Töysä","ru":"Töysä","country":"f8146eb7-d2c4-47a1-94f9-c5aa422f487d","countryCode":"FI","state":"20343953-16fb-448f-bb60-b1ad5bb58a91","stateCode":"03","latitude":"62.62803000","longitude":"23.81828000"},{"id":"716a1e3f-bd53-4daf-bfd0-867ae20b75d8","name":"Teuva","ru":"Teuva","country":"f8146eb7-d2c4-47a1-94f9-c5aa422f487d","countryCode":"FI","state":"20343953-16fb-448f-bb60-b1ad5bb58a91","stateCode":"03","latitude":"62.48190000","longitude":"21.74156000"},{"id":"759c598a-425a-4dd5-afa9-69d13cc83ae5","name":"Vimpeli","ru":"Vimpeli","country":"f8146eb7-d2c4-47a1-94f9-c5aa422f487d","countryCode":"FI","state":"20343953-16fb-448f-bb60-b1ad5bb58a91","stateCode":"03","latitude":"63.16187000","longitude":"23.81922000"},{"id":"2306d0da-722e-4694-9567-80cddafec66d","name":"Ylihärmä","ru":"Ylihärmä","country":"f8146eb7-d2c4-47a1-94f9-c5aa422f487d","countryCode":"FI","state":"20343953-16fb-448f-bb60-b1ad5bb58a91","stateCode":"03","latitude":"63.15000000","longitude":"22.78333000"},{"id":"dbfb47ec-2dbf-4b45-b3f0-3068c702fad2","name":"Ylistaro","ru":"Ylistaro","country":"f8146eb7-d2c4-47a1-94f9-c5aa422f487d","countryCode":"FI","state":"20343953-16fb-448f-bb60-b1ad5bb58a91","stateCode":"03","latitude":"62.93958000","longitude":"22.51306000"},{"id":"cf5cf326-e643-4c25-bc8f-2812d0c3f0f1","name":"Enonkoski","ru":"Enonkoski","country":"f8146eb7-d2c4-47a1-94f9-c5aa422f487d","countryCode":"FI","state":"13f60724-c380-4161-9df8-8f69cb3e4c9c","stateCode":"04","latitude":"62.08333000","longitude":"28.93333000"},{"id":"f6684fda-919a-43dc-8f32-e6e30448ece8","name":"Haukivuori","ru":"Haukivuori","country":"f8146eb7-d2c4-47a1-94f9-c5aa422f487d","countryCode":"FI","state":"13f60724-c380-4161-9df8-8f69cb3e4c9c","stateCode":"04","latitude":"62.01753000","longitude":"27.21906000"},{"id":"c55d6ffd-2922-44fd-aba1-36dee44489e0","name":"Heinävesi","ru":"Heinävesi","country":"f8146eb7-d2c4-47a1-94f9-c5aa422f487d","countryCode":"FI","state":"13f60724-c380-4161-9df8-8f69cb3e4c9c","stateCode":"04","latitude":"62.43333000","longitude":"28.60000000"},{"id":"9ccf16ae-8184-4848-9c57-65576c9c52b4","name":"Hirvensalmi","ru":"Hirvensalmi","country":"f8146eb7-d2c4-47a1-94f9-c5aa422f487d","countryCode":"FI","state":"13f60724-c380-4161-9df8-8f69cb3e4c9c","stateCode":"04","latitude":"61.63333000","longitude":"26.80000000"},{"id":"a5e7c322-23ff-401c-b12c-18281a6416b9","name":"Jäppilä","ru":"Jäppilä","country":"f8146eb7-d2c4-47a1-94f9-c5aa422f487d","countryCode":"FI","state":"13f60724-c380-4161-9df8-8f69cb3e4c9c","stateCode":"04","latitude":"62.37899000","longitude":"27.43372000"},{"id":"f94a660c-9870-4a63-81ae-e389e2807ad7","name":"Joroinen","ru":"Joroinen","country":"f8146eb7-d2c4-47a1-94f9-c5aa422f487d","countryCode":"FI","state":"13f60724-c380-4161-9df8-8f69cb3e4c9c","stateCode":"04","latitude":"62.17823000","longitude":"27.83165000"},{"id":"920d4726-1625-47ee-8705-132d74de8ee9","name":"Juva","ru":"Juva","country":"f8146eb7-d2c4-47a1-94f9-c5aa422f487d","countryCode":"FI","state":"13f60724-c380-4161-9df8-8f69cb3e4c9c","stateCode":"04","latitude":"61.90000000","longitude":"27.85000000"},{"id":"90bcda28-9de2-4995-b86f-63a7d27c2be4","name":"Kangasniemi","ru":"Kangasniemi","country":"f8146eb7-d2c4-47a1-94f9-c5aa422f487d","countryCode":"FI","state":"13f60724-c380-4161-9df8-8f69cb3e4c9c","stateCode":"04","latitude":"61.99357000","longitude":"26.64785000"},{"id":"5baa9c96-bf5a-4fb4-b707-072ca4eeff10","name":"Kerimäki","ru":"Kerimäki","country":"f8146eb7-d2c4-47a1-94f9-c5aa422f487d","countryCode":"FI","state":"13f60724-c380-4161-9df8-8f69cb3e4c9c","stateCode":"04","latitude":"61.91069000","longitude":"29.28228000"},{"id":"f8226e5a-6bc0-4fcb-9e69-dee91a9e436a","name":"Mäntyharju","ru":"Mäntyharju","country":"f8146eb7-d2c4-47a1-94f9-c5aa422f487d","countryCode":"FI","state":"13f60724-c380-4161-9df8-8f69cb3e4c9c","stateCode":"04","latitude":"61.41667000","longitude":"26.88333000"},{"id":"16680a48-69ef-46b3-8226-2e49862a1966","name":"Mikkeli","ru":"Mikkeli","country":"f8146eb7-d2c4-47a1-94f9-c5aa422f487d","countryCode":"FI","state":"13f60724-c380-4161-9df8-8f69cb3e4c9c","stateCode":"04","latitude":"61.68857000","longitude":"27.27227000"},{"id":"17771420-265f-45d8-bd56-e04002fbfa01","name":"Pertunmaa","ru":"Pertunmaa","country":"f8146eb7-d2c4-47a1-94f9-c5aa422f487d","countryCode":"FI","state":"13f60724-c380-4161-9df8-8f69cb3e4c9c","stateCode":"04","latitude":"61.50000000","longitude":"26.48333000"},{"id":"3512f143-fb05-4ba2-a279-4a706e8f1577","name":"Pieksämäki","ru":"Pieksämäki","country":"f8146eb7-d2c4-47a1-94f9-c5aa422f487d","countryCode":"FI","state":"13f60724-c380-4161-9df8-8f69cb3e4c9c","stateCode":"04","latitude":"62.30000000","longitude":"27.13333000"},{"id":"24dbb4b8-390d-4494-98c6-4bd0839b969d","name":"Punkaharju","ru":"Punkaharju","country":"f8146eb7-d2c4-47a1-94f9-c5aa422f487d","countryCode":"FI","state":"13f60724-c380-4161-9df8-8f69cb3e4c9c","stateCode":"04","latitude":"61.75883000","longitude":"29.38843000"},{"id":"9eb376ea-a9ae-4edf-8d6f-e6038adb039e","name":"Puumala","ru":"Puumala","country":"f8146eb7-d2c4-47a1-94f9-c5aa422f487d","countryCode":"FI","state":"13f60724-c380-4161-9df8-8f69cb3e4c9c","stateCode":"04","latitude":"61.52728000","longitude":"28.17495000"},{"id":"e60ec354-a640-495c-89d4-691cda720f68","name":"Rantasalmi","ru":"Rantasalmi","country":"f8146eb7-d2c4-47a1-94f9-c5aa422f487d","countryCode":"FI","state":"13f60724-c380-4161-9df8-8f69cb3e4c9c","stateCode":"04","latitude":"62.06667000","longitude":"28.30000000"},{"id":"73f21401-8d96-48bc-b0cd-41008bbfaf07","name":"Ristiina","ru":"Ristiina","country":"f8146eb7-d2c4-47a1-94f9-c5aa422f487d","countryCode":"FI","state":"13f60724-c380-4161-9df8-8f69cb3e4c9c","stateCode":"04","latitude":"61.50579000","longitude":"27.24643000"},{"id":"f07f0eed-1b3a-4a3d-b9ba-7c0104dc77db","name":"Savonlinna","ru":"Savonlinna","country":"f8146eb7-d2c4-47a1-94f9-c5aa422f487d","countryCode":"FI","state":"13f60724-c380-4161-9df8-8f69cb3e4c9c","stateCode":"04","latitude":"61.86990000","longitude":"28.87999000"},{"id":"9b252d4a-66d8-40e0-8e37-608d2fd81e60","name":"Savonranta","ru":"Savonranta","country":"f8146eb7-d2c4-47a1-94f9-c5aa422f487d","countryCode":"FI","state":"13f60724-c380-4161-9df8-8f69cb3e4c9c","stateCode":"04","latitude":"62.18333000","longitude":"29.20000000"},{"id":"03645b53-cead-4d3b-9fa9-02c0bd41d74d","name":"Sulkava","ru":"Sulkava","country":"f8146eb7-d2c4-47a1-94f9-c5aa422f487d","countryCode":"FI","state":"13f60724-c380-4161-9df8-8f69cb3e4c9c","stateCode":"04","latitude":"61.78691000","longitude":"28.37299000"},{"id":"f22c85db-e87c-4c35-8fb0-60971da20d00","name":"Virtasalmi","ru":"Virtasalmi","country":"f8146eb7-d2c4-47a1-94f9-c5aa422f487d","countryCode":"FI","state":"13f60724-c380-4161-9df8-8f69cb3e4c9c","stateCode":"04","latitude":"62.12695000","longitude":"27.46276000"},{"id":"032dd679-fb1f-4c5f-bce7-f03926ca1e5e","name":"Forssa","ru":"Forssa","country":"f8146eb7-d2c4-47a1-94f9-c5aa422f487d","countryCode":"FI","state":"405eb170-9488-4860-8790-6886921549e0","stateCode":"06","latitude":"60.81462000","longitude":"23.62146000"},{"id":"c2f09d74-e84b-4f5b-ae4b-37dea9f735ab","name":"Hauho","ru":"Hauho","country":"f8146eb7-d2c4-47a1-94f9-c5aa422f487d","countryCode":"FI","state":"405eb170-9488-4860-8790-6886921549e0","stateCode":"06","latitude":"61.17255000","longitude":"24.56303000"},{"id":"3d44d91d-ce0c-4d3d-a11a-2cb7883f6530","name":"Hausjärvi","ru":"Hausjärvi","country":"f8146eb7-d2c4-47a1-94f9-c5aa422f487d","countryCode":"FI","state":"405eb170-9488-4860-8790-6886921549e0","stateCode":"06","latitude":"60.78333000","longitude":"24.93333000"},{"id":"e2820b98-0108-4648-ad54-83263784f400","name":"Hämeenlinna","ru":"Hämeenlinna","country":"f8146eb7-d2c4-47a1-94f9-c5aa422f487d","countryCode":"FI","state":"405eb170-9488-4860-8790-6886921549e0","stateCode":"06","latitude":"60.99596000","longitude":"24.46434000"},{"id":"8dcb5656-facf-4fd2-a226-52f1a43cce27","name":"Humppila","ru":"Humppila","country":"f8146eb7-d2c4-47a1-94f9-c5aa422f487d","countryCode":"FI","state":"405eb170-9488-4860-8790-6886921549e0","stateCode":"06","latitude":"60.93333000","longitude":"23.36667000"},{"id":"2cfee42f-0ad9-4b97-94eb-af6cfbcec3a1","name":"Janakkala","ru":"Janakkala","country":"f8146eb7-d2c4-47a1-94f9-c5aa422f487d","countryCode":"FI","state":"405eb170-9488-4860-8790-6886921549e0","stateCode":"06","latitude":"60.90000000","longitude":"24.60000000"},{"id":"7c5c6876-17fa-4698-9f6d-c482f9fc5cc9","name":"Jokioinen","ru":"Jokioinen","country":"f8146eb7-d2c4-47a1-94f9-c5aa422f487d","countryCode":"FI","state":"405eb170-9488-4860-8790-6886921549e0","stateCode":"06","latitude":"60.80162000","longitude":"23.48004000"},{"id":"16bba287-ce82-4e87-a780-3fc5e40557e8","name":"Kalvola","ru":"Kalvola","country":"f8146eb7-d2c4-47a1-94f9-c5aa422f487d","countryCode":"FI","state":"405eb170-9488-4860-8790-6886921549e0","stateCode":"06","latitude":"61.10081000","longitude":"24.12177000"},{"id":"6ab2a8d2-5ee2-491e-8e68-586f4abc7c96","name":"Lammi","ru":"Lammi","country":"f8146eb7-d2c4-47a1-94f9-c5aa422f487d","countryCode":"FI","state":"405eb170-9488-4860-8790-6886921549e0","stateCode":"06","latitude":"61.08333000","longitude":"25.01667000"},{"id":"27e59811-58a0-43f9-a9ef-6d53f4dec5d4","name":"Loppi","ru":"Loppi","country":"f8146eb7-d2c4-47a1-94f9-c5aa422f487d","countryCode":"FI","state":"405eb170-9488-4860-8790-6886921549e0","stateCode":"06","latitude":"60.71667000","longitude":"24.45000000"},{"id":"44755427-3d42-4aca-b5e3-985e650234c8","name":"Renko","ru":"Renko","country":"f8146eb7-d2c4-47a1-94f9-c5aa422f487d","countryCode":"FI","state":"405eb170-9488-4860-8790-6886921549e0","stateCode":"06","latitude":"60.89563000","longitude":"24.28785000"},{"id":"9f7b3480-f064-44c8-a479-9340cafaa5d3","name":"Riihimäki","ru":"Riihimäki","country":"f8146eb7-d2c4-47a1-94f9-c5aa422f487d","countryCode":"FI","state":"405eb170-9488-4860-8790-6886921549e0","stateCode":"06","latitude":"60.73769000","longitude":"24.77726000"},{"id":"58910680-5522-4d14-b7ba-58b285e571fb","name":"Tammela","ru":"Tammela","country":"f8146eb7-d2c4-47a1-94f9-c5aa422f487d","countryCode":"FI","state":"405eb170-9488-4860-8790-6886921549e0","stateCode":"06","latitude":"60.81035000","longitude":"23.76823000"},{"id":"f7f12315-4e84-485a-97db-f624bd3f10a9","name":"Tervakoski","ru":"Tervakoski","country":"f8146eb7-d2c4-47a1-94f9-c5aa422f487d","countryCode":"FI","state":"405eb170-9488-4860-8790-6886921549e0","stateCode":"06","latitude":"60.81412000","longitude":"24.62594000"},{"id":"affa0334-9b05-40de-8e7a-c7180a1c7b35","name":"Tuulos","ru":"Tuulos","country":"f8146eb7-d2c4-47a1-94f9-c5aa422f487d","countryCode":"FI","state":"405eb170-9488-4860-8790-6886921549e0","stateCode":"06","latitude":"61.15000000","longitude":"24.80000000"},{"id":"9ac6881c-eee5-4c4d-8208-9812ec5b9cf1","name":"Ypäjä","ru":"Ypäjä","country":"f8146eb7-d2c4-47a1-94f9-c5aa422f487d","countryCode":"FI","state":"405eb170-9488-4860-8790-6886921549e0","stateCode":"06","latitude":"60.80000000","longitude":"23.28333000"},{"id":"47549ca0-61a6-4fde-a247-caa6fea2d99a","name":"Askola","ru":"Askola","country":"f8146eb7-d2c4-47a1-94f9-c5aa422f487d","countryCode":"FI","state":"f1390635-fcbf-4b25-b472-60c1f7b4ec0d","stateCode":"18","latitude":"60.53333000","longitude":"25.60000000"},{"id":"332a3ed7-d8e2-493c-b47c-a3a8c68903b0","name":"Ekenäs","ru":"Ekenäs","country":"f8146eb7-d2c4-47a1-94f9-c5aa422f487d","countryCode":"FI","state":"f1390635-fcbf-4b25-b472-60c1f7b4ec0d","stateCode":"18","latitude":"59.97359000","longitude":"23.43389000"},{"id":"b7baf198-8b41-4eb1-b0c1-5f31b47a2fa0","name":"Espoo","ru":"Espoo","country":"f8146eb7-d2c4-47a1-94f9-c5aa422f487d","countryCode":"FI","state":"f1390635-fcbf-4b25-b472-60c1f7b4ec0d","stateCode":"18","latitude":"60.20520000","longitude":"24.65220000"},{"id":"db46b116-81cb-4b80-920a-f476503d5e99","name":"Gumböle","ru":"Gumböle","country":"f8146eb7-d2c4-47a1-94f9-c5aa422f487d","countryCode":"FI","state":"f1390635-fcbf-4b25-b472-60c1f7b4ec0d","stateCode":"18","latitude":"60.21948000","longitude":"24.61684000"},{"id":"a8a6a21d-1a89-4946-85a1-546c25668828","name":"Hanko","ru":"Hanko","country":"f8146eb7-d2c4-47a1-94f9-c5aa422f487d","countryCode":"FI","state":"f1390635-fcbf-4b25-b472-60c1f7b4ec0d","stateCode":"18","latitude":"59.83333000","longitude":"22.95000000"},{"id":"3e410af0-943d-4331-b118-acc712e293e2","name":"Helsinki","ru":"Helsinki","country":"f8146eb7-d2c4-47a1-94f9-c5aa422f487d","countryCode":"FI","state":"f1390635-fcbf-4b25-b472-60c1f7b4ec0d","stateCode":"18","latitude":"60.16952000","longitude":"24.93545000"},{"id":"d75ee0da-aa1b-4a55-888c-649b5894620d","name":"Hyvinge","ru":"Hyvinge","country":"f8146eb7-d2c4-47a1-94f9-c5aa422f487d","countryCode":"FI","state":"f1390635-fcbf-4b25-b472-60c1f7b4ec0d","stateCode":"18","latitude":"60.63333000","longitude":"24.86667000"},{"id":"2f324a02-5577-4383-9961-478d84b0da10","name":"Ingå","ru":"Ingå","country":"f8146eb7-d2c4-47a1-94f9-c5aa422f487d","countryCode":"FI","state":"f1390635-fcbf-4b25-b472-60c1f7b4ec0d","stateCode":"18","latitude":"60.04587000","longitude":"24.00459000"},{"id":"e297bf92-221a-4f59-833f-f3854e0efd5b","name":"Järvenpää","ru":"Järvenpää","country":"f8146eb7-d2c4-47a1-94f9-c5aa422f487d","countryCode":"FI","state":"f1390635-fcbf-4b25-b472-60c1f7b4ec0d","stateCode":"18","latitude":"60.47369000","longitude":"25.08992000"},{"id":"aaf81ca2-31b6-40b5-abb5-83d809796871","name":"Kaarela","ru":"Kaarela","country":"f8146eb7-d2c4-47a1-94f9-c5aa422f487d","countryCode":"FI","state":"f1390635-fcbf-4b25-b472-60c1f7b4ec0d","stateCode":"18","latitude":"60.25174000","longitude":"24.88111000"},{"id":"0d74a7be-497b-45c3-b7fd-58a65581e4f5","name":"Kallio","ru":"Kallio","country":"f8146eb7-d2c4-47a1-94f9-c5aa422f487d","countryCode":"FI","state":"f1390635-fcbf-4b25-b472-60c1f7b4ec0d","stateCode":"18","latitude":"60.18427000","longitude":"24.95034000"},{"id":"80a26914-f4ca-493f-9a79-34c0263a3584","name":"Karis","ru":"Karis","country":"f8146eb7-d2c4-47a1-94f9-c5aa422f487d","countryCode":"FI","state":"f1390635-fcbf-4b25-b472-60c1f7b4ec0d","stateCode":"18","latitude":"60.07178000","longitude":"23.66163000"},{"id":"f536fed7-1ee2-40e6-a392-13a326c4033f","name":"Karjalohja","ru":"Karjalohja","country":"f8146eb7-d2c4-47a1-94f9-c5aa422f487d","countryCode":"FI","state":"f1390635-fcbf-4b25-b472-60c1f7b4ec0d","stateCode":"18","latitude":"60.24015000","longitude":"23.71789000"},{"id":"50cbbee0-c77b-43f7-8092-a3b2128534d4","name":"Karkkila","ru":"Karkkila","country":"f8146eb7-d2c4-47a1-94f9-c5aa422f487d","countryCode":"FI","state":"f1390635-fcbf-4b25-b472-60c1f7b4ec0d","stateCode":"18","latitude":"60.53418000","longitude":"24.20977000"},{"id":"1dc5368a-4317-4cd6-9d49-984d9bbd5368","name":"Kauniainen","ru":"Kauniainen","country":"f8146eb7-d2c4-47a1-94f9-c5aa422f487d","countryCode":"FI","state":"f1390635-fcbf-4b25-b472-60c1f7b4ec0d","stateCode":"18","latitude":"60.21209000","longitude":"24.72756000"},{"id":"14cb51d5-97f3-42f0-bea8-059cfa517c50","name":"Kärkölä","ru":"Kärkölä","country":"f8146eb7-d2c4-47a1-94f9-c5aa422f487d","countryCode":"FI","state":"f1390635-fcbf-4b25-b472-60c1f7b4ec0d","stateCode":"18","latitude":"60.61292000","longitude":"23.94196000"},{"id":"8f4e7cdb-8443-47ed-aac1-66979b7c1fed","name":"Kellokoski","ru":"Kellokoski","country":"f8146eb7-d2c4-47a1-94f9-c5aa422f487d","countryCode":"FI","state":"f1390635-fcbf-4b25-b472-60c1f7b4ec0d","stateCode":"18","latitude":"60.53271000","longitude":"25.10917000"},{"id":"207c3d4c-fcf8-49cf-ab6a-c42b1c14c999","name":"Kerava","ru":"Kerava","country":"f8146eb7-d2c4-47a1-94f9-c5aa422f487d","countryCode":"FI","state":"f1390635-fcbf-4b25-b472-60c1f7b4ec0d","stateCode":"18","latitude":"60.40338000","longitude":"25.10500000"},{"id":"587b44a7-450a-4aa2-b237-feeaf8662711","name":"Kilo","ru":"Kilo","country":"f8146eb7-d2c4-47a1-94f9-c5aa422f487d","countryCode":"FI","state":"f1390635-fcbf-4b25-b472-60c1f7b4ec0d","stateCode":"18","latitude":"60.21746000","longitude":"24.78151000"},{"id":"dafa7302-bd12-4392-950e-92f4d3668abb","name":"Kirkkonummi","ru":"Kirkkonummi","country":"f8146eb7-d2c4-47a1-94f9-c5aa422f487d","countryCode":"FI","state":"f1390635-fcbf-4b25-b472-60c1f7b4ec0d","stateCode":"18","latitude":"60.12381000","longitude":"24.43853000"},{"id":"0c72dff9-46b7-449e-a80d-f56bf4effa68","name":"Koukkuniemi","ru":"Koukkuniemi","country":"f8146eb7-d2c4-47a1-94f9-c5aa422f487d","countryCode":"FI","state":"f1390635-fcbf-4b25-b472-60c1f7b4ec0d","stateCode":"18","latitude":"60.15261000","longitude":"24.76467000"},{"id":"8ffd23f2-d6d8-48ef-aace-a8320ff83443","name":"Lapinjärvi","ru":"Lapinjärvi","country":"f8146eb7-d2c4-47a1-94f9-c5aa422f487d","countryCode":"FI","state":"f1390635-fcbf-4b25-b472-60c1f7b4ec0d","stateCode":"18","latitude":"60.62443000","longitude":"26.19720000"},{"id":"5588d6dc-82cd-439a-9e3b-f55a34995b92","name":"Lauttasaari","ru":"Lauttasaari","country":"f8146eb7-d2c4-47a1-94f9-c5aa422f487d","countryCode":"FI","state":"f1390635-fcbf-4b25-b472-60c1f7b4ec0d","stateCode":"18","latitude":"60.15896000","longitude":"24.86797000"},{"id":"c66cf5de-e2f7-407a-9fc3-7a63a3d6a065","name":"Liljendal","ru":"Liljendal","country":"f8146eb7-d2c4-47a1-94f9-c5aa422f487d","countryCode":"FI","state":"f1390635-fcbf-4b25-b472-60c1f7b4ec0d","stateCode":"18","latitude":"60.57346000","longitude":"26.05257000"},