[{"id":"7daf396c-1626-4b8d-a691-d1f3d031fc64","name":"Baringo","ru":"Baringo","country":"efb8df97-14a4-4ebb-bcf9-1d25dfc227f7","countryCode":"KE","state":"a6c7d78f-eabe-4d1f-98d9-871f1f53ce11","stateCode":"01","latitude":"0.46667000","longitude":"35.96667000"},{"id":"9d842ce6-e2f4-44e1-af9a-a85f86f9a7f0","name":"Eldama Ravine","ru":"Eldama Ravine","country":"efb8df97-14a4-4ebb-bcf9-1d25dfc227f7","countryCode":"KE","state":"a6c7d78f-eabe-4d1f-98d9-871f1f53ce11","stateCode":"01","latitude":"0.05196000","longitude":"35.72734000"},{"id":"826319e5-5e54-4e7b-bfe3-c9fa9be203f3","name":"Kabarnet","ru":"Kabarnet","country":"efb8df97-14a4-4ebb-bcf9-1d25dfc227f7","countryCode":"KE","state":"a6c7d78f-eabe-4d1f-98d9-871f1f53ce11","stateCode":"01","latitude":"0.49194000","longitude":"35.74303000"},{"id":"a00d2fca-748d-47e9-802d-82716ab87539","name":"Sotik","ru":"Sotik","country":"efb8df97-14a4-4ebb-bcf9-1d25dfc227f7","countryCode":"KE","state":"3e577b51-8f91-448e-8356-18663aa99699","stateCode":"02","latitude":"-0.69069000","longitude":"35.11102000"},{"id":"e84bb746-a8a4-4654-ae6c-a1ce084cefe5","name":"Sotik Post","ru":"Sotik Post","country":"efb8df97-14a4-4ebb-bcf9-1d25dfc227f7","countryCode":"KE","state":"3e577b51-8f91-448e-8356-18663aa99699","stateCode":"02","latitude":"-0.78129000","longitude":"35.34156000"},{"id":"5f95f121-7917-4403-915a-35ccf6ff8e96","name":"Bungoma","ru":"Bungoma","country":"efb8df97-14a4-4ebb-bcf9-1d25dfc227f7","countryCode":"KE","state":"54abf063-28ed-411c-b006-367968fc2b30","stateCode":"03","latitude":"0.56350000","longitude":"34.56055000"},{"id":"a7c03a0a-9b58-4a7e-91bd-0f527375d753","name":"Malikisi","ru":"Malikisi","country":"efb8df97-14a4-4ebb-bcf9-1d25dfc227f7","countryCode":"KE","state":"54abf063-28ed-411c-b006-367968fc2b30","stateCode":"03","latitude":"0.67694000","longitude":"34.42167000"},{"id":"7ac9b1f8-8778-48b3-a8cb-628a2ac7079b","name":"Webuye","ru":"Webuye","country":"efb8df97-14a4-4ebb-bcf9-1d25dfc227f7","countryCode":"KE","state":"54abf063-28ed-411c-b006-367968fc2b30","stateCode":"03","latitude":"0.60040000","longitude":"34.77119000"},{"id":"e402f322-e0c9-449f-9050-6fe7726265ed","name":"Busia","ru":"Busia","country":"efb8df97-14a4-4ebb-bcf9-1d25dfc227f7","countryCode":"KE","state":"13a0bdeb-8b2b-4052-83a1-ec59a6b28523","stateCode":"04","latitude":"0.46005000","longitude":"34.11169000"},{"id":"2f940a4d-68a3-4351-9849-5838cf771760","name":"Luanda","ru":"Luanda","country":"efb8df97-14a4-4ebb-bcf9-1d25dfc227f7","countryCode":"KE","state":"13a0bdeb-8b2b-4052-83a1-ec59a6b28523","stateCode":"04","latitude":"0.31354000","longitude":"34.07146000"},{"id":"db3f4931-7a97-4128-82a7-2ffaad5c43f2","name":"Lugulu","ru":"Lugulu","country":"efb8df97-14a4-4ebb-bcf9-1d25dfc227f7","countryCode":"KE","state":"13a0bdeb-8b2b-4052-83a1-ec59a6b28523","stateCode":"04","latitude":"0.39337000","longitude":"34.30399000"},{"id":"d4b72482-d202-4e85-aa66-3ab899b89b2b","name":"Malaba","ru":"Malaba","country":"efb8df97-14a4-4ebb-bcf9-1d25dfc227f7","countryCode":"KE","state":"13a0bdeb-8b2b-4052-83a1-ec59a6b28523","stateCode":"04","latitude":"0.63513000","longitude":"34.28165000"},{"id":"c55ceaae-6287-4ff5-a30b-30a6be54ef6e","name":"Nambare","ru":"Nambare","country":"efb8df97-14a4-4ebb-bcf9-1d25dfc227f7","countryCode":"KE","state":"13a0bdeb-8b2b-4052-83a1-ec59a6b28523","stateCode":"04","latitude":"0.45813000","longitude":"34.25353000"},{"id":"e2ada096-4b90-49e1-ac54-ad73a41341eb","name":"Port Victoria","ru":"Port Victoria","country":"efb8df97-14a4-4ebb-bcf9-1d25dfc227f7","countryCode":"KE","state":"13a0bdeb-8b2b-4052-83a1-ec59a6b28523","stateCode":"04","latitude":"0.09809000","longitude":"33.97248000"},{"id":"8920c4e6-03b8-4a9f-98ff-cbce5124f4da","name":"Embu","ru":"Embu","country":"efb8df97-14a4-4ebb-bcf9-1d25dfc227f7","countryCode":"KE","state":"0d5e21db-0ace-44d9-90b4-974e2f02d218","stateCode":"06","latitude":"-0.53987000","longitude":"37.45743000"},{"id":"6414f0eb-948a-4aea-a8a9-815cc79ba0a8","name":"Garissa","ru":"Garissa","country":"efb8df97-14a4-4ebb-bcf9-1d25dfc227f7","countryCode":"KE","state":"bfa56817-642d-4856-b22f-c7e5424626e5","stateCode":"07","latitude":"-0.45275000","longitude":"39.64601000"},{"id":"544ef655-d501-4e66-967b-4705ebb3e1cb","name":"Homa Bay","ru":"Homa Bay","country":"efb8df97-14a4-4ebb-bcf9-1d25dfc227f7","countryCode":"KE","state":"1e757cc7-21a1-4e90-b65a-66c01a3a2664","stateCode":"08","latitude":"-0.52731000","longitude":"34.45714000"},{"id":"d88f5443-9fd6-4065-aeb2-e409d05e3a94","name":"Oyugis","ru":"Oyugis","country":"efb8df97-14a4-4ebb-bcf9-1d25dfc227f7","countryCode":"KE","state":"1e757cc7-21a1-4e90-b65a-66c01a3a2664","stateCode":"08","latitude":"-0.50974000","longitude":"34.73067000"},{"id":"e16b4ebe-aefc-45a9-9b9e-923cd91f3e81","name":"Rachuonyo District","ru":"Rachuonyo District","country":"efb8df97-14a4-4ebb-bcf9-1d25dfc227f7","countryCode":"KE","state":"1e757cc7-21a1-4e90-b65a-66c01a3a2664","stateCode":"08","latitude":"-0.44000000","longitude":"34.73900000"},{"id":"6f550201-0065-4315-9b0a-bc3d3e7b2b85","name":"Isiolo","ru":"Isiolo","country":"efb8df97-14a4-4ebb-bcf9-1d25dfc227f7","countryCode":"KE","state":"33a3f518-0a45-4b5a-83d5-9a40a810693e","stateCode":"09","latitude":"0.35462000","longitude":"37.58218000"},{"id":"e19e34a2-f9d3-46c3-be93-2750eac5de88","name":"Kajiado","ru":"Kajiado","country":"efb8df97-14a4-4ebb-bcf9-1d25dfc227f7","countryCode":"KE","state":"3b9484a3-76ba-491c-a7f9-2f708b3903a3","stateCode":"10","latitude":"-1.85238000","longitude":"36.77683000"},{"id":"fa1e95a2-bf82-4381-8ac8-66ac57231e1d","name":"Magadi","ru":"Magadi","country":"efb8df97-14a4-4ebb-bcf9-1d25dfc227f7","countryCode":"KE","state":"3b9484a3-76ba-491c-a7f9-2f708b3903a3","stateCode":"10","latitude":"-1.90122000","longitude":"36.28700000"},{"id":"d89b96be-8f5e-4cd0-bdd0-a0e5e59034a2","name":"Ngong","ru":"Ngong","country":"efb8df97-14a4-4ebb-bcf9-1d25dfc227f7","countryCode":"KE","state":"3b9484a3-76ba-491c-a7f9-2f708b3903a3","stateCode":"10","latitude":"-1.35270000","longitude":"36.66990000"},{"id":"ab43cac9-6af1-44cf-9638-600d8009c618","name":"Butere","ru":"Butere","country":"efb8df97-14a4-4ebb-bcf9-1d25dfc227f7","countryCode":"KE","state":"f23c8dfd-8a8f-4084-bde1-022eae47c006","stateCode":"11","latitude":"0.20694000","longitude":"34.49006000"},{"id":"2ae35a8b-2b41-4eab-b48c-dac5131ba0cf","name":"Kakamega","ru":"Kakamega","country":"efb8df97-14a4-4ebb-bcf9-1d25dfc227f7","countryCode":"KE","state":"f23c8dfd-8a8f-4084-bde1-022eae47c006","stateCode":"11","latitude":"0.28422000","longitude":"34.75229000"},{"id":"1b92da80-52c9-4765-9786-fb0b78e04687","name":"Mumias","ru":"Mumias","country":"efb8df97-14a4-4ebb-bcf9-1d25dfc227f7","countryCode":"KE","state":"f23c8dfd-8a8f-4084-bde1-022eae47c006","stateCode":"11","latitude":"0.33474000","longitude":"34.48796000"},{"id":"e9298fcd-cedc-4e58-971d-a68b977d3fee","name":"Kericho","ru":"Kericho","country":"efb8df97-14a4-4ebb-bcf9-1d25dfc227f7","countryCode":"KE","state":"a8938a7b-609c-43c9-b8ef-d66629a69687","stateCode":"12","latitude":"-0.36774000","longitude":"35.28314000"},{"id":"d68e17a9-5114-4173-bc4f-5df0cc0ce880","name":"Kipkelion","ru":"Kipkelion","country":"efb8df97-14a4-4ebb-bcf9-1d25dfc227f7","countryCode":"KE","state":"a8938a7b-609c-43c9-b8ef-d66629a69687","stateCode":"12","latitude":"-0.19982000","longitude":"35.46735000"},{"id":"af610e92-fe06-4dca-9c67-4e78c6317173","name":"Litein","ru":"Litein","country":"efb8df97-14a4-4ebb-bcf9-1d25dfc227f7","countryCode":"KE","state":"a8938a7b-609c-43c9-b8ef-d66629a69687","stateCode":"12","latitude":"-0.58249000","longitude":"35.18969000"},{"id":"643bf587-3712-45e7-adee-407dc853de55","name":"Londiani","ru":"Londiani","country":"efb8df97-14a4-4ebb-bcf9-1d25dfc227f7","countryCode":"KE","state":"a8938a7b-609c-43c9-b8ef-d66629a69687","stateCode":"12","latitude":"-0.16552000","longitude":"35.59359000"},{"id":"477884fe-c2b2-4143-ae7d-6aceda59973d","name":"Kiambu","ru":"Kiambu","country":"efb8df97-14a4-4ebb-bcf9-1d25dfc227f7","countryCode":"KE","state":"440a4243-9f29-4033-a3cd-4e23ef9f31a3","stateCode":"13","latitude":"-1.17139000","longitude":"36.83556000"},{"id":"8ccc2871-5769-4f8f-9a84-9b000c232821","name":"Kikuyu","ru":"Kikuyu","country":"efb8df97-14a4-4ebb-bcf9-1d25dfc227f7","countryCode":"KE","state":"440a4243-9f29-4033-a3cd-4e23ef9f31a3","stateCode":"13","latitude":"-1.24627000","longitude":"36.66291000"},{"id":"b90ff86c-c8de-4115-b3de-0f8011ed203f","name":"Limuru","ru":"Limuru","country":"efb8df97-14a4-4ebb-bcf9-1d25dfc227f7","countryCode":"KE","state":"440a4243-9f29-4033-a3cd-4e23ef9f31a3","stateCode":"13","latitude":"-1.11360000","longitude":"36.64205000"},{"id":"2d4e7bed-7d4e-4c77-b315-ffbc69dc7b5a","name":"Iten","ru":"Iten","country":"efb8df97-14a4-4ebb-bcf9-1d25dfc227f7","countryCode":"KE","state":"9a813400-834d-4863-8bef-8fd43e3419c7","stateCode":"14","latitude":"0.67028000","longitude":"35.50806000"},{"id":"b088ecde-55c9-4ad5-90e2-1e52d51589dd","name":"Kapsowar","ru":"Kapsowar","country":"efb8df97-14a4-4ebb-bcf9-1d25dfc227f7","countryCode":"KE","state":"9a813400-834d-4863-8bef-8fd43e3419c7","stateCode":"14","latitude":"0.97890000","longitude":"35.55854000"},{"id":"4e1fae12-404d-41c2-813c-e6800f578db8","name":"Kilifi","ru":"Kilifi","country":"efb8df97-14a4-4ebb-bcf9-1d25dfc227f7","countryCode":"KE","state":"9a813400-834d-4863-8bef-8fd43e3419c7","stateCode":"14","latitude":"-3.63045000","longitude":"39.84992000"},{"id":"f0b9527e-d22d-4edc-9f58-c68cedf1f04f","name":"Malindi","ru":"Malindi","country":"efb8df97-14a4-4ebb-bcf9-1d25dfc227f7","countryCode":"KE","state":"9a813400-834d-4863-8bef-8fd43e3419c7","stateCode":"14","latitude":"-3.21799000","longitude":"40.11692000"},{"id":"ffa6966a-581c-462c-a442-240c92916c91","name":"Mariakani","ru":"Mariakani","country":"efb8df97-14a4-4ebb-bcf9-1d25dfc227f7","countryCode":"KE","state":"9a813400-834d-4863-8bef-8fd43e3419c7","stateCode":"14","latitude":"-3.86261000","longitude":"39.47458000"},{"id":"232e6b24-ad36-497c-8eda-68a61dfc87fa","name":"Takaungu","ru":"Takaungu","country":"efb8df97-14a4-4ebb-bcf9-1d25dfc227f7","countryCode":"KE","state":"9a813400-834d-4863-8bef-8fd43e3419c7","stateCode":"14","latitude":"-3.68350000","longitude":"39.85687000"},{"id":"01edb3d2-1a9e-42bf-b53f-cafc6013d146","name":"Kerugoya","ru":"Kerugoya","country":"efb8df97-14a4-4ebb-bcf9-1d25dfc227f7","countryCode":"KE","state":"12658e38-b7b1-451c-a98d-872802ad5d75","stateCode":"15","latitude":"-0.49887000","longitude":"37.28031000"},{"id":"9b568c49-881f-4b11-b8ee-54b5e5f154b7","name":"Sagana","ru":"Sagana","country":"efb8df97-14a4-4ebb-bcf9-1d25dfc227f7","countryCode":"KE","state":"12658e38-b7b1-451c-a98d-872802ad5d75","stateCode":"15","latitude":"-0.66806000","longitude":"37.20875000"},{"id":"3ac78a48-b8ad-4319-8f44-d107df4fbaa8","name":"Kisii","ru":"Kisii","country":"efb8df97-14a4-4ebb-bcf9-1d25dfc227f7","countryCode":"KE","state":"171fbb80-db0e-4b98-ac3e-0fe09ed5c88a","stateCode":"16","latitude":"-0.68174000","longitude":"34.76666000"},{"id":"c9188ebe-236d-4f95-8172-17dd158177b8","name":"Ogembo","ru":"Ogembo","country":"efb8df97-14a4-4ebb-bcf9-1d25dfc227f7","countryCode":"KE","state":"171fbb80-db0e-4b98-ac3e-0fe09ed5c88a","stateCode":"16","latitude":"-0.80116000","longitude":"34.72579000"},{"id":"841fe017-ecc3-4f56-b1f6-8d0fcc9cc053","name":"Ahero","ru":"Ahero","country":"efb8df97-14a4-4ebb-bcf9-1d25dfc227f7","countryCode":"KE","state":"56b878ea-b435-4ac5-aeb7-d32922831e20","stateCode":"17","latitude":"-0.17359000","longitude":"34.91890000"},{"id":"aae20323-6ca8-4985-a4d5-73055d6d5bb1","name":"Kisumu","ru":"Kisumu","country":"efb8df97-14a4-4ebb-bcf9-1d25dfc227f7","countryCode":"KE","state":"56b878ea-b435-4ac5-aeb7-d32922831e20","stateCode":"17","latitude":"-0.10221000","longitude":"34.76171000"},{"id":"af9cef9a-b457-4cad-b6c3-bce57d4a14da","name":"Muhoroni","ru":"Muhoroni","country":"efb8df97-14a4-4ebb-bcf9-1d25dfc227f7","countryCode":"KE","state":"56b878ea-b435-4ac5-aeb7-d32922831e20","stateCode":"17","latitude":"-0.15816000","longitude":"35.19645000"},{"id":"fd14112a-9e42-46ca-a93a-9302bfc54676","name":"Kitui","ru":"Kitui","country":"efb8df97-14a4-4ebb-bcf9-1d25dfc227f7","countryCode":"KE","state":"4ea68a8b-08ab-4bb3-828c-67147c2e992b","stateCode":"18","latitude":"-1.36696000","longitude":"38.01055000"},{"id":"0af5a79a-6b5c-48fc-bda5-b06afd7cdd7d","name":"Mwingi","ru":"Mwingi","country":"efb8df97-14a4-4ebb-bcf9-1d25dfc227f7","countryCode":"KE","state":"4ea68a8b-08ab-4bb3-828c-67147c2e992b","stateCode":"18","latitude":"-0.93605000","longitude":"38.05955000"},{"id":"4ae777a5-d53d-4bb0-abc7-7847855e8295","name":"Gazi","ru":"Gazi","country":"efb8df97-14a4-4ebb-bcf9-1d25dfc227f7","countryCode":"KE","state":"ba4a6155-e8c5-4104-9c46-b785ada3a688","stateCode":"19","latitude":"-4.42402000","longitude":"39.50588000"},{"id":"24a68496-0e43-4990-a28f-a849049d9c83","name":"Kinango","ru":"Kinango","country":"efb8df97-14a4-4ebb-bcf9-1d25dfc227f7","countryCode":"KE","state":"ba4a6155-e8c5-4104-9c46-b785ada3a688","stateCode":"19","latitude":"-4.13723000","longitude":"39.31528000"},{"id":"c4160c74-9f13-4205-92dd-f9baa24bd501","name":"Kwale","ru":"Kwale","country":"efb8df97-14a4-4ebb-bcf9-1d25dfc227f7","countryCode":"KE","state":"ba4a6155-e8c5-4104-9c46-b785ada3a688","stateCode":"19","latitude":"-4.17375000","longitude":"39.45206000"},{"id":"da10571b-5499-499a-882c-c9ccb7124505","name":"Sawa Sawa","ru":"Sawa Sawa","country":"efb8df97-14a4-4ebb-bcf9-1d25dfc227f7","countryCode":"KE","state":"ba4a6155-e8c5-4104-9c46-b785ada3a688","stateCode":"19","latitude":"-4.47166000","longitude":"39.48463000"},{"id":"2e1cad2f-c6b6-4a51-87a6-e1e01d143d7f","name":"Shimoni","ru":"Shimoni","country":"efb8df97-14a4-4ebb-bcf9-1d25dfc227f7","countryCode":"KE","state":"ba4a6155-e8c5-4104-9c46-b785ada3a688","stateCode":"19","latitude":"-4.64756000","longitude":"39.38175000"},{"id":"36135ae8-ff06-4d9e-8b65-38b42b0a992e","name":"Nanyuki","ru":"Nanyuki","country":"efb8df97-14a4-4ebb-bcf9-1d25dfc227f7","countryCode":"KE","state":"81808d7e-923a-4fb0-be4d-fafb81410c91","stateCode":"20","latitude":"0.00624000","longitude":"37.07398000"},{"id":"cf076ec2-9b13-48d6-a514-8e49a0342a62","name":"Nyahururu","ru":"Nyahururu","country":"efb8df97-14a4-4ebb-bcf9-1d25dfc227f7","countryCode":"KE","state":"81808d7e-923a-4fb0-be4d-fafb81410c91","stateCode":"20","latitude":"0.03813000","longitude":"36.36339000"},{"id":"df69b875-3985-4cc2-a450-474edfb5c602","name":"Rumuruti","ru":"Rumuruti","country":"efb8df97-14a4-4ebb-bcf9-1d25dfc227f7","countryCode":"KE","state":"81808d7e-923a-4fb0-be4d-fafb81410c91","stateCode":"20","latitude":"0.27250000","longitude":"36.53806000"},{"id":"54de7a24-2817-4f79-9096-428bfde78f3a","name":"Lamu","ru":"Lamu","country":"efb8df97-14a4-4ebb-bcf9-1d25dfc227f7","countryCode":"KE","state":"ea3c47d5-0062-416f-86b3-23334a039d5a","stateCode":"21","latitude":"-2.27169000","longitude":"40.90201000"},{"id":"3d485a36-f71c-4cf2-a168-ceab8bac0aec","name":"Witu","ru":"Witu","country":"efb8df97-14a4-4ebb-bcf9-1d25dfc227f7","countryCode":"KE","state":"ea3c47d5-0062-416f-86b3-23334a039d5a","stateCode":"21","latitude":"-2.38892000","longitude":"40.43827000"},{"id":"97604084-e6ea-4ad0-b8f3-4a34cb4306e7","name":"Athi River","ru":"Athi River","country":"efb8df97-14a4-4ebb-bcf9-1d25dfc227f7","countryCode":"KE","state":"fea85eae-e951-4670-b242-c8507399108f","stateCode":"22","latitude":"-1.45630000","longitude":"36.97826000"},{"id":"2b019fae-8da4-487b-a912-88e8edff3029","name":"Kangundo","ru":"Kangundo","country":"efb8df97-14a4-4ebb-bcf9-1d25dfc227f7","countryCode":"KE","state":"fea85eae-e951-4670-b242-c8507399108f","stateCode":"22","latitude":"-1.30342000","longitude":"37.34813000"},{"id":"da58010e-3e17-4789-8f9e-21d4bd824c94","name":"Konza","ru":"Konza","country":"efb8df97-14a4-4ebb-bcf9-1d25dfc227f7","countryCode":"KE","state":"fea85eae-e951-4670-b242-c8507399108f","stateCode":"22","latitude":"-1.73947000","longitude":"37.13195000"},{"id":"b4c7f419-053b-432b-8872-1079e67f3dad","name":"Machakos","ru":"Machakos","country":"efb8df97-14a4-4ebb-bcf9-1d25dfc227f7","countryCode":"KE","state":"fea85eae-e951-4670-b242-c8507399108f","stateCode":"22","latitude":"-1.52233000","longitude":"37.26521000"},{"id":"4e1deb76-d519-4eba-88e0-53fb34e2514c","name":"Makueni Boma","ru":"Makueni Boma","country":"efb8df97-14a4-4ebb-bcf9-1d25dfc227f7","countryCode":"KE","state":"5de300ee-a34e-4a70-b7a8-4ba9b905416a","stateCode":"23","latitude":"-1.80388000","longitude":"37.62405000"},{"id":"1d6ff35c-268c-4dec-8674-aab89bffffd8","name":"Mtito Andei","ru":"Mtito Andei","country":"efb8df97-14a4-4ebb-bcf9-1d25dfc227f7","countryCode":"KE","state":"5de300ee-a34e-4a70-b7a8-4ba9b905416a","stateCode":"23","latitude":"-2.68987000","longitude":"38.16687000"},{"id":"6e1e983f-bfa8-4774-b6c0-120d8a1eb34b","name":"Wote","ru":"Wote","country":"efb8df97-14a4-4ebb-bcf9-1d25dfc227f7","countryCode":"KE","state":"5de300ee-a34e-4a70-b7a8-4ba9b905416a","stateCode":"23","latitude":"-1.78079000","longitude":"37.62882000"},{"id":"d986ecf2-ac5c-447a-9bcb-b20a08115be0","name":"Mandera","ru":"Mandera","country":"efb8df97-14a4-4ebb-bcf9-1d25dfc227f7","countryCode":"KE","state":"8e22c91a-5d31-4a2a-a798-e81619e1e217","stateCode":"24","latitude":"3.93726000","longitude":"41.85688000"},{"id":"9e27dd42-2516-48a1-844a-e7ff17ea2ae8","name":"Marsabit","ru":"Marsabit","country":"efb8df97-14a4-4ebb-bcf9-1d25dfc227f7","countryCode":"KE","state":"f2c97a66-37de-4cd7-936c-bfb185f3b490","stateCode":"25","latitude":"2.33468000","longitude":"37.99086000"},{"id":"e2888744-4acf-48a1-8e03-10bfc9c76f5f","name":"Moyale","ru":"Moyale","country":"efb8df97-14a4-4ebb-bcf9-1d25dfc227f7","countryCode":"KE","state":"f2c97a66-37de-4cd7-936c-bfb185f3b490","stateCode":"25","latitude":"3.52661000","longitude":"39.05610000"},{"id":"a3d96a8e-20ce-468d-b227-63db2a8d5a3f","name":"Maua","ru":"Maua","country":"efb8df97-14a4-4ebb-bcf9-1d25dfc227f7","countryCode":"KE","state":"d24b3386-17ed-4d49-9f0d-77d6dff45350","stateCode":"26","latitude":"0.23320000","longitude":"37.94086000"},{"id":"58b66ee5-aacd-4607-81f8-9e2aea99599d","name":"Meru","ru":"Meru","country":"efb8df97-14a4-4ebb-bcf9-1d25dfc227f7","countryCode":"KE","state":"d24b3386-17ed-4d49-9f0d-77d6dff45350","stateCode":"26","latitude":"0.04626000","longitude":"37.65587000"},{"id":"186f9aa7-305f-40ab-b6af-41b437cc1b0f","name":"Kihancha","ru":"Kihancha","country":"efb8df97-14a4-4ebb-bcf9-1d25dfc227f7","countryCode":"KE","state":"8738ae78-a7c9-4b69-8609-7b23913a46d5","stateCode":"27","latitude":"-1.19347000","longitude":"34.61967000"},{"id":"760718bf-fa12-4d1c-a65d-4ac21ac45584","name":"Migori","ru":"Migori","country":"efb8df97-14a4-4ebb-bcf9-1d25dfc227f7","countryCode":"KE","state":"8738ae78-a7c9-4b69-8609-7b23913a46d5","stateCode":"27","latitude":"-1.06343000","longitude":"34.47313000"},{"id":"b1075ac4-2d0c-4d9e-91e8-683ed64cc83e","name":"Mombasa","ru":"Mombasa","country":"efb8df97-14a4-4ebb-bcf9-1d25dfc227f7","countryCode":"KE","state":"f4b7bec2-ad1f-412c-aa50-3ea75d6b129f","stateCode":"28","latitude":"-4.05466000","longitude":"39.66359000"},{"id":"d530e09a-7a7a-4b5e-a345-5bc326c190ba","name":"Kangema","ru":"Kangema","country":"efb8df97-14a4-4ebb-bcf9-1d25dfc227f7","countryCode":"KE","state":"a3679dc8-f5da-4abd-90f0-5cad9f2e63aa","stateCode":"29","latitude":"-0.68553000","longitude":"36.96463000"},{"id":"a5b4e6a7-dd74-440a-9144-ebed8a22af86","name":"Karuri","ru":"Karuri","country":"efb8df97-14a4-4ebb-bcf9-1d25dfc227f7","countryCode":"KE","state":"a3679dc8-f5da-4abd-90f0-5cad9f2e63aa","stateCode":"29","latitude":"-0.70000000","longitude":"37.18333000"},{"id":"31234001-1faa-4696-bc38-abeb679870ac","name":"Maragua","ru":"Maragua","country":"efb8df97-14a4-4ebb-bcf9-1d25dfc227f7","countryCode":"KE","state":"a3679dc8-f5da-4abd-90f0-5cad9f2e63aa","stateCode":"29","latitude":"-0.79602000","longitude":"37.13292000"},{"id":"3269f8d5-f120-4bda-8aa0-e0b946fef15d","name":"Murang’a","ru":"Murang’a","country":"efb8df97-14a4-4ebb-bcf9-1d25dfc227f7","countryCode":"KE","state":"a3679dc8-f5da-4abd-90f0-5cad9f2e63aa","stateCode":"29","latitude":"-0.72104000","longitude":"37.15259000"},{"id":"c7ecd005-cbac-4c83-9293-b610c3f38c17","name":"Nairobi","ru":"Nairobi","country":"efb8df97-14a4-4ebb-bcf9-1d25dfc227f7","countryCode":"KE","state":"b80c48f4-262b-4c9f-9748-06b7dee13dbb","stateCode":"110","latitude":"-1.28333000","longitude":"36.81667000"},{"id":"523c84b8-2bd1-4fe0-bb43-95df62b99f44","name":"Pumwani","ru":"Pumwani","country":"efb8df97-14a4-4ebb-bcf9-1d25dfc227f7","countryCode":"KE","state":"b80c48f4-262b-4c9f-9748-06b7dee13dbb","stateCode":"110","latitude":"-1.28333000","longitude":"36.85000000"},{"id":"80a877e6-79d9-4f44-aa2c-4f5a806aa81b","name":"Thika","ru":"Thika","country":"efb8df97-14a4-4ebb-bcf9-1d25dfc227f7","countryCode":"KE","state":"b80c48f4-262b-4c9f-9748-06b7dee13dbb","stateCode":"110","latitude":"-1.03326000","longitude":"37.06933000"},{"id":"688dbc07-4494-44fe-bca9-4c52a484a131","name":"Kijabe","ru":"Kijabe","country":"efb8df97-14a4-4ebb-bcf9-1d25dfc227f7","countryCode":"KE","state":"0417b3d6-76ce-4a0e-b54d-880c540f71e6","stateCode":"31","latitude":"-0.93334000","longitude":"36.57233000"},{"id":"a0f7256d-fc31-42b2-92b9-b48ffe6f493d","name":"Molo","ru":"Molo","country":"efb8df97-14a4-4ebb-bcf9-1d25dfc227f7","countryCode":"KE","state":"0417b3d6-76ce-4a0e-b54d-880c540f71e6","stateCode":"31","latitude":"-0.24849000","longitude":"35.73194000"},{"id":"fff96053-27e5-47f9-af83-746044672121","name":"Naivasha","ru":"Naivasha","country":"efb8df97-14a4-4ebb-bcf9-1d25dfc227f7","countryCode":"KE","state":"0417b3d6-76ce-4a0e-b54d-880c540f71e6","stateCode":"31","latitude":"-0.71383000","longitude":"36.43261000"},{"id":"cf07695c-4d97-4e40-ab18-dbbad60b201c","name":"Nakuru","ru":"Nakuru","country":"efb8df97-14a4-4ebb-bcf9-1d25dfc227f7","countryCode":"KE","state":"0417b3d6-76ce-4a0e-b54d-880c540f71e6","stateCode":"31","latitude":"-0.30719000","longitude":"36.07225000"},{"id":"14a21c46-7d96-4ef4-a8e9-3f0fd90e3916","name":"Rongai","ru":"Rongai","country":"efb8df97-14a4-4ebb-bcf9-1d25dfc227f7","countryCode":"KE","state":"0417b3d6-76ce-4a0e-b54d-880c540f71e6","stateCode":"31","latitude":"-0.17344000","longitude":"35.86313000"},{"id":"fa33e9b4-bfde-45c4-845b-5d274438f2ca","name":"Kapsabet","ru":"Kapsabet","country":"efb8df97-14a4-4ebb-bcf9-1d25dfc227f7","countryCode":"KE","state":"011ced54-ab7a-45b5-b8fe-c612abfe3bec","stateCode":"32","latitude":"0.20387000","longitude":"35.10500000"},{"id":"4259f9d6-3570-43bc-81b9-9ec60bd24df5","name":"Nandi Hills","ru":"Nandi Hills","country":"efb8df97-14a4-4ebb-bcf9-1d25dfc227f7","countryCode":"KE","state":"011ced54-ab7a-45b5-b8fe-c612abfe3bec","stateCode":"32","latitude":"0.10366000","longitude":"35.18426000"},{"id":"9051e862-0638-43f3-9427-f213a411ae2a","name":"Narok","ru":"Narok","country":"efb8df97-14a4-4ebb-bcf9-1d25dfc227f7","countryCode":"KE","state":"d2c6e365-7dd1-48f4-84ef-4b19d8dd875e","stateCode":"33","latitude":"-1.08083000","longitude":"35.87111000"},{"id":"991a36af-8993-45c9-88a9-3f1714f3e1d4","name":"Keroka","ru":"Keroka","country":"efb8df97-14a4-4ebb-bcf9-1d25dfc227f7","countryCode":"KE","state":"8b3f0276-6a3c-4049-8706-184edfe70ed4","stateCode":"34","latitude":"-0.77612000","longitude":"34.94678000"},{"id":"5536239b-39bf-4bba-baa6-6f1d9b3a2a0b","name":"Nyamira","ru":"Nyamira","country":"efb8df97-14a4-4ebb-bcf9-1d25dfc227f7","countryCode":"KE","state":"8b3f0276-6a3c-4049-8706-184edfe70ed4","stateCode":"34","latitude":"-0.56333000","longitude":"34.93583000"},{"id":"df6a1ac5-3d9b-4ba3-939e-578c1aba4569","name":"Ol Kalou","ru":"Ol Kalou","country":"efb8df97-14a4-4ebb-bcf9-1d25dfc227f7","countryCode":"KE","state":"4ac1285d-8cd1-4fd2-8b46-63c3da309375","stateCode":"35","latitude":"-0.27088000","longitude":"36.37917000"},{"id":"31d8dad6-1341-4ded-8552-8c18783a6b57","name":"Naro Moru","ru":"Naro Moru","country":"efb8df97-14a4-4ebb-bcf9-1d25dfc227f7","countryCode":"KE","state":"230f5d01-7858-47b8-a7d8-4e2ae394271e","stateCode":"36","latitude":"-0.16357000","longitude":"37.01773000"},{"id":"4147263d-f5b8-4977-bb52-3c3dc6ca86b6","name":"Nyeri","ru":"Nyeri","country":"efb8df97-14a4-4ebb-bcf9-1d25dfc227f7","countryCode":"KE","state":"230f5d01-7858-47b8-a7d8-4e2ae394271e","stateCode":"36","latitude":"-0.42013000","longitude":"36.94759000"},{"id":"8f7ed5ac-13f3-4855-9316-ae2f93e950fc","name":"Othaya","ru":"Othaya","country":"efb8df97-14a4-4ebb-bcf9-1d25dfc227f7","countryCode":"KE","state":"230f5d01-7858-47b8-a7d8-4e2ae394271e","stateCode":"36","latitude":"-0.54655000","longitude":"36.93178000"},{"id":"2d4cb522-4ab6-46c8-9016-782c8a93cbfd","name":"Maralal","ru":"Maralal","country":"efb8df97-14a4-4ebb-bcf9-1d25dfc227f7","countryCode":"KE","state":"40cba345-e924-4cb2-8082-a08900c6049f","stateCode":"37","latitude":"1.09667000","longitude":"36.69806000"},{"id":"3035cb4c-e30c-4395-9166-09d7db90bb29","name":"Bondo","ru":"Bondo","country":"efb8df97-14a4-4ebb-bcf9-1d25dfc227f7","countryCode":"KE","state":"10114cda-d9e2-42c1-b64b-dffe52a32532","stateCode":"38","latitude":"0.23522000","longitude":"34.28086000"},{"id":"31faccf7-7d91-4e3c-a1b6-387425eea5dd","name":"Siaya","ru":"Siaya","country":"efb8df97-14a4-4ebb-bcf9-1d25dfc227f7","countryCode":"KE","state":"10114cda-d9e2-42c1-b64b-dffe52a32532","stateCode":"38","latitude":"0.06070000","longitude":"34.28806000"},{"id":"b6002e97-4af8-4028-aaf0-226bddfa540d","name":"Yala","ru":"Yala","country":"efb8df97-14a4-4ebb-bcf9-1d25dfc227f7","countryCode":"KE","state":"10114cda-d9e2-42c1-b64b-dffe52a32532","stateCode":"38","latitude":"0.09438000","longitude":"34.53602000"},{"id":"06fa8309-0578-4cd2-a99c-5b7842938ac2","name":"Hola","ru":"Hola","country":"efb8df97-14a4-4ebb-bcf9-1d25dfc227f7","countryCode":"KE","state":"dda5961e-d190-4c65-8414-8298fd734c3c","stateCode":"40","latitude":"-1.48256000","longitude":"40.03341000"},{"id":"31567eec-c28d-4440-bac1-704fba92e8bc","name":"Kipini","ru":"Kipini","country":"efb8df97-14a4-4ebb-bcf9-1d25dfc227f7","countryCode":"KE","state":"dda5961e-d190-4c65-8414-8298fd734c3c","stateCode":"40","latitude":"-2.52565000","longitude":"40.52620000"},{"id":"319559de-6053-4b6b-bbb7-0c76aa063829","name":"Chuka","ru":"Chuka","country":"efb8df97-14a4-4ebb-bcf9-1d25dfc227f7","countryCode":"KE","state":"9feed1e7-b9d0-41ce-b39c-65937327afda","stateCode":"41","latitude":"-0.33316000","longitude":"37.64587000"},{"id":"4e12a194-b02b-4c6a-a4a9-99b8bab2b66b","name":"Kitale","ru":"Kitale","country":"efb8df97-14a4-4ebb-bcf9-1d25dfc227f7","countryCode":"KE","state":"a275747c-cb72-4b15-bb81-a6669cadb127","stateCode":"42","latitude":"1.01572000","longitude":"35.00622000"},{"id":"ec144389-b6b7-4bf3-ae69-dc683fe99607","name":"Lodwar","ru":"Lodwar","country":"efb8df97-14a4-4ebb-bcf9-1d25dfc227f7","countryCode":"KE","state":"def9f67d-08ad-4cc2-a094-c6fecf366142","stateCode":"43","latitude":"3.11988000","longitude":"35.59642000"},{"id":"60dfd6c5-b49f-4aa0-9873-031fe27a905e","name":"Eldoret","ru":"Eldoret","country":"efb8df97-14a4-4ebb-bcf9-1d25dfc227f7","countryCode":"KE","state":"2012b26a-f81b-42b2-99b6-d4888f62fecd","stateCode":"44","latitude":"0.52036000","longitude":"35.26993000"},{"id":"7c30b35b-f4ab-4f90-939c-4f1c14b65acd","name":"Wajir","ru":"Wajir","country":"efb8df97-14a4-4ebb-bcf9-1d25dfc227f7","countryCode":"KE","state":"f9045ad9-3993-4612-91e6-e88dfc30f81d","stateCode":"46","latitude":"1.74710000","longitude":"40.05732000"},{"id":"98758a28-bce6-4628-a3df-65ce9d34f8b6","name":"Chepareria","ru":"Chepareria","country":"efb8df97-14a4-4ebb-bcf9-1d25dfc227f7","countryCode":"KE","state":"cba47244-0f4d-4731-894c-3478f11e857d","stateCode":"47","latitude":"1.30583000","longitude":"35.20365000"},{"id":"4e24a580-fa3d-4c06-b9b4-d766a3a00cc1","name":"Kapenguria","ru":"Kapenguria","country":"efb8df97-14a4-4ebb-bcf9-1d25dfc227f7","countryCode":"KE","state":"cba47244-0f4d-4731-894c-3478f11e857d","stateCode":"47","latitude":"1.23889000","longitude":"35.11194000"},{"id":"34261d84-0be0-4960-adce-149eff771cdc","name":"Taveta","ru":"Taveta","country":"efb8df97-14a4-4ebb-bcf9-1d25dfc227f7","countryCode":"KE","state":"cba47244-0f4d-4731-894c-3478f11e857d","stateCode":"47","latitude":"-3.39879000","longitude":"37.68336000"},{"id":"2ade83bd-2254-43f4-83ab-f86a15eb1c61","name":"Voi","ru":"Voi","country":"efb8df97-14a4-4ebb-bcf9-1d25dfc227f7","countryCode":"KE","state":"cba47244-0f4d-4731-894c-3478f11e857d","stateCode":"47","latitude":"-3.39605000","longitude":"38.55609000"},{"id":"f802341f-91e5-44e7-81a5-c2cc15bff237","name":"Wundanyi","ru":"Wundanyi","country":"efb8df97-14a4-4ebb-bcf9-1d25dfc227f7","countryCode":"KE","state":"cba47244-0f4d-4731-894c-3478f11e857d","stateCode":"47","latitude":"-3.39642000","longitude":"38.35729000"}]