[
  {
    "id": "5cafd230-0f9e-4bb5-8a28-ba8b69293a7e",
    "name": "Aleysk",
    "ru": "Aleysk",
    "country": "e0dc83a1-8246-4a52-aa57-c9a7875befeb",
    "countryCode": "RU",
    "state": "00e5875c-996a-4dfb-af50-203ffd91339d",
    "stateCode": "ALT",
    "latitude": "52.49260000",
    "longitude": "82.78220000"
  },
  {
    "id": "e90ce241-7619-4054-8fde-3928a9a4b48d",
    "name": "Aleyskiy Rayon",
    "ru": "Aleyskiy Rayon",
    "country": "e0dc83a1-8246-4a52-aa57-c9a7875befeb",
    "countryCode": "RU",
    "state": "00e5875c-996a-4dfb-af50-203ffd91339d",
    "stateCode": "ALT",
    "latitude": "52.41667000",
    "longitude": "82.75000000"
  },
  {
    "id": "a5fc68ab-926a-4a00-99f1-5005a9263d95",
    "name": "Altayskoye",
    "ru": "Altayskoye",
    "country": "e0dc83a1-8246-4a52-aa57-c9a7875befeb",
    "countryCode": "RU",
    "state": "00e5875c-996a-4dfb-af50-203ffd91339d",
    "stateCode": "ALT",
    "latitude": "51.95333000",
    "longitude": "85.33250000"
  },
  {
    "id": "75e98540-de9e-4382-8071-ca2dc74cfc57",
    "name": "Anton’yevka",
    "ru": "Anton’yevka",
    "country": "e0dc83a1-8246-4a52-aa57-c9a7875befeb",
    "countryCode": "RU",
    "state": "00e5875c-996a-4dfb-af50-203ffd91339d",
    "stateCode": "ALT",
    "latitude": "51.99610000",
    "longitude": "83.97400000"
  },
  {
    "id": "41af6694-329c-407a-9876-cec4a17e1d68",
    "name": "Aya",
    "ru": "Aya",
    "country": "e0dc83a1-8246-4a52-aa57-c9a7875befeb",
    "countryCode": "RU",
    "state": "00e5875c-996a-4dfb-af50-203ffd91339d",
    "stateCode": "ALT",
    "latitude": "51.94532000",
    "longitude": "85.80168000"
  },
  {
    "id": "1059d730-2566-415c-8525-03180b6010a3",
    "name": "Barnaul",
    "ru": "Barnaul",
    "country": "e0dc83a1-8246-4a52-aa57-c9a7875befeb",
    "countryCode": "RU",
    "state": "00e5875c-996a-4dfb-af50-203ffd91339d",
    "stateCode": "ALT",
    "latitude": "53.36056000",
    "longitude": "83.76361000"
  },
  {
    "id": "7ee7272a-2c93-434e-8389-985100c277ed",
    "name": "Barnaul Urban Okrug",
    "ru": "Barnaul Urban Okrug",
    "country": "e0dc83a1-8246-4a52-aa57-c9a7875befeb",
    "countryCode": "RU",
    "state": "00e5875c-996a-4dfb-af50-203ffd91339d",
    "stateCode": "ALT",
    "latitude": "53.33087000",
    "longitude": "83.64441000"
  },
  {
    "id": "4bbaa646-9291-459b-8c51-3a1d3663ce5a",
    "name": "Bastan",
    "ru": "Bastan",
    "country": "e0dc83a1-8246-4a52-aa57-c9a7875befeb",
    "countryCode": "RU",
    "state": "00e5875c-996a-4dfb-af50-203ffd91339d",
    "stateCode": "ALT",
    "latitude": "51.85889000",
    "longitude": "79.47444000"
  },
  {
    "id": "44fe99a9-ad2b-4bd2-b21f-25197a2eee70",
    "name": "Bayevo",
    "ru": "Bayevo",
    "country": "e0dc83a1-8246-4a52-aa57-c9a7875befeb",
    "countryCode": "RU",
    "state": "00e5875c-996a-4dfb-af50-203ffd91339d",
    "stateCode": "ALT",
    "latitude": "53.27065000",
    "longitude": "80.77921000"
  },
  {
    "id": "bae2b48d-c544-474d-923b-661b303e134d",
    "name": "Bayunovskiye Klyuchi",
    "ru": "Bayunovskiye Klyuchi",
    "country": "e0dc83a1-8246-4a52-aa57-c9a7875befeb",
    "countryCode": "RU",
    "state": "00e5875c-996a-4dfb-af50-203ffd91339d",
    "stateCode": "ALT",
    "latitude": "53.32806000",
    "longitude": "84.18222000"
  },
  {
    "id": "fe03213e-8f43-4c5f-9f44-e65425ae6152",
    "name": "Belokurikha",
    "ru": "Belokurikha",
    "country": "e0dc83a1-8246-4a52-aa57-c9a7875befeb",
    "countryCode": "RU",
    "state": "00e5875c-996a-4dfb-af50-203ffd91339d",
    "stateCode": "ALT",
    "latitude": "51.99590000",
    "longitude": "84.98960000"
  },
  {
    "id": "179d053c-3064-48cc-a08c-5812b032afdc",
    "name": "Beloyarsk",
    "ru": "Beloyarsk",
    "country": "e0dc83a1-8246-4a52-aa57-c9a7875befeb",
    "countryCode": "RU",
    "state": "00e5875c-996a-4dfb-af50-203ffd91339d",
    "stateCode": "ALT",
    "latitude": "53.44610000",
    "longitude": "83.90480000"
  },
  {
    "id": "43201cd2-258a-47bb-80f6-a7763801d9da",
    "name": "Berëzovka",
    "ru": "Berëzovka",
    "country": "e0dc83a1-8246-4a52-aa57-c9a7875befeb",
    "countryCode": "RU",
    "state": "00e5875c-996a-4dfb-af50-203ffd91339d",
    "stateCode": "ALT",
    "latitude": "52.35111000",
    "longitude": "85.82722000"
  },
  {
    "id": "9c519292-387e-4036-883a-efc83d8af558",
    "name": "Biysk",
    "ru": "Biysk",
    "country": "e0dc83a1-8246-4a52-aa57-c9a7875befeb",
    "countryCode": "RU",
    "state": "00e5875c-996a-4dfb-af50-203ffd91339d",
    "stateCode": "ALT",
    "latitude": "52.53639000",
    "longitude": "85.20722000"
  },
  {
    "id": "8141afeb-0124-4c5c-bec8-908a47523934",
    "name": "Blagoveshchenka",
    "ru": "Blagoveshchenka",
    "country": "e0dc83a1-8246-4a52-aa57-c9a7875befeb",
    "countryCode": "RU",
    "state": "00e5875c-996a-4dfb-af50-203ffd91339d",
    "stateCode": "ALT",
    "latitude": "52.83333000",
    "longitude": "79.86667000"
  },
  {
    "id": "904f1e91-9fb6-408f-b311-a54a4dc8be9a",
    "name": "Bobrovka",
    "ru": "Bobrovka",
    "country": "e0dc83a1-8246-4a52-aa57-c9a7875befeb",
    "countryCode": "RU",
    "state": "00e5875c-996a-4dfb-af50-203ffd91339d",
    "stateCode": "ALT",
    "latitude": "53.18361000",
    "longitude": "83.87639000"
  },
  {
    "id": "d523c50a-6b17-4d43-9b9e-32839bae983e",
    "name": "Borovikha",
    "ru": "Borovikha",
    "country": "e0dc83a1-8246-4a52-aa57-c9a7875befeb",
    "countryCode": "RU",
    "state": "00e5875c-996a-4dfb-af50-203ffd91339d",
    "stateCode": "ALT",
    "latitude": "53.50720000",
    "longitude": "83.83790000"
  },
  {
    "id": "b15c698e-bb45-48a6-a3b3-73005a46565a",
    "name": "Burla",
    "ru": "Burla",
    "country": "e0dc83a1-8246-4a52-aa57-c9a7875befeb",
    "countryCode": "RU",
    "state": "00e5875c-996a-4dfb-af50-203ffd91339d",
    "stateCode": "ALT",
    "latitude": "53.33620000",
    "longitude": "78.33010000"
  },
  {
    "id": "390d126f-bc8e-404b-9ff7-dd4522dd5f36",
    "name": "Bystryanka",
    "ru": "Bystryanka",
    "country": "e0dc83a1-8246-4a52-aa57-c9a7875befeb",
    "countryCode": "RU",
    "state": "00e5875c-996a-4dfb-af50-203ffd91339d",
    "stateCode": "ALT",
    "latitude": "52.28611000",
    "longitude": "85.82833000"
  },
  {
    "id": "ff782136-7beb-452c-b4c2-d7b8020f4ff7",
    "name": "Bystryy Istok",
    "ru": "Bystryy Istok",
    "country": "e0dc83a1-8246-4a52-aa57-c9a7875befeb",
    "countryCode": "RU",
    "state": "00e5875c-996a-4dfb-af50-203ffd91339d",
    "stateCode": "ALT",
    "latitude": "52.37100000",
    "longitude": "84.38730000"
  },
  {
    "id": "e79224a8-5f02-4cdf-bfb9-cac42abccb9a",
    "name": "Charyshskoye",
    "ru": "Charyshskoye",
    "country": "e0dc83a1-8246-4a52-aa57-c9a7875befeb",
    "countryCode": "RU",
    "state": "00e5875c-996a-4dfb-af50-203ffd91339d",
    "stateCode": "ALT",
    "latitude": "51.39780000",
    "longitude": "83.55980000"
  },
  {
    "id": "ae69965a-3261-4be1-b9d5-67ef0566a164",
    "name": "Cheremnoye",
    "ru": "Cheremnoye",
    "country": "e0dc83a1-8246-4a52-aa57-c9a7875befeb",
    "countryCode": "RU",
    "state": "00e5875c-996a-4dfb-af50-203ffd91339d",
    "stateCode": "ALT",
    "latitude": "53.16972000",
    "longitude": "83.21333000"
  },
  {
    "id": "177357e8-4c43-4ba2-a21f-c496b5702601",
    "name": "Gal’bshtadt",
    "ru": "Gal’bshtadt",
    "country": "e0dc83a1-8246-4a52-aa57-c9a7875befeb",
    "countryCode": "RU",
    "state": "00e5875c-996a-4dfb-af50-203ffd91339d",
    "stateCode": "ALT",
    "latitude": "53.22640000",
    "longitude": "78.98450000"
  },
  {
    "id": "a0c03710-5340-4150-a82c-8e020ae0c61a",
    "name": "Gon’ba",
    "ru": "Gon’ba",
    "country": "e0dc83a1-8246-4a52-aa57-c9a7875befeb",
    "countryCode": "RU",
    "state": "00e5875c-996a-4dfb-af50-203ffd91339d",
    "stateCode": "ALT",
    "latitude": "53.41720000",
    "longitude": "83.57470000"
  },
  {
    "id": "0302491f-8233-4b78-b624-718b34eee388",
    "name": "Gornyak",
    "ru": "Gornyak",
    "country": "e0dc83a1-8246-4a52-aa57-c9a7875befeb",
    "countryCode": "RU",
    "state": "00e5875c-996a-4dfb-af50-203ffd91339d",
    "stateCode": "ALT",
    "latitude": "50.99417000",
    "longitude": "81.46611000"
  },
  {
    "id": "87633adc-9d79-4d6d-8962-88c1bb93ccb1",
    "name": "Grishkovka",
    "ru": "Grishkovka",
    "country": "e0dc83a1-8246-4a52-aa57-c9a7875befeb",
    "countryCode": "RU",
    "state": "00e5875c-996a-4dfb-af50-203ffd91339d",
    "stateCode": "ALT",
    "latitude": "53.14870000",
    "longitude": "78.75100000"
  },
  {
    "id": "69e554e5-1f6b-4753-8e23-431ccb5ca029",
    "name": "Inya",
    "ru": "Inya",
    "country": "e0dc83a1-8246-4a52-aa57-c9a7875befeb",
    "countryCode": "RU",
    "state": "00e5875c-996a-4dfb-af50-203ffd91339d",
    "stateCode": "ALT",
    "latitude": "53.50440000",
    "longitude": "82.67120000"
  },
  {
    "id": "3c178815-35c9-415c-8e88-66bb45698571",
    "name": "Kalmanka",
    "ru": "Kalmanka",
    "country": "e0dc83a1-8246-4a52-aa57-c9a7875befeb",
    "countryCode": "RU",
    "state": "00e5875c-996a-4dfb-af50-203ffd91339d",
    "stateCode": "ALT",
    "latitude": "52.89917000",
    "longitude": "83.54333000"
  },
  {
    "id": "a7aa9f6f-ebe8-49cf-92fd-185c04eaf444",
    "name": "Kalmanskiy Rayon",
    "ru": "Kalmanskiy Rayon",
    "country": "e0dc83a1-8246-4a52-aa57-c9a7875befeb",
    "countryCode": "RU",
    "state": "00e5875c-996a-4dfb-af50-203ffd91339d",
    "stateCode": "ALT",
    "latitude": "53.00000000",
    "longitude": "83.50000000"
  },
  {
    "id": "b7f4af9a-04f3-471a-84b6-2004def04ce8",
    "name": "Kamen’-na-Obi",
    "ru": "Kamen’-na-Obi",
    "country": "e0dc83a1-8246-4a52-aa57-c9a7875befeb",
    "countryCode": "RU",
    "state": "00e5875c-996a-4dfb-af50-203ffd91339d",
    "stateCode": "ALT",
    "latitude": "53.78840000",
    "longitude": "81.34230000"
  },
  {
    "id": "7255cfa8-5544-4ba8-9a38-97c0f68477a0",
    "name": "Khabarskiy Rayon",
    "ru": "Khabarskiy Rayon",
    "country": "e0dc83a1-8246-4a52-aa57-c9a7875befeb",
    "countryCode": "RU",
    "state": "00e5875c-996a-4dfb-af50-203ffd91339d",
    "stateCode": "ALT",
    "latitude": "53.58333000",
    "longitude": "79.50000000"
  },
  {
    "id": "500348a9-e240-4df1-88ab-c34780173c27",
    "name": "Khabary",
    "ru": "Khabary",
    "country": "e0dc83a1-8246-4a52-aa57-c9a7875befeb",
    "countryCode": "RU",
    "state": "00e5875c-996a-4dfb-af50-203ffd91339d",
    "stateCode": "ALT",
    "latitude": "53.62588000",
    "longitude": "79.53450000"
  },
  {
    "id": "cdd31b16-8bb2-4271-9fe7-91fa1ae59c80",
    "name": "Klyuchi",
    "ru": "Klyuchi",
    "country": "e0dc83a1-8246-4a52-aa57-c9a7875befeb",
    "countryCode": "RU",
    "state": "00e5875c-996a-4dfb-af50-203ffd91339d",
    "stateCode": "ALT",
    "latitude": "52.25303000",
    "longitude": "79.16868000"
  },
  {
    "id": "d5111913-4b56-44cd-a3c9-7ce660864737",
    "name": "Kosikha",
    "ru": "Kosikha",
    "country": "e0dc83a1-8246-4a52-aa57-c9a7875befeb",
    "countryCode": "RU",
    "state": "00e5875c-996a-4dfb-af50-203ffd91339d",
    "stateCode": "ALT",
    "latitude": "53.36167000",
    "longitude": "84.58222000"
  },
  {
    "id": "87f94461-5cbb-4b49-ae01-c813ead7e712",
    "name": "Kosikhinskiy Rayon",
    "ru": "Kosikhinskiy Rayon",
    "country": "e0dc83a1-8246-4a52-aa57-c9a7875befeb",
    "countryCode": "RU",
    "state": "00e5875c-996a-4dfb-af50-203ffd91339d",
    "stateCode": "ALT",
    "latitude": "53.41667000",
    "longitude": "84.58333000"
  },
  {
    "id": "1c5fb104-a2f0-4f49-881d-717de042cbec",
    "name": "Krasnogorskoye",
    "ru": "Krasnogorskoye",
    "country": "e0dc83a1-8246-4a52-aa57-c9a7875befeb",
    "countryCode": "RU",
    "state": "00e5875c-996a-4dfb-af50-203ffd91339d",
    "stateCode": "ALT",
    "latitude": "52.29530000",
    "longitude": "86.19790000"
  },
  {
    "id": "fb4ca254-ea51-47c5-b974-6c0bc2247cea",
    "name": "Krasnoshchekovo",
    "ru": "Krasnoshchekovo",
    "country": "e0dc83a1-8246-4a52-aa57-c9a7875befeb",
    "countryCode": "RU",
    "state": "00e5875c-996a-4dfb-af50-203ffd91339d",
    "stateCode": "ALT",
    "latitude": "51.67083000",
    "longitude": "82.72889000"
  },
  {
    "id": "84597a08-bf3e-4a5a-b0cb-9c360b95cdf9",
    "name": "Krasnyy Yar",
    "ru": "Krasnyy Yar",
    "country": "e0dc83a1-8246-4a52-aa57-c9a7875befeb",
    "countryCode": "RU",
    "state": "00e5875c-996a-4dfb-af50-203ffd91339d",
    "stateCode": "ALT",
    "latitude": "52.35750000",
    "longitude": "85.33806000"
  },
  {
    "id": "bf946cc4-66f2-4bf5-9fa7-a70bf988c9d1",
    "name": "Krutikha",
    "ru": "Krutikha",
    "country": "e0dc83a1-8246-4a52-aa57-c9a7875befeb",
    "countryCode": "RU",
    "state": "00e5875c-996a-4dfb-af50-203ffd91339d",
    "stateCode": "ALT",
    "latitude": "53.95990000",
    "longitude": "81.20930000"
  },
  {
    "id": "e4c38253-fc49-4e58-b256-17d09206c2c2",
    "name": "Kulunda",
    "ru": "Kulunda",
    "country": "e0dc83a1-8246-4a52-aa57-c9a7875befeb",
    "countryCode": "RU",
    "state": "00e5875c-996a-4dfb-af50-203ffd91339d",
    "stateCode": "ALT",
    "latitude": "52.56600000",
    "longitude": "78.93850000"
  },
  {
    "id": "48c837c6-548b-4768-b2d2-6a2ec7625d76",
    "name": "Kulundinskiy Rayon",
    "ru": "Kulundinskiy Rayon",
    "country": "e0dc83a1-8246-4a52-aa57-c9a7875befeb",
    "countryCode": "RU",
    "state": "00e5875c-996a-4dfb-af50-203ffd91339d",
    "stateCode": "ALT",
    "latitude": "52.58333000",
    "longitude": "79.00000000"
  },
  {
    "id": "e9f3bad3-629d-4f9b-ac34-a736e12016f9",
    "name": "Kur’inskiy Rayon",
    "ru": "Kur’inskiy Rayon",
    "country": "e0dc83a1-8246-4a52-aa57-c9a7875befeb",
    "countryCode": "RU",
    "state": "00e5875c-996a-4dfb-af50-203ffd91339d",
    "stateCode": "ALT",
    "latitude": "51.41667000",
    "longitude": "82.41667000"
  },
  {
    "id": "255bfcc5-af92-4b5c-8ec1-6583620eb7d4",
    "name": "Kusak",
    "ru": "Kusak",
    "country": "e0dc83a1-8246-4a52-aa57-c9a7875befeb",
    "countryCode": "RU",
    "state": "00e5875c-996a-4dfb-af50-203ffd91339d",
    "stateCode": "ALT",
    "latitude": "53.22380000",
    "longitude": "78.93370000"
  },
  {
    "id": "4cfcf91d-3147-44d1-9964-5ae7a93f86b0",
    "name": "Kytmanovo",
    "ru": "Kytmanovo",
    "country": "e0dc83a1-8246-4a52-aa57-c9a7875befeb",
    "countryCode": "RU",
    "state": "00e5875c-996a-4dfb-af50-203ffd91339d",
    "stateCode": "ALT",
    "latitude": "53.45930000",
    "longitude": "85.44790000"
  },
  {
    "id": "38e68787-c54f-432e-8854-894fa170a99b",
    "name": "Lebyazh’ye",
    "ru": "Lebyazh’ye",
    "country": "e0dc83a1-8246-4a52-aa57-c9a7875befeb",
    "countryCode": "RU",
    "state": "00e5875c-996a-4dfb-af50-203ffd91339d",
    "stateCode": "ALT",
    "latitude": "53.24361000",
    "longitude": "83.65333000"
  },
  {
    "id": "6346ae5a-0e88-4861-93a2-b456103a2582",
    "name": "Lesnoye",
    "ru": "Lesnoye",
    "country": "e0dc83a1-8246-4a52-aa57-c9a7875befeb",
    "countryCode": "RU",
    "state": "00e5875c-996a-4dfb-af50-203ffd91339d",
    "stateCode": "ALT",
    "latitude": "52.46926000",
    "longitude": "85.25547000"
  },
  {
    "id": "e51e210f-7f16-4908-b94a-995e37fe8070",
    "name": "Logovskoye",
    "ru": "Logovskoye",
    "country": "e0dc83a1-8246-4a52-aa57-c9a7875befeb",
    "countryCode": "RU",
    "state": "00e5875c-996a-4dfb-af50-203ffd91339d",
    "stateCode": "ALT",
    "latitude": "53.49430000",
    "longitude": "84.20160000"
  },
  {
    "id": "9beee82d-fcd5-483e-8034-09ddbbf3d9b9",
    "name": "Loktevskiy Rayon",
    "ru": "Loktevskiy Rayon",
    "country": "e0dc83a1-8246-4a52-aa57-c9a7875befeb",
    "countryCode": "RU",
    "state": "00e5875c-996a-4dfb-af50-203ffd91339d",
    "stateCode": "ALT",
    "latitude": "51.00000000",
    "longitude": "81.58333000"
  },
  {
    "id": "9d530dc5-8b0b-402c-9dec-cb42d3dbc281",
    "name": "Malinovoye Ozero",
    "ru": "Malinovoye Ozero",
    "country": "e0dc83a1-8246-4a52-aa57-c9a7875befeb",
    "countryCode": "RU",
    "state": "00e5875c-996a-4dfb-af50-203ffd91339d",
    "stateCode": "ALT",
    "latitude": "51.67528000",
    "longitude": "79.78250000"
  },
  {
    "id": "a2167129-a81f-4f0d-8a6e-d4ed85a8b820",
    "name": "Malougrenevo",
    "ru": "Malougrenevo",
    "country": "e0dc83a1-8246-4a52-aa57-c9a7875befeb",
    "countryCode": "RU",
    "state": "00e5875c-996a-4dfb-af50-203ffd91339d",
    "stateCode": "ALT",
    "latitude": "52.55680000",
    "longitude": "85.33908000"
  },
  {
    "id": "ce5e149c-4d7b-4b7e-84b7-88effab7269e",
    "name": "Mamontovo",
    "ru": "Mamontovo",
    "country": "e0dc83a1-8246-4a52-aa57-c9a7875befeb",
    "countryCode": "RU",
    "state": "00e5875c-996a-4dfb-af50-203ffd91339d",
    "stateCode": "ALT",
    "latitude": "52.70550000",
    "longitude": "81.62440000"
  },
  {
    "id": "618ab78f-39c8-4897-9b77-7c89d2375a31",
    "name": "Mamontovskiy Rayon",
    "ru": "Mamontovskiy Rayon",
    "country": "e0dc83a1-8246-4a52-aa57-c9a7875befeb",
    "countryCode": "RU",
    "state": "00e5875c-996a-4dfb-af50-203ffd91339d",
    "stateCode": "ALT",
    "latitude": "52.66667000",
    "longitude": "81.75000000"
  },
  {
    "id": "866c5db5-dffb-4496-83d9-118daeb21828",
    "name": "Martynovo",
    "ru": "Martynovo",
    "country": "e0dc83a1-8246-4a52-aa57-c9a7875befeb",
    "countryCode": "RU",
    "state": "00e5875c-996a-4dfb-af50-203ffd91339d",
    "stateCode": "ALT",
    "latitude": "53.26667000",
    "longitude": "85.88333000"
  },
  {
    "id": "738265bb-0987-465f-8028-7947b831e836",
    "name": "Mikhaylovskiy Rayon",
    "ru": "Mikhaylovskiy Rayon",
    "country": "e0dc83a1-8246-4a52-aa57-c9a7875befeb",
    "countryCode": "RU",
    "state": "00e5875c-996a-4dfb-af50-203ffd91339d",
    "stateCode": "ALT",
    "latitude": "51.75000000",
    "longitude": "79.66667000"
  },
  {
    "id": "416e74f6-8f32-40ea-b921-0fd23f0e9331",
    "name": "Mikhaylovskoye",
    "ru": "Mikhaylovskoye",
    "country": "e0dc83a1-8246-4a52-aa57-c9a7875befeb",
    "countryCode": "RU",
    "state": "00e5875c-996a-4dfb-af50-203ffd91339d",
    "stateCode": "ALT",
    "latitude": "51.82389000",
    "longitude": "79.71722000"
  },
  {
    "id": "e92f1da4-94f5-4c1c-867e-9387d8822323",
    "name": "Nagornyy",
    "ru": "Nagornyy",
    "country": "e0dc83a1-8246-4a52-aa57-c9a7875befeb",
    "countryCode": "RU",
    "state": "00e5875c-996a-4dfb-af50-203ffd91339d",
    "stateCode": "ALT",
    "latitude": "52.79590000",
    "longitude": "83.54980000"
  },
  {
    "id": "c30c8294-238f-455d-bb0f-59b390f0a38d",
    "name": "Nalobikha",
    "ru": "Nalobikha",
    "country": "e0dc83a1-8246-4a52-aa57-c9a7875befeb",
    "countryCode": "RU",
    "state": "00e5875c-996a-4dfb-af50-203ffd91339d",
    "stateCode": "ALT",
    "latitude": "53.20090000",
    "longitude": "84.60000000"
  },
  {
    "id": "e83e344c-41a1-477a-9b6d-2719562a4496",
    "name": "Natsional’nyy Rayon Nemetskiy",
    "ru": "Natsional’nyy Rayon Nemetskiy",
    "country": "e0dc83a1-8246-4a52-aa57-c9a7875befeb",
    "countryCode": "RU",
    "state": "00e5875c-996a-4dfb-af50-203ffd91339d",
    "stateCode": "ALT",
    "latitude": "53.25000000",
    "longitude": "79.00000000"
  },
  {
    "id": "bd85483b-d748-4a22-820c-7f52be8994bd",
    "name": "Nauchnyy Gorodok",
    "ru": "Nauchnyy Gorodok",
    "country": "e0dc83a1-8246-4a52-aa57-c9a7875befeb",
    "countryCode": "RU",
    "state": "00e5875c-996a-4dfb-af50-203ffd91339d",
    "stateCode": "ALT",
    "latitude": "53.42030000",
    "longitude": "83.52100000"
  },
  {
    "id": "6b15ab93-eb0f-4699-9606-f2a94b0bc7f5",
    "name": "Nikolayevka",
    "ru": "Nikolayevka",
    "country": "e0dc83a1-8246-4a52-aa57-c9a7875befeb",
    "countryCode": "RU",
    "state": "00e5875c-996a-4dfb-af50-203ffd91339d",
    "stateCode": "ALT",
    "latitude": "51.92556000",
    "longitude": "79.41583000"
  },
  {
    "id": "881501d2-da32-45ad-ad4b-f68990c626c8",
    "name": "Novichikha",
    "ru": "Novichikha",
    "country": "e0dc83a1-8246-4a52-aa57-c9a7875befeb",
    "countryCode": "RU",
    "state": "00e5875c-996a-4dfb-af50-203ffd91339d",
    "stateCode": "ALT",
    "latitude": "52.20400000",
    "longitude": "81.38770000"
  },
  {
    "id": "11340cd4-da41-4cf7-b377-14f14b7dc6c6",
    "name": "Novichikhinskiy Rayon",
    "ru": "Novichikhinskiy Rayon",
    "country": "e0dc83a1-8246-4a52-aa57-c9a7875befeb",
    "countryCode": "RU",
    "state": "00e5875c-996a-4dfb-af50-203ffd91339d",
    "stateCode": "ALT",
    "latitude": "52.16667000",
    "longitude": "81.41667000"
  },
  {
    "id": "d07e0c8c-790d-40bd-b186-18c70f563dbf",
    "name": "Novikovo",
    "ru": "Novikovo",
    "country": "e0dc83a1-8246-4a52-aa57-c9a7875befeb",
    "countryCode": "RU",
    "state": "00e5875c-996a-4dfb-af50-203ffd91339d",
    "stateCode": "ALT",
    "latitude": "52.62231000",
    "longitude": "85.96392000"
  },
  {
    "id": "527604cd-e981-4586-8221-634e9de4f3a1",
    "name": "Novoaltaysk",
    "ru": "Novoaltaysk",
    "country": "e0dc83a1-8246-4a52-aa57-c9a7875befeb",
    "countryCode": "RU",
    "state": "00e5875c-996a-4dfb-af50-203ffd91339d",
    "stateCode": "ALT",
    "latitude": "53.39170000",
    "longitude": "83.93630000"
  },
  {
    "id": "70d0092a-466a-49bb-9cc2-83c0dc388f9f",
    "name": "Novosilikatnyy",
    "ru": "Novosilikatnyy",
    "country": "e0dc83a1-8246-4a52-aa57-c9a7875befeb",
    "countryCode": "RU",
    "state": "00e5875c-996a-4dfb-af50-203ffd91339d",
    "stateCode": "ALT",
    "latitude": "53.30972000",
    "longitude": "83.62389000"
  },
  {
    "id": "9cfde91b-a4d7-4bfe-8e01-efeb786d8bc6",
    "name": "Novotyryshkino",
    "ru": "Novotyryshkino",
    "country": "e0dc83a1-8246-4a52-aa57-c9a7875befeb",
    "countryCode": "RU",
    "state": "00e5875c-996a-4dfb-af50-203ffd91339d",
    "stateCode": "ALT",
    "latitude": "52.08330000",
    "longitude": "84.90890000"
  },
  {
    "id": "dc1ab769-4eb6-40f5-aac9-6f94d8d660d6",
    "name": "Novyye Zori",
    "ru": "Novyye Zori",
    "country": "e0dc83a1-8246-4a52-aa57-c9a7875befeb",
    "countryCode": "RU",
    "state": "00e5875c-996a-4dfb-af50-203ffd91339d",
    "stateCode": "ALT",
    "latitude": "53.24778000",
    "longitude": "83.42500000"
  },
  {
    "id": "180bda4c-670a-4284-9fb9-82e282a0f7b7",
    "name": "Pankrushikha",
    "ru": "Pankrushikha",
    "country": "e0dc83a1-8246-4a52-aa57-c9a7875befeb",
    "countryCode": "RU",
    "state": "00e5875c-996a-4dfb-af50-203ffd91339d",
    "stateCode": "ALT",
    "latitude": "53.83194000",
    "longitude": "80.34056000"
  },
  {
    "id": "365fc3fa-3eb6-47b0-b2c7-9ab925960db8",
    "name": "Pankrushikhinskiy Rayon",
    "ru": "Pankrushikhinskiy Rayon",
    "country": "e0dc83a1-8246-4a52-aa57-c9a7875befeb",
    "countryCode": "RU",
    "state": "00e5875c-996a-4dfb-af50-203ffd91339d",
    "stateCode": "ALT",
    "latitude": "53.83333000",
    "longitude": "80.33333000"
  },
  {
    "id": "dae90cf1-b0cf-42a2-abbe-647da5851665",
    "name": "Pavlovsk",
    "ru": "Pavlovsk",
    "country": "e0dc83a1-8246-4a52-aa57-c9a7875befeb",
    "countryCode": "RU",
    "state": "00e5875c-996a-4dfb-af50-203ffd91339d",
    "stateCode": "ALT",
    "latitude": "53.31861000",
    "longitude": "82.98222000"
  },
  {
    "id": "f699ba2d-d9be-4684-ad1d-6bdf57085798",
    "name": "Pavlovskiy Rayon",
    "ru": "Pavlovskiy Rayon",
    "country": "e0dc83a1-8246-4a52-aa57-c9a7875befeb",
    "countryCode": "RU",
    "state": "00e5875c-996a-4dfb-af50-203ffd91339d",
    "stateCode": "ALT",
    "latitude": "53.25000000",
    "longitude": "83.00000000"
  },
  {
    "id": "3261b903-c8c0-471a-a37d-a73d8a97ce03",
    "name": "Pervomayskiy",
    "ru": "Pervomayskiy",
    "country": "e0dc83a1-8246-4a52-aa57-c9a7875befeb",
    "countryCode": "RU",
    "state": "00e5875c-996a-4dfb-af50-203ffd91339d",
    "stateCode": "ALT",
    "latitude": "52.91730000",
    "longitude": "81.66240000"
  },
  {
    "id": "2ff2cbe0-a6fe-4387-9b3e-425936cad5f2",
    "name": "Pervomayskiy Rayon",
    "ru": "Pervomayskiy Rayon",
    "country": "e0dc83a1-8246-4a52-aa57-c9a7875befeb",
    "countryCode": "RU",
    "state": "00e5875c-996a-4dfb-af50-203ffd91339d",
    "stateCode": "ALT",
    "latitude": "53.41667000",
    "longitude": "84.08333000"
  },
  {
    "id": "3e8be94f-6b5f-4d3f-b02d-eb2d724a2628",
    "name": "Pervomayskoye",
    "ru": "Pervomayskoye",
    "country": "e0dc83a1-8246-4a52-aa57-c9a7875befeb",
    "countryCode": "RU",
    "state": "00e5875c-996a-4dfb-af50-203ffd91339d",
    "stateCode": "ALT",
    "latitude": "52.59888000",
    "longitude": "85.25769000"
  },
  {
    "id": "f498b90f-9ad3-4d28-be22-f66b76a29db4",
    "name": "Petropavlovskiy Rayon",
    "ru": "Petropavlovskiy Rayon",
    "country": "e0dc83a1-8246-4a52-aa57-c9a7875befeb",
    "countryCode": "RU",
    "state": "00e5875c-996a-4dfb-af50-203ffd91339d",
    "stateCode": "ALT",
    "latitude": "52.16667000",
    "longitude": "84.25000000"
  },
  {
    "id": "5b8b4e00-c7ee-4cfb-9092-056faf5e4c7d",
    "name": "Petropavlovskoye",
    "ru": "Petropavlovskoye",
    "country": "e0dc83a1-8246-4a52-aa57-c9a7875befeb",
    "countryCode": "RU",
    "state": "00e5875c-996a-4dfb-af50-203ffd91339d",
    "stateCode": "ALT",
    "latitude": "52.07120000",
    "longitude": "84.10700000"
  },
  {
    "id": "ed8d607a-53d8-4ce3-80f3-4d69cd709383",
    "name": "Podsosnovo",
    "ru": "Podsosnovo",
    "country": "e0dc83a1-8246-4a52-aa57-c9a7875befeb",
    "countryCode": "RU",
    "state": "00e5875c-996a-4dfb-af50-203ffd91339d",
    "stateCode": "ALT",
    "latitude": "53.37210000",
    "longitude": "78.91840000"
  },
  {
    "id": "95ae7289-b562-4f6b-ba78-e52a311e6073",
    "name": "Pospelikha",
    "ru": "Pospelikha",
    "country": "e0dc83a1-8246-4a52-aa57-c9a7875befeb",
    "countryCode": "RU",
    "state": "00e5875c-996a-4dfb-af50-203ffd91339d",
    "stateCode": "ALT",
    "latitude": "51.95000000",
    "longitude": "81.76667000"
  },
  {
    "id": "c2880a88-9c05-42e6-80ff-e1b08b018356",
    "name": "Pospelikhinskiy Rayon",
    "ru": "Pospelikhinskiy Rayon",
    "country": "e0dc83a1-8246-4a52-aa57-c9a7875befeb",
    "countryCode": "RU",
    "state": "00e5875c-996a-4dfb-af50-203ffd91339d",
    "stateCode": "ALT",
    "latitude": "51.83333000",
    "longitude": "81.66667000"
  },
  {
    "id": "73719e80-47f3-4181-9fb2-e734b49c9546",
    "name": "Rebrikha",
    "ru": "Rebrikha",
    "country": "e0dc83a1-8246-4a52-aa57-c9a7875befeb",
    "countryCode": "RU",
    "state": "00e5875c-996a-4dfb-af50-203ffd91339d",
    "stateCode": "ALT",
    "latitude": "53.07333000",
    "longitude": "82.34083000"
  },
  {
    "id": "f8e72f80-f25d-43f3-acd7-473b457af714",
    "name": "Rebrikhinskiy Rayon",
    "ru": "Rebrikhinskiy Rayon",
    "country": "e0dc83a1-8246-4a52-aa57-c9a7875befeb",
    "countryCode": "RU",
    "state": "00e5875c-996a-4dfb-af50-203ffd91339d",
    "stateCode": "ALT",
    "latitude": "53.00000000",
    "longitude": "82.25000000"
  },
  {
    "id": "860f3ad2-8114-42b2-9ba0-1e2c8ac10391",
    "name": "Rodino",
    "ru": "Rodino",
    "country": "e0dc83a1-8246-4a52-aa57-c9a7875befeb",
    "countryCode": "RU",
    "state": "00e5875c-996a-4dfb-af50-203ffd91339d",
    "stateCode": "ALT",
    "latitude": "52.49783000",
    "longitude": "80.20294000"
  },
  {
    "id": "1769ef27-9851-4221-8db7-66570208d210",
    "name": "Rodinskiy Rayon",
    "ru": "Rodinskiy Rayon",
    "country": "e0dc83a1-8246-4a52-aa57-c9a7875befeb",
    "countryCode": "RU",
    "state": "00e5875c-996a-4dfb-af50-203ffd91339d",
    "stateCode": "ALT",
    "latitude": "52.50000000",
    "longitude": "80.33333000"
  },
  {
    "id": "9be8b66f-ec85-43b0-97cd-bd0e606f539f",
    "name": "Romanovo",
    "ru": "Romanovo",
    "country": "e0dc83a1-8246-4a52-aa57-c9a7875befeb",
    "countryCode": "RU",
    "state": "00e5875c-996a-4dfb-af50-203ffd91339d",
    "stateCode": "ALT",
    "latitude": "52.61820000",
    "longitude": "81.22710000"
  },
  {
    "id": "dd720f5a-7744-451e-9228-caaec9ea05ed",
    "name": "Romanovskiy Rayon",
    "ru": "Romanovskiy Rayon",
    "country": "e0dc83a1-8246-4a52-aa57-c9a7875befeb",
    "countryCode": "RU",
    "state": "00e5875c-996a-4dfb-af50-203ffd91339d",
    "stateCode": "ALT",
    "latitude": "52.58333000",
    "longitude": "81.16667000"
  },
  {
    "id": "f6184fcc-af08-47f4-884a-47545584a559",
    "name": "Rubtsovsk",
    "ru": "Rubtsovsk",
    "country": "e0dc83a1-8246-4a52-aa57-c9a7875befeb",
    "countryCode": "RU",
    "state": "00e5875c-996a-4dfb-af50-203ffd91339d",
    "stateCode": "ALT",
    "latitude": "51.51473000",
    "longitude": "81.20613000"
  },
  {
    "id": "c6896e0e-b7c8-4ece-9d09-979e010851dc",
    "name": "Rubtsovskiy Rayon",
    "ru": "Rubtsovskiy Rayon",
    "country": "e0dc83a1-8246-4a52-aa57-c9a7875befeb",
    "countryCode": "RU",
    "state": "00e5875c-996a-4dfb-af50-203ffd91339d",
    "stateCode": "ALT",
    "latitude": "51.50000000",
    "longitude": "81.33333000"
  },
  {
    "id": "14f524cb-029f-4299-bfc4-2d75b4c98868",
    "name": "Sannikovo",
    "ru": "Sannikovo",
    "country": "e0dc83a1-8246-4a52-aa57-c9a7875befeb",
    "countryCode": "RU",
    "state": "00e5875c-996a-4dfb-af50-203ffd91339d",
    "stateCode": "ALT",
    "latitude": "53.34480000",
    "longitude": "83.97490000"
  },
  {
    "id": "842cd7eb-b4a1-46cb-b5c8-9b4539733cd8",
    "name": "Severka",
    "ru": "Severka",
    "country": "e0dc83a1-8246-4a52-aa57-c9a7875befeb",
    "countryCode": "RU",
    "state": "00e5875c-996a-4dfb-af50-203ffd91339d",
    "stateCode": "ALT",
    "latitude": "52.13333000",
    "longitude": "79.28333000"
  },
  {
    "id": "1ce738e8-b165-42a7-a054-de990fb35b24",
    "name": "Shakhi",
    "ru": "Shakhi",
    "country": "e0dc83a1-8246-4a52-aa57-c9a7875befeb",
    "countryCode": "RU",
    "state": "00e5875c-996a-4dfb-af50-203ffd91339d",
    "stateCode": "ALT",
    "latitude": "53.33610000",
    "longitude": "83.36240000"
  },
  {
    "id": "e6a7b830-fc6b-4a19-bc65-daf250b35d25",
    "name": "Shelabolikha",
    "ru": "Shelabolikha",
    "country": "e0dc83a1-8246-4a52-aa57-c9a7875befeb",
    "countryCode": "RU",
    "state": "00e5875c-996a-4dfb-af50-203ffd91339d",
    "stateCode": "ALT",
    "latitude": "53.41310000",
    "longitude": "82.61670000"
  },
  {
    "id": "e300bc91-9754-43df-b506-7fc1bcd4fbdc",
    "name": "Shelabolikhinskiy Rayon",
    "ru": "Shelabolikhinskiy Rayon",
    "country": "e0dc83a1-8246-4a52-aa57-c9a7875befeb",
    "countryCode": "RU",
    "state": "00e5875c-996a-4dfb-af50-203ffd91339d",
    "stateCode": "ALT",
    "latitude": "53.41667000",
    "longitude": "82.25000000"
  },
  {
    "id": "4d225c83-a54e-4edc-929b-4f0ced76b2ef",
    "name": "Shipunovo",
    "ru": "Shipunovo",
    "country": "e0dc83a1-8246-4a52-aa57-c9a7875befeb",
    "countryCode": "RU",
    "state": "00e5875c-996a-4dfb-af50-203ffd91339d",
    "stateCode": "ALT",
    "latitude": "52.15820000",
    "longitude": "82.21730000"
  },
  {
    "id": "22ac30ec-53e1-4b25-9aeb-503a0b1a9041",
    "name": "Shipunovskiy Rayon",
    "ru": "Shipunovskiy Rayon",
    "country": "e0dc83a1-8246-4a52-aa57-c9a7875befeb",
    "countryCode": "RU",
    "state": "00e5875c-996a-4dfb-af50-203ffd91339d",
    "stateCode": "ALT",
    "latitude": "52.33333000",
    "longitude": "82.08333000"
  },
  {
    "id": "7d876d05-3d8f-430b-b30b-e86671886959",
    "name": "Shubenka",
    "ru": "Shubenka",
    "country": "e0dc83a1-8246-4a52-aa57-c9a7875befeb",
    "countryCode": "RU",
    "state": "00e5875c-996a-4dfb-af50-203ffd91339d",
    "stateCode": "ALT",
    "latitude": "52.65510000",
    "longitude": "85.09858000"
  },
  {
    "id": "7cf33dd0-9c68-49e3-abf1-bcd77a044257",
    "name": "Shul’gin Log",
    "ru": "Shul’gin Log",
    "country": "e0dc83a1-8246-4a52-aa57-c9a7875befeb",
    "countryCode": "RU",
    "state": "00e5875c-996a-4dfb-af50-203ffd91339d",
    "stateCode": "ALT",
    "latitude": "52.16985000",
    "longitude": "85.85573000"
  },
  {
    "id": "b71b8dbc-189e-4516-81db-436fac9b7f26",
    "name": "Sibirskiy",
    "ru": "Sibirskiy",
    "country": "e0dc83a1-8246-4a52-aa57-c9a7875befeb",
    "countryCode": "RU",
    "state": "00e5875c-996a-4dfb-af50-203ffd91339d",
    "stateCode": "ALT",
    "latitude": "53.57770000",
    "longitude": "83.75770000"
  },
  {
    "id": "cbbafc26-962a-41da-ba56-a959d5139015",
    "name": "Slavgorod",
    "ru": "Slavgorod",
    "country": "e0dc83a1-8246-4a52-aa57-c9a7875befeb",
    "countryCode": "RU",
    "state": "00e5875c-996a-4dfb-af50-203ffd91339d",
    "stateCode": "ALT",
    "latitude": "52.99780000",
    "longitude": "78.64490000"
  },
  {
    "id": "4169c6be-3d5e-4a23-87fa-326c4c2c7191",
    "name": "Slavgorodskoye",
    "ru": "Slavgorodskoye",
    "country": "e0dc83a1-8246-4a52-aa57-c9a7875befeb",
    "countryCode": "RU",
    "state": "00e5875c-996a-4dfb-af50-203ffd91339d",
    "stateCode": "ALT",
    "latitude": "53.02140000",
    "longitude": "78.64350000"
  },
  {
    "id": "2066d1a7-ac0c-4183-aef3-e90d6e1495f8",
    "name": "Smolenskiy Rayon",
    "ru": "Smolenskiy Rayon",
    "country": "e0dc83a1-8246-4a52-aa57-c9a7875befeb",
    "countryCode": "RU",
    "state": "00e5875c-996a-4dfb-af50-203ffd91339d",
    "stateCode": "ALT",
    "latitude": "52.16667000",
    "longitude": "84.91667000"
  },
  {
    "id": "1c3a8744-89ed-49d2-9c98-418204a7ab1c",
    "name": "Smolenskoye",
    "ru": "Smolenskoye",
    "country": "e0dc83a1-8246-4a52-aa57-c9a7875befeb",
    "countryCode": "RU",
    "state": "00e5875c-996a-4dfb-af50-203ffd91339d",
    "stateCode": "ALT",
    "latitude": "52.30447000",
    "longitude": "85.07850000"
  },
  {
    "id": "f5fe1eb8-3a22-4e72-9711-4536466d4fca",
    "name": "Sokolovo",
    "ru": "Sokolovo",
    "country": "e0dc83a1-8246-4a52-aa57-c9a7875befeb",
    "countryCode": "RU",
    "state": "00e5875c-996a-4dfb-af50-203ffd91339d",
    "stateCode": "ALT",
    "latitude": "52.53180000",
    "longitude": "84.78960000"
  },
  {
    "id": "11fa7973-c2ad-4d2a-bf08-9a70acdbe277",
    "name": "Soloneshenskiy Rayon",
    "ru": "Soloneshenskiy Rayon",
    "country": "e0dc83a1-8246-4a52-aa57-c9a7875befeb",
    "countryCode": "RU",
    "state": "00e5875c-996a-4dfb-af50-203ffd91339d",
    "stateCode": "ALT",
    "latitude": "51.66667000",
    "longitude": "84.50000000"
  },
  {
    "id": "ec702be6-13a1-490c-88c2-467690762aae",
    "name": "Soloneshnoye",
    "ru": "Soloneshnoye",
    "country": "e0dc83a1-8246-4a52-aa57-c9a7875befeb",
    "countryCode": "RU",
    "state": "00e5875c-996a-4dfb-af50-203ffd91339d",
    "stateCode": "ALT",
    "latitude": "51.65440000",
    "longitude": "84.31970000"
  },
  {
    "id": "e24188d4-e548-4a20-afbe-4ad5510af8c7",
    "name": "Solton",
    "ru": "Solton",
    "country": "e0dc83a1-8246-4a52-aa57-c9a7875befeb",
    "countryCode": "RU",
    "state": "00e5875c-996a-4dfb-af50-203ffd91339d",
    "stateCode": "ALT",
    "latitude": "52.84290000",
    "longitude": "86.47870000"
  },
  {
    "id": "c687b35b-049f-40ac-8060-231148722150",
    "name": "Soltonskiy Rayon",
    "ru": "Soltonskiy Rayon",
    "country": "e0dc83a1-8246-4a52-aa57-c9a7875befeb",
    "countryCode": "RU",
    "state": "00e5875c-996a-4dfb-af50-203ffd91339d",
    "stateCode": "ALT",
    "latitude": "52.83333000",
    "longitude": "86.50000000"
  },
  {
    "id": "a06a7266-ea54-4e55-9a01-048d0b7e79c3",
    "name": "Sorokino",
    "ru": "Sorokino",
    "country": "e0dc83a1-8246-4a52-aa57-c9a7875befeb",
    "countryCode": "RU",
    "state": "00e5875c-996a-4dfb-af50-203ffd91339d",
    "stateCode": "ALT",
    "latitude": "53.75000000",
    "longitude": "84.91667000"
  },
  {
    "id": "d29c39e2-f4e0-40bc-aa1d-0969fb75f6ec",
    "name": "Sovetskoye",
    "ru": "Sovetskoye",
    "country": "e0dc83a1-8246-4a52-aa57-c9a7875befeb",
    "countryCode": "RU",
    "state": "00e5875c-996a-4dfb-af50-203ffd91339d",
    "stateCode": "ALT",
    "latitude": "52.28556000",
    "longitude": "85.41424000"
  },
  {
    "id": "569dbcda-5697-45d4-be18-b4c31a461524",
    "name": "Srostki",
    "ru": "Srostki",
    "country": "e0dc83a1-8246-4a52-aa57-c9a7875befeb",
    "countryCode": "RU",
    "state": "00e5875c-996a-4dfb-af50-203ffd91339d",
    "stateCode": "ALT",
    "latitude": "52.42090000",
    "longitude": "85.69923000"
  },
  {
    "id": "4d8de917-2f3e-4d58-a15e-05d8b3b96c4a",
    "name": "Stan-Bekhtemir",
    "ru": "Stan-Bekhtemir",
    "country": "e0dc83a1-8246-4a52-aa57-c9a7875befeb",
    "countryCode": "RU",
    "state": "00e5875c-996a-4dfb-af50-203ffd91339d",
    "stateCode": "ALT",
    "latitude": "52.60665000",
    "longitude": "85.62619000"
  },
  {
    "id": "838a87db-742b-4b27-9019-ec87c4b30bce",
    "name": "Staroaleyskoye",
    "ru": "Staroaleyskoye",
    "country": "e0dc83a1-8246-4a52-aa57-c9a7875befeb",
    "countryCode": "RU",
    "state": "00e5875c-996a-4dfb-af50-203ffd91339d",
    "stateCode": "ALT",
    "latitude": "51.00611000",
    "longitude": "82.00000000"
  },
  {
    "id": "068543d7-5711-4328-a351-b3ce4c72fb95",
    "name": "Starobelokurikha",
    "ru": "Starobelokurikha",
    "country": "e0dc83a1-8246-4a52-aa57-c9a7875befeb",
    "countryCode": "RU",
    "state": "00e5875c-996a-4dfb-af50-203ffd91339d",
    "stateCode": "ALT",
    "latitude": "52.05206000",
    "longitude": "85.08765000"
  },
  {
    "id": "8d711f28-afd5-419a-9c70-8c750b36f5b3",
    "name": "Staryy Togul",
    "ru": "Staryy Togul",
    "country": "e0dc83a1-8246-4a52-aa57-c9a7875befeb",
    "countryCode": "RU",
    "state": "00e5875c-996a-4dfb-af50-203ffd91339d",
    "stateCode": "ALT",
    "latitude": "53.42910000",
    "longitude": "85.90060000"
  },
  {
    "id": "bf0181ee-51cf-4456-9d24-d9ab3523537f",
    "name": "Stukovo",
    "ru": "Stukovo",
    "country": "e0dc83a1-8246-4a52-aa57-c9a7875befeb",
    "countryCode": "RU",
    "state": "00e5875c-996a-4dfb-af50-203ffd91339d",
    "stateCode": "ALT",
    "latitude": "53.21278000",
    "longitude": "83.33778000"
  },
  {
    "id": "62195114-9231-4884-af79-1034b420379f",
    "name": "Sychëvka",
    "ru": "Sychëvka",
    "country": "e0dc83a1-8246-4a52-aa57-c9a7875befeb",
    "countryCode": "RU",
    "state": "00e5875c-996a-4dfb-af50-203ffd91339d",
    "stateCode": "ALT",
    "latitude": "52.05120000",
    "longitude": "84.77880000"
  },
  {
    "id": "f12eee9a-7a2a-4e4a-9b88-6b9008cd07eb",
    "name": "Tabuny",
    "ru": "Tabuny",
    "country": "e0dc83a1-8246-4a52-aa57-c9a7875befeb",
    "countryCode": "RU",
    "state": "00e5875c-996a-4dfb-af50-203ffd91339d",
    "stateCode": "ALT",
    "latitude": "52.77730000",
    "longitude": "78.78960000"
  },
  {
    "id": "02c5ef0c-e688-47e8-afed-f22fd1410308",
    "name": "Tal’menka",
    "ru": "Tal’menka",
    "country": "e0dc83a1-8246-4a52-aa57-c9a7875befeb",
    "countryCode": "RU",
    "state": "00e5875c-996a-4dfb-af50-203ffd91339d",
    "stateCode": "ALT",
    "latitude": "53.81830000",
    "longitude": "83.56770000"
  },
  {
    "id": "b55ce1c9-9aec-4eed-b49b-4b5a206bc06d",
    "name": "Tal’menskiy Rayon",
    "ru": "Tal’menskiy Rayon",
    "country": "e0dc83a1-8246-4a52-aa57-c9a7875befeb",
    "countryCode": "RU",
    "state": "00e5875c-996a-4dfb-af50-203ffd91339d",
    "stateCode": "ALT",
    "latitude": "53.75000000",
    "longitude": "83.41667000"
  },
  {
    "id": "a76d6d9d-a003-47b6-9a91-5aba4d775a60",
    "name": "Togul",
    "ru": "Togul",
    "country": "e0dc83a1-8246-4a52-aa57-c9a7875befeb",
    "countryCode": "RU",
    "state": "00e5875c-996a-4dfb-af50-203ffd91339d",
    "stateCode": "ALT",
    "latitude": "53.46700000",
    "longitude": "85.91280000"
  },
  {
    "id": "ec90e329-3599-426c-bf24-0577ccc17bb3",
    "name": "Togul’skiy Rayon",
    "ru": "Togul’skiy Rayon",
    "country": "e0dc83a1-8246-4a52-aa57-c9a7875befeb",
    "countryCode": "RU",
    "state": "00e5875c-996a-4dfb-af50-203ffd91339d",
    "stateCode": "ALT",
    "latitude": "53.66667000",
    "longitude": "86.08333000"
  },
  {
    "id": "0a90ae0a-7ecf-499b-81ad-9086b684cfc4",
    "name": "Topchikha",
    "ru": "Topchikha",
    "country": "e0dc83a1-8246-4a52-aa57-c9a7875befeb",
    "countryCode": "RU",
    "state": "00e5875c-996a-4dfb-af50-203ffd91339d",
    "stateCode": "ALT",
    "latitude": "52.81920000",
    "longitude": "83.11850000"
  },
  {
    "id": "d86afac0-17c5-4115-ad5e-0337113b8f92",
    "name": "Topol’noye",
    "ru": "Topol’noye",
    "country": "e0dc83a1-8246-4a52-aa57-c9a7875befeb",
    "countryCode": "RU",
    "state": "00e5875c-996a-4dfb-af50-203ffd91339d",
    "stateCode": "ALT",
    "latitude": "51.51050000",
    "longitude": "84.48130000"
  },
  {
    "id": "eb3d29f5-008e-4447-adfd-5631d62d7956",
    "name": "Troitskoye",
    "ru": "Troitskoye",
    "country": "e0dc83a1-8246-4a52-aa57-c9a7875befeb",
    "countryCode": "RU",
    "state": "00e5875c-996a-4dfb-af50-203ffd91339d",
    "stateCode": "ALT",
    "latitude": "52.98220000",
    "longitude": "84.68000000"
  },
  {
    "id": "0dc56f8f-1c12-4ed1-bdda-b5338e952e37",
    "name": "Tselinnoye",
    "ru": "Tselinnoye",
    "country": "e0dc83a1-8246-4a52-aa57-c9a7875befeb",
    "countryCode": "RU",
    "state": "00e5875c-996a-4dfb-af50-203ffd91339d",
    "stateCode": "ALT",
    "latitude": "53.07822000",
    "longitude": "85.65363000"
  },
  {
    "id": "714f9fcd-da0a-4e69-9b10-723da8fbae3f",
    "name": "Tyumentsevo",
    "ru": "Tyumentsevo",
    "country": "e0dc83a1-8246-4a52-aa57-c9a7875befeb",
    "countryCode": "RU",
    "state": "00e5875c-996a-4dfb-af50-203ffd91339d",
    "stateCode": "ALT",
    "latitude": "53.32240000",
    "longitude": "81.49800000"
  },
  {
    "id": "5b061e87-793d-4986-aa82-1e56320dd6ca",
    "name": "Tyumentsevskiy Rayon",
    "ru": "Tyumentsevskiy Rayon",
    "country": "e0dc83a1-8246-4a52-aa57-c9a7875befeb",
    "countryCode": "RU",
    "state": "00e5875c-996a-4dfb-af50-203ffd91339d",
    "stateCode": "ALT",
    "latitude": "53.25000000",
    "longitude": "81.50000000"
  },
  {
    "id": "37c70f71-1498-4d2e-a8a2-f7b5243815e9",
    "name": "Uglovskoye",
    "ru": "Uglovskoye",
    "country": "e0dc83a1-8246-4a52-aa57-c9a7875befeb",
    "countryCode": "RU",
    "state": "00e5875c-996a-4dfb-af50-203ffd91339d",
    "stateCode": "ALT",
    "latitude": "51.35570000",
    "longitude": "80.19420000"
  },
  {
    "id": "2323e588-edc5-4e38-9e78-8f4e55f46bf4",
    "name": "Ust’-Charyshskaya Pristan’",
    "ru": "Ust’-Charyshskaya Pristan’",
    "country": "e0dc83a1-8246-4a52-aa57-c9a7875befeb",
    "countryCode": "RU",
    "state": "00e5875c-996a-4dfb-af50-203ffd91339d",
    "stateCode": "ALT",
    "latitude": "52.39340000",
    "longitude": "83.66350000"
  },
  {
    "id": "0c847563-976e-4bbe-b7ed-208f7dcae240",
    "name": "Ust’-Isha",
    "ru": "Ust’-Isha",
    "country": "e0dc83a1-8246-4a52-aa57-c9a7875befeb",
    "countryCode": "RU",
    "state": "00e5875c-996a-4dfb-af50-203ffd91339d",
    "stateCode": "ALT",
    "latitude": "52.18201000",
    "longitude": "85.96757000"
  },
  {
    "id": "346208b8-3bb2-447e-a657-d56bbc585a6a",
    "name": "Ust’-Kalmanka",
    "ru": "Ust’-Kalmanka",
    "country": "e0dc83a1-8246-4a52-aa57-c9a7875befeb",
    "countryCode": "RU",
    "state": "00e5875c-996a-4dfb-af50-203ffd91339d",
    "stateCode": "ALT",
    "latitude": "52.12070000",
    "longitude": "83.30500000"
  },
  {
    "id": "2a31f3f8-7837-4a4e-84f0-634bdab7a4d4",
    "name": "Ust’yanka",
    "ru": "Ust’yanka",
    "country": "e0dc83a1-8246-4a52-aa57-c9a7875befeb",
    "countryCode": "RU",
    "state": "00e5875c-996a-4dfb-af50-203ffd91339d",
    "stateCode": "ALT",
    "latitude": "53.45270000",
    "longitude": "78.74250000"
  },
  {
    "id": "60adbda9-0f0d-4ce1-8d48-023f84eb7f93",
    "name": "Usyatskoye",
    "ru": "Usyatskoye",
    "country": "e0dc83a1-8246-4a52-aa57-c9a7875befeb",
    "countryCode": "RU",
    "state": "00e5875c-996a-4dfb-af50-203ffd91339d",
    "stateCode": "ALT",
    "latitude": "52.56806000",
    "longitude": "85.76085000"
  },
  {
    "id": "1a4a6c10-8631-4f1a-a703-9287984ac88d",
    "name": "Verkh-Katunskoye",
    "ru": "Verkh-Katunskoye",
    "country": "e0dc83a1-8246-4a52-aa57-c9a7875befeb",
    "countryCode": "RU",
    "state": "00e5875c-996a-4dfb-af50-203ffd91339d",
    "stateCode": "ALT",
    "latitude": "52.45000000",
    "longitude": "85.43162000"
  },
  {
    "id": "0dd20b2a-8964-44bb-988e-7f741fa503f9",
    "name": "Verkh-Suetka",
    "ru": "Verkh-Suetka",
    "country": "e0dc83a1-8246-4a52-aa57-c9a7875befeb",
    "countryCode": "RU",
    "state": "00e5875c-996a-4dfb-af50-203ffd91339d",
    "stateCode": "ALT",
    "latitude": "53.30401000",
    "longitude": "80.04675000"
  },
  {
    "id": "83118fb9-6292-4c1b-a309-efd9a966e5c9",
    "name": "Verkhniy Bekhtemir",
    "ru": "Verkhniy Bekhtemir",
    "country": "e0dc83a1-8246-4a52-aa57-c9a7875befeb",
    "countryCode": "RU",
    "state": "00e5875c-996a-4dfb-af50-203ffd91339d",
    "stateCode": "ALT",
    "latitude": "52.76582000",
    "longitude": "85.91011000"
  },
  {
    "id": "8d9dbaf2-528c-4173-918a-6469d037c6bd",
    "name": "Veseloyarsk",
    "ru": "Veseloyarsk",
    "country": "e0dc83a1-8246-4a52-aa57-c9a7875befeb",
    "countryCode": "RU",
    "state": "00e5875c-996a-4dfb-af50-203ffd91339d",
    "stateCode": "ALT",
    "latitude": "51.28737000",
    "longitude": "81.10703000"
  },
  {
    "id": "421dbad6-9551-439a-9144-c90eea618853",
    "name": "Vlasikha",
    "ru": "Vlasikha",
    "country": "e0dc83a1-8246-4a52-aa57-c9a7875befeb",
    "countryCode": "RU",
    "state": "00e5875c-996a-4dfb-af50-203ffd91339d",
    "stateCode": "ALT",
    "latitude": "53.29722000",
    "longitude": "83.57417000"
  },
  {
    "id": "4a10a122-f0ed-47e4-a84c-36b24db5f583",
    "name": "Volchikha",
    "ru": "Volchikha",
    "country": "e0dc83a1-8246-4a52-aa57-c9a7875befeb",
    "countryCode": "RU",
    "state": "00e5875c-996a-4dfb-af50-203ffd91339d",
    "stateCode": "ALT",
    "latitude": "52.01356000",
    "longitude": "80.35715000"
  },
  {
    "id": "87a339a5-b59f-4af1-b5a8-9386f12ee848",
    "name": "Volchikhinskiy Rayon",
    "ru": "Volchikhinskiy Rayon",
    "country": "e0dc83a1-8246-4a52-aa57-c9a7875befeb",
    "countryCode": "RU",
    "state": "00e5875c-996a-4dfb-af50-203ffd91339d",
    "stateCode": "ALT",
    "latitude": "52.08333000",
    "longitude": "80.50000000"
  },
  {
    "id": "e9260c49-45d3-451c-8935-f6ea6bb22af7",
    "name": "Yarovoye",
    "ru": "Yarovoye",
    "country": "e0dc83a1-8246-4a52-aa57-c9a7875befeb",
    "countryCode": "RU",
    "state": "00e5875c-996a-4dfb-af50-203ffd91339d",
    "stateCode": "ALT",
    "latitude": "52.92730000",
    "longitude": "78.58000000"
  },
  {
    "id": "e4c12bdc-9124-4d18-950e-3071e76c4f2a",
    "name": "Yegor’yevskiy Rayon",
    "ru": "Yegor’yevskiy Rayon",
    "country": "e0dc83a1-8246-4a52-aa57-c9a7875befeb",
    "countryCode": "RU",
    "state": "00e5875c-996a-4dfb-af50-203ffd91339d",
    "stateCode": "ALT",
    "latitude": "51.75000000",
    "longitude": "81.00000000"
  },
  {
    "id": "6eab28ca-b672-4947-b267-cfb8b3413bb1",
    "name": "Yel’tsovskiy Rayon",
    "ru": "Yel’tsovskiy Rayon",
    "country": "e0dc83a1-8246-4a52-aa57-c9a7875befeb",
    "countryCode": "RU",
    "state": "00e5875c-996a-4dfb-af50-203ffd91339d",
    "stateCode": "ALT",
    "latitude": "53.25000000",
    "longitude": "86.41667000"
  },
  {
    "id": "f136dcbb-e6f7-4d7b-a0ef-f59218187a37",
    "name": "Yuzhnyy",
    "ru": "Yuzhnyy",
    "country": "e0dc83a1-8246-4a52-aa57-c9a7875befeb",
    "countryCode": "RU",
    "state": "00e5875c-996a-4dfb-af50-203ffd91339d",
    "stateCode": "ALT",
    "latitude": "53.25417000",
    "longitude": "83.69361000"
  },
  {
    "id": "f39dd3af-c519-429d-9d44-a4cbe72737a2",
    "name": "Zalesovo",
    "ru": "Zalesovo",
    "country": "e0dc83a1-8246-4a52-aa57-c9a7875befeb",
    "countryCode": "RU",
    "state": "00e5875c-996a-4dfb-af50-203ffd91339d",
    "stateCode": "ALT",
    "latitude": "53.99389000",
    "longitude": "84.74306000"
  },
  {
    "id": "51d530ab-1516-49f6-bdfb-778d6d76f375",
    "name": "Zarinsk",
    "ru": "Zarinsk",
    "country": "e0dc83a1-8246-4a52-aa57-c9a7875befeb",
    "countryCode": "RU",
    "state": "00e5875c-996a-4dfb-af50-203ffd91339d",
    "stateCode": "ALT",
    "latitude": "53.70740000",
    "longitude": "84.94930000"
  },
  {
    "id": "ad10c705-9863-4d1c-b44b-bfad61c9f1c3",
    "name": "Zarinskiy Rayon",
    "ru": "Zarinskiy Rayon",
    "country": "e0dc83a1-8246-4a52-aa57-c9a7875befeb",
    "countryCode": "RU",
    "state": "00e5875c-996a-4dfb-af50-203ffd91339d",
    "stateCode": "ALT",
    "latitude": "53.91667000",
    "longitude": "85.33333000"
  },
  {
    "id": "21473e12-0aa9-4f53-9167-bd04775ed224",
    "name": "Zarya",
    "ru": "Zarya",
    "country": "e0dc83a1-8246-4a52-aa57-c9a7875befeb",
    "countryCode": "RU",
    "state": "00e5875c-996a-4dfb-af50-203ffd91339d",
    "stateCode": "ALT",
    "latitude": "52.59696000",
    "longitude": "85.17570000"
  },
  {
    "id": "893e1a87-cb0a-47c0-b0fe-bbe1802d33a1",
    "name": "Zaton",
    "ru": "Zaton",
    "country": "e0dc83a1-8246-4a52-aa57-c9a7875befeb",
    "countryCode": "RU",
    "state": "00e5875c-996a-4dfb-af50-203ffd91339d",
    "stateCode": "ALT",
    "latitude": "53.29361000",
    "longitude": "83.80722000"
  },
  {
    "id": "8dcd089a-510a-4cfa-972b-77e47bb1b266",
    "name": "Zav’yalovo",
    "ru": "Zav’yalovo",
    "country": "e0dc83a1-8246-4a52-aa57-c9a7875befeb",
    "countryCode": "RU",
    "state": "00e5875c-996a-4dfb-af50-203ffd91339d",
    "stateCode": "ALT",
    "latitude": "52.83805000",
    "longitude": "80.91970000"
  },
  {
    "id": "51f11fad-4766-41c9-a10f-cd57922a896c",
    "name": "Zav’yalovskiy Rayon",
    "ru": "Zav’yalovskiy Rayon",
    "country": "e0dc83a1-8246-4a52-aa57-c9a7875befeb",
    "countryCode": "RU",
    "state": "00e5875c-996a-4dfb-af50-203ffd91339d",
    "stateCode": "ALT",
    "latitude": "52.91667000",
    "longitude": "81.00000000"
  },
  {
    "id": "a0bdc1a2-be2e-4bea-add6-c918d133af0b",
    "name": "Zmeinogorsk",
    "ru": "Zmeinogorsk",
    "country": "e0dc83a1-8246-4a52-aa57-c9a7875befeb",
    "countryCode": "RU",
    "state": "00e5875c-996a-4dfb-af50-203ffd91339d",
    "stateCode": "ALT",
    "latitude": "51.15776000",
    "longitude": "82.19534000"
  },
  {
    "id": "ccbc48dc-d702-4e67-bf9d-360aa995a68e",
    "name": "Zonal’noye",
    "ru": "Zonal’noye",
    "country": "e0dc83a1-8246-4a52-aa57-c9a7875befeb",
    "countryCode": "RU",
    "state": "00e5875c-996a-4dfb-af50-203ffd91339d",
    "stateCode": "ALT",
    "latitude": "52.66650000",
    "longitude": "84.93310000"
  },
  {
    "id": "05279729-2aa5-4477-801c-340fcc6ac4f1",
    "name": "Zudilovo",
    "ru": "Zudilovo",
    "country": "e0dc83a1-8246-4a52-aa57-c9a7875befeb",
    "countryCode": "RU",
    "state": "00e5875c-996a-4dfb-af50-203ffd91339d",
    "stateCode": "ALT",
    "latitude": "53.49270000",
    "longitude": "83.89370000"
  },
  {
    "id": "18a30c81-cc22-4a43-b057-87cc1a08e523",
    "name": "Aktash",
    "ru": "Aktash",
    "country": "e0dc83a1-8246-4a52-aa57-c9a7875befeb",
    "countryCode": "RU",
    "state": "87f3f136-9069-4aa5-b63d-20cf0fa38657",
    "stateCode": "AL",
    "latitude": "50.30000000",
    "longitude": "87.73333000"
  },
  {
    "id": "bcaf3215-bcad-4110-b852-bb6b2d5e053b",
    "name": "Artybash",
    "ru": "Artybash",
    "country": "e0dc83a1-8246-4a52-aa57-c9a7875befeb",
    "countryCode": "RU",
    "state": "87f3f136-9069-4aa5-b63d-20cf0fa38657",
    "stateCode": "AL",
    "latitude": "51.79278000",
    "longitude": "87.27611000"
  },
  {
    "id": "111f388f-942b-429d-902b-1d8f816a6fda",
    "name": "Belyashi",
    "ru": "Belyashi",
    "country": "e0dc83a1-8246-4a52-aa57-c9a7875befeb",
    "countryCode": "RU",
    "state": "87f3f136-9069-4aa5-b63d-20cf0fa38657",
    "stateCode": "AL",
    "latitude": "49.70900000",
    "longitude": "87.42300000"
  },
  {
    "id": "12847243-940d-45f6-9804-379f9cf3f609",
    "name": "Chemal",
    "ru": "Chemal",
    "country": "e0dc83a1-8246-4a52-aa57-c9a7875befeb",
    "countryCode": "RU",
    "state": "87f3f136-9069-4aa5-b63d-20cf0fa38657",
    "stateCode": "AL",
    "latitude": "51.41111000",
    "longitude": "86.00500000"
  },
  {
    "id": "fb313942-e632-49c7-81fd-f5503f3f9880",
    "name": "Cherga",
    "ru": "Cherga",
    "country": "e0dc83a1-8246-4a52-aa57-c9a7875befeb",
    "countryCode": "RU",
    "state": "87f3f136-9069-4aa5-b63d-20cf0fa38657",
    "stateCode": "AL",
    "latitude": "51.56889000",
    "longitude": "85.56250000"
  },
  {
    "id": "607b5fdd-7375-464e-9338-6b2315ca565f",
    "name": "Choya",
    "ru": "Choya",
    "country": "e0dc83a1-8246-4a52-aa57-c9a7875befeb",
    "countryCode": "RU",
    "state": "87f3f136-9069-4aa5-b63d-20cf0fa38657",
    "stateCode": "AL",
    "latitude": "52.01080000",
    "longitude": "86.54670000"
  },
  {
    "id": "61c096b1-5e2b-4cf5-894f-c73ac532283c",
    "name": "Elekmonar",
    "ru": "Elekmonar",
    "country": "e0dc83a1-8246-4a52-aa57-c9a7875befeb",
    "countryCode": "RU",
    "state": "87f3f136-9069-4aa5-b63d-20cf0fa38657",
    "stateCode": "AL",
    "latitude": "51.45889000",
    "longitude": "85.98778000"
  },
  {
    "id": "25f00af8-3caa-416f-974f-96bd4b7ec73e",
    "name": "Gorno-Altaysk",
    "ru": "Gorno-Altaysk",
    "country": "e0dc83a1-8246-4a52-aa57-c9a7875befeb",
    "countryCode": "RU",
    "state": "87f3f136-9069-4aa5-b63d-20cf0fa38657",
    "stateCode": "AL",
    "latitude": "51.96056000",
    "longitude": "85.91892000"
  },
  {
    "id": "d11e9f24-81e9-4f9f-a95e-0466801f94f8",
    "name": "Inya",
    "ru": "Inya",
    "country": "e0dc83a1-8246-4a52-aa57-c9a7875befeb",
    "countryCode": "RU",
    "state": "87f3f136-9069-4aa5-b63d-20cf0fa38657",
    "stateCode": "AL",
    "latitude": "50.45611000",
    "longitude": "86.62667000"
  },
  {
    "id": "23169cab-8b7b-490d-9928-9469521acdd4",
    "name": "Iogach",
    "ru": "Iogach",
    "country": "e0dc83a1-8246-4a52-aa57-c9a7875befeb",
    "countryCode": "RU",
    "state": "87f3f136-9069-4aa5-b63d-20cf0fa38657",
    "stateCode": "AL",
    "latitude": "51.78167000",
    "longitude": "87.26306000"
  },
  {
    "id": "0ad7acfd-9d94-4a59-9137-33badbffb6b4",
    "name": "Kosh-Agach",
    "ru": "Kosh-Agach",
    "country": "e0dc83a1-8246-4a52-aa57-c9a7875befeb",
    "countryCode": "RU",
    "state": "87f3f136-9069-4aa5-b63d-20cf0fa38657",
    "stateCode": "AL",
    "latitude": "49.99273000",
    "longitude": "88.67598000"
  },
  {
    "id": "2ba1252e-e5ca-4de8-a55b-85283477b25c",
    "name": "Manzherok",
    "ru": "Manzherok",
    "country": "e0dc83a1-8246-4a52-aa57-c9a7875befeb",
    "countryCode": "RU",
    "state": "87f3f136-9069-4aa5-b63d-20cf0fa38657",
    "stateCode": "AL",
    "latitude": "51.83028000",
    "longitude": "85.77500000"
  },
  {
    "id": "6ccd97e7-7aed-481f-bc9c-f3cc6f1c4934",
    "name": "Mayma",
    "ru": "Mayma",
    "country": "e0dc83a1-8246-4a52-aa57-c9a7875befeb",
    "countryCode": "RU",
    "state": "87f3f136-9069-4aa5-b63d-20cf0fa38657",
    "stateCode": "AL",
    "latitude": "52.01577000",
    "longitude": "85.90963000"
  },
  {
    "id": "5ebe393d-d176-4956-a2f2-7d09844ea9b3",
    "name": "Mayminskiy Rayon",
    "ru": "Mayminskiy Rayon",
    "country": "e0dc83a1-8246-4a52-aa57-c9a7875befeb",
    "countryCode": "RU",
    "state": "87f3f136-9069-4aa5-b63d-20cf0fa38657",
    "stateCode": "AL",
    "latitude": "51.83333000",
    "longitude": "86.00000000"
  },
  {
    "id": "813476fc-87fd-4b35-910e-41c6438d713d",
    "name": "Onguday",
    "ru": "Onguday",
    "country": "e0dc83a1-8246-4a52-aa57-c9a7875befeb",
    "countryCode": "RU",
    "state": "87f3f136-9069-4aa5-b63d-20cf0fa38657",
    "stateCode": "AL",
    "latitude": "50.75000000",
    "longitude": "86.15000000"
  },
  {
    "id": "6a150527-d144-4f49-9375-aff7f1f4e74a",
    "name": "Ongudayskiy Rayon",
    "ru": "Ongudayskiy Rayon",
    "country": "e0dc83a1-8246-4a52-aa57-c9a7875befeb",
    "countryCode": "RU",
    "state": "87f3f136-9069-4aa5-b63d-20cf0fa38657",
    "stateCode": "AL",
    "latitude": "50.66667000",
    "longitude": "86.50000000"
  },
  {
    "id": "0034c123-d7fc-4848-9bf6-073e9cfe69a1",
    "name": "Shebalino",
    "ru": "Shebalino",
    "country": "e0dc83a1-8246-4a52-aa57-c9a7875befeb",
    "countryCode": "RU",
    "state": "87f3f136-9069-4aa5-b63d-20cf0fa38657",
    "stateCode": "AL",
    "latitude": "51.29167000",
    "longitude": "85.67722000"
  },
  {
    "id": "51f97981-0f48-4730-ba04-5e584e05b34b",
    "name": "Shebalinskiy Rayon",
    "ru": "Shebalinskiy Rayon",
    "country": "e0dc83a1-8246-4a52-aa57-c9a7875befeb",
    "countryCode": "RU",
    "state": "87f3f136-9069-4aa5-b63d-20cf0fa38657",
    "stateCode": "AL",
    "latitude": "51.33333000",
    "longitude": "85.50000000"
  },
  {
    "id": "2ef4d71e-4004-4b0b-8968-5138c2ff9fda",
    "name": "Souzga",
    "ru": "Souzga",
    "country": "e0dc83a1-8246-4a52-aa57-c9a7875befeb",
    "countryCode": "RU",
    "state": "87f3f136-9069-4aa5-b63d-20cf0fa38657",
    "stateCode": "AL",
    "latitude": "51.88722000",
    "longitude": "85.84944000"
  },
  {
    "id": "c49c5eb9-888c-443c-8c50-45b8151847cb",
    "name": "Tashanta",
    "ru": "Tashanta",
    "country": "e0dc83a1-8246-4a52-aa57-c9a7875befeb",
    "countryCode": "RU",
    "state": "87f3f136-9069-4aa5-b63d-20cf0fa38657",
    "stateCode": "AL",
    "latitude": "49.71573000",
    "longitude": "89.19425000"
  },
  {
    "id": "e7f98453-8aa5-4169-895c-d0601a2891d5",
    "name": "Turochak",
    "ru": "Turochak",
    "country": "e0dc83a1-8246-4a52-aa57-c9a7875befeb",
    "countryCode": "RU",
    "state": "87f3f136-9069-4aa5-b63d-20cf0fa38657",
    "stateCode": "AL",
    "latitude": "52.25760000",
    "longitude": "87.12240000"
  },
  {
    "id": "a5c44dea-9aa3-41b3-b3c2-2bf814bbc29b",
    "name": "Ust’-Kan",
    "ru": "Ust’-Kan",
    "country": "e0dc83a1-8246-4a52-aa57-c9a7875befeb",
    "countryCode": "RU",
    "state": "87f3f136-9069-4aa5-b63d-20cf0fa38657",
    "stateCode": "AL",
    "latitude": "50.92760000",
    "longitude": "84.76100000"
  },
  {
    "id": "67789200-8391-4615-bd79-4369804a36d0",
    "name": "Ust’-Koksa",
    "ru": "Ust’-Koksa",
    "country": "e0dc83a1-8246-4a52-aa57-c9a7875befeb",
    "countryCode": "RU",
    "state": "87f3f136-9069-4aa5-b63d-20cf0fa38657",
    "stateCode": "AL",
    "latitude": "50.26960000",
    "longitude": "85.61080000"
  },
  {
    "id": "d3641abc-9fee-4e0c-9ce4-360f115b672f",
    "name": "Ust’-Koksinskiy Rayon",
    "ru": "Ust’-Koksinskiy Rayon",
    "country": "e0dc83a1-8246-4a52-aa57-c9a7875befeb",
    "countryCode": "RU",
    "state": "87f3f136-9069-4aa5-b63d-20cf0fa38657",
    "stateCode": "AL",
    "latitude": "50.16667000",
    "longitude": "85.58333000"
  },
  {
    "id": "b7206cc3-9574-41fa-8195-17a6b48493a6",
    "name": "Ust’-Ulagan",
    "ru": "Ust’-Ulagan",
    "country": "e0dc83a1-8246-4a52-aa57-c9a7875befeb",
    "countryCode": "RU",
    "state": "87f3f136-9069-4aa5-b63d-20cf0fa38657",
    "stateCode": "AL",
    "latitude": "50.63258000",
    "longitude": "87.96046000"
  },
  {
    "id": "f95e8725-fac1-49e6-9ca4-cfe36b1fe3d0",
    "name": "Arkhara",
    "ru": "Arkhara",
    "country": "e0dc83a1-8246-4a52-aa57-c9a7875befeb",
    "countryCode": "RU",
    "state": "43bf94c2-3563-4da5-be51-74e6eef2f9a9",
    "stateCode": "AMU",
    "latitude": "49.42447000",
    "longitude": "130.08569000"
  },
  {
    "id": "cc4d5f58-4f93-4478-8b43-02b6eeecc3d3",
    "name": "Arkharinskiy Rayon",
    "ru": "Arkharinskiy Rayon",
    "country": "e0dc83a1-8246-4a52-aa57-c9a7875befeb",
    "countryCode": "RU",
    "state": "43bf94c2-3563-4da5-be51-74e6eef2f9a9",
    "stateCode": "AMU",
    "latitude": "49.50000000",
    "longitude": "130.66667000"
  },
  {
    "id": "3c6a7954-00a9-4594-b244-676ee1c7e2d5",
    "name": "Belogorsk",
    "ru": "Belogorsk",
    "country": "e0dc83a1-8246-4a52-aa57-c9a7875befeb",
    "countryCode": "RU",
    "state": "43bf94c2-3563-4da5-be51-74e6eef2f9a9",
    "stateCode": "AMU",
    "latitude": "50.91644000",
    "longitude": "128.47726000"
  },
  {
    "id": "82d0218e-6cb6-4723-864b-b120e89b59f2",
    "name": "Belogorskiy Rayon",
    "ru": "Belogorskiy Rayon",
    "country": "e0dc83a1-8246-4a52-aa57-c9a7875befeb",
    "countryCode": "RU",
    "state": "43bf94c2-3563-4da5-be51-74e6eef2f9a9",
    "stateCode": "AMU",
    "latitude": "50.75000000",
    "longitude": "128.50000000"
  },
  {
    "id": "f75b84f2-fed6-40cf-aea3-5f8f45e694aa",
    "name": "Blagoveshchensk",
    "ru": "Blagoveshchensk",
    "country": "e0dc83a1-8246-4a52-aa57-c9a7875befeb",
    "countryCode": "RU",
    "state": "43bf94c2-3563-4da5-be51-74e6eef2f9a9",
    "stateCode": "AMU",
    "latitude": "50.27961000",
    "longitude": "127.54050000"
  },
  {
    "id": "c3b76034-904c-4c71-94ba-5aeff507da91",
    "name": "Blagoveshchenskiy Rayon",
    "ru": "Blagoveshchenskiy Rayon",
    "country": "e0dc83a1-8246-4a52-aa57-c9a7875befeb",
    "countryCode": "RU",
    "state": "43bf94c2-3563-4da5-be51-74e6eef2f9a9",
    "stateCode": "AMU",
    "latitude": "50.75000000",
    "longitude": "127.50000000"
  },
  {
    "id": "ab8f5250-9473-450f-a06b-bed612c37c6c",
    "name": "Bureya",
    "ru": "Bureya",
    "country": "e0dc83a1-8246-4a52-aa57-c9a7875befeb",
    "countryCode": "RU",
    "state": "43bf94c2-3563-4da5-be51-74e6eef2f9a9",
    "stateCode": "AMU",
    "latitude": "49.81212000",
    "longitude": "129.81278000"
  },
  {
    "id": "763e6d7b-28ad-4643-b84d-e7dc526912c0",
    "name": "Bureyskiy Rayon",
    "ru": "Bureyskiy Rayon",
    "country": "e0dc83a1-8246-4a52-aa57-c9a7875befeb",
    "countryCode": "RU",
    "state": "43bf94c2-3563-4da5-be51-74e6eef2f9a9",
    "stateCode": "AMU",
    "latitude": "50.00000000",
    "longitude": "130.00000000"
  },
  {
    "id": "afb2cc20-234d-44bb-b4f0-1b1cacd83a0d",
    "name": "Ekimchan",
    "ru": "Ekimchan",
    "country": "e0dc83a1-8246-4a52-aa57-c9a7875befeb",
    "countryCode": "RU",
    "state": "43bf94c2-3563-4da5-be51-74e6eef2f9a9",
    "stateCode": "AMU",
    "latitude": "53.06972000",
    "longitude": "132.94011000"
  },
  {
    "id": "c3e65d44-cfb2-45fa-8acf-a453a3df5940",
    "name": "Gorod Blagoveshchensk",
    "ru": "Gorod Blagoveshchensk",
    "country": "e0dc83a1-8246-4a52-aa57-c9a7875befeb",
    "countryCode": "RU",
    "state": "43bf94c2-3563-4da5-be51-74e6eef2f9a9",
    "stateCode": "AMU",
    "latitude": "50.40000000",
    "longitude": "127.60000000"
  },
  {
    "id": "61ead2aa-5dbc-4879-ac03-f3d458a6a45e",
    "name": "Gorod Raychikhinsk",
    "ru": "Gorod Raychikhinsk",
    "country": "e0dc83a1-8246-4a52-aa57-c9a7875befeb",
    "countryCode": "RU",
    "state": "43bf94c2-3563-4da5-be51-74e6eef2f9a9",
    "stateCode": "AMU",
    "latitude": "49.75000000",
    "longitude": "129.41667000"
  },
  {
    "id": "cef897ed-8f98-438e-8e4c-32947e9e3f11",
    "name": "Ivanovskiy Rayon",
    "ru": "Ivanovskiy Rayon",
    "country": "e0dc83a1-8246-4a52-aa57-c9a7875befeb",
    "countryCode": "RU",
    "state": "43bf94c2-3563-4da5-be51-74e6eef2f9a9",
    "stateCode": "AMU",
    "latitude": "50.45611000",
    "longitude": "127.99778000"
  },
  {
    "id": "cf1057f0-7a6b-4444-8cc5-75bdc1b5430b",
    "name": "Konstantinovka",
    "ru": "Konstantinovka",
    "country": "e0dc83a1-8246-4a52-aa57-c9a7875befeb",
    "countryCode": "RU",
    "state": "43bf94c2-3563-4da5-be51-74e6eef2f9a9",
    "stateCode": "AMU",
    "latitude": "49.61876000",
    "longitude": "127.99025000"
  },
  {
    "id": "27d496b1-7a63-40a5-b647-02484b05f403",
    "name": "Konstantinovskiy Rayon",
    "ru": "Konstantinovskiy Rayon",
    "country": "e0dc83a1-8246-4a52-aa57-c9a7875befeb",
    "countryCode": "RU",
    "state": "43bf94c2-3563-4da5-be51-74e6eef2f9a9",
    "stateCode": "AMU",
    "latitude": "49.75000000",
    "longitude": "128.16667000"
  },
  {
    "id": "4b3bf19e-2f07-467a-b82c-867691005a30",
    "name": "Magdagachi",
    "ru": "Magdagachi",
    "country": "e0dc83a1-8246-4a52-aa57-c9a7875befeb",
    "countryCode": "RU",
    "state": "43bf94c2-3563-4da5-be51-74e6eef2f9a9",
    "stateCode": "AMU",
    "latitude": "53.45398000",
    "longitude": "125.80932000"
  },
  {
    "id": "d69beaf1-7527-4d4f-b283-7aab6e869c76",
    "name": "Magdagachinskiy Rayon",
    "ru": "Magdagachinskiy Rayon",
    "country": "e0dc83a1-8246-4a52-aa57-c9a7875befeb",
    "countryCode": "RU",
    "state": "43bf94c2-3563-4da5-be51-74e6eef2f9a9",
    "stateCode": "AMU",
    "latitude": "53.33333000",
    "longitude": "126.00000000"
  },
  {
    "id": "1d9b3fc5-ce12-4297-9f79-488fe2c50dca",
    "name": "Mazanovskiy Rayon",
    "ru": "Mazanovskiy Rayon",
    "country": "e0dc83a1-8246-4a52-aa57-c9a7875befeb",
    "countryCode": "RU",
    "state": "43bf94c2-3563-4da5-be51-74e6eef2f9a9",
    "stateCode": "AMU",
    "latitude": "52.16667000",
    "longitude": "129.50000000"
  },
  {
    "id": "f6243b0c-93b4-41f7-a36b-a71e5608004b",
    "name": "Mikhaylovskiy Rayon",
    "ru": "Mikhaylovskiy Rayon",
    "country": "e0dc83a1-8246-4a52-aa57-c9a7875befeb",
    "countryCode": "RU",
    "state": "43bf94c2-3563-4da5-be51-74e6eef2f9a9",
    "stateCode": "AMU",
    "latitude": "49.75000000",
    "longitude": "128.75000000"
  },
  {
    "id": "f8917e7e-2122-4c68-8b61-63f15f63051b",
    "name": "Never",
    "ru": "Never",
    "country": "e0dc83a1-8246-4a52-aa57-c9a7875befeb",
    "countryCode": "RU",
    "state": "43bf94c2-3563-4da5-be51-74e6eef2f9a9",
    "stateCode": "AMU",
    "latitude": "53.97946000",
    "longitude": "124.15777000"
  },
  {
    "id": "a5ab29ab-eb35-4116-b18c-d146e6a79862",
    "name": "Novobureyskiy",
    "ru": "Novobureyskiy",
    "country": "e0dc83a1-8246-4a52-aa57-c9a7875befeb",
    "countryCode": "RU",
    "state": "43bf94c2-3563-4da5-be51-74e6eef2f9a9",
    "stateCode": "AMU",
    "latitude": "49.79695000",
    "longitude": "129.87443000"
  },
  {
    "id": "42b0f2db-5dfc-4e44-9f74-66457fbc83ff",
    "name": "Novoraychikhinsk",
    "ru": "Novoraychikhinsk",
    "country": "e0dc83a1-8246-4a52-aa57-c9a7875befeb",
    "countryCode": "RU",
    "state": "43bf94c2-3563-4da5-be51-74e6eef2f9a9",
    "stateCode": "AMU",
    "latitude": "49.78423000",
    "longitude": "129.59051000"
  },
  {
    "id": "fee5fbf1-dc10-4e02-9d11-60da92920096",
    "name": "Oktyabr’skiy Rayon",
    "ru": "Oktyabr’skiy Rayon",
    "country": "e0dc83a1-8246-4a52-aa57-c9a7875befeb",
    "countryCode": "RU",
    "state": "43bf94c2-3563-4da5-be51-74e6eef2f9a9",
    "stateCode": "AMU",
    "latitude": "50.33333000",
    "longitude": "129.00000000"
  },
  {
    "id": "92960c92-009e-4724-afb4-fc250ec0deb0",
    "name": "Ovsyanka",
    "ru": "Ovsyanka",
    "country": "e0dc83a1-8246-4a52-aa57-c9a7875befeb",
    "countryCode": "RU",
    "state": "43bf94c2-3563-4da5-be51-74e6eef2f9a9",
    "stateCode": "AMU",
    "latitude": "53.57868000",
    "longitude": "126.89623000"
  },
  {
    "id": "2b7c069a-f539-46a4-bb5d-b8d4834faecf",
    "name": "Poyarkovo",
    "ru": "Poyarkovo",
    "country": "e0dc83a1-8246-4a52-aa57-c9a7875befeb",
    "countryCode": "RU",
    "state": "43bf94c2-3563-4da5-be51-74e6eef2f9a9",
    "stateCode": "AMU",
    "latitude": "49.62678000",
    "longitude": "128.65352000"
  },
  {
    "id": "3b0410aa-9102-4631-af6d-0bd13e3d6156",
    "name": "Raychikhinsk",
    "ru": "Raychikhinsk",
    "country": "e0dc83a1-8246-4a52-aa57-c9a7875befeb",
    "countryCode": "RU",
    "state": "43bf94c2-3563-4da5-be51-74e6eef2f9a9",
    "stateCode": "AMU",
    "latitude": "49.78998000",
    "longitude": "129.40992000"
  },
  {
    "id": "5a9f0d62-5718-4957-b169-61f911f6e01c",
    "name": "Romnenskiy Rayon",
    "ru": "Romnenskiy Rayon",
    "country": "e0dc83a1-8246-4a52-aa57-c9a7875befeb",
    "countryCode": "RU",
    "state": "43bf94c2-3563-4da5-be51-74e6eef2f9a9",
    "stateCode": "AMU",
    "latitude": "51.00000000",
    "longitude": "130.00000000"
  },
  {
    "id": "fa98995a-0538-40ca-8d30-e8c4b5c51934",
    "name": "Romny",
    "ru": "Romny",
    "country": "e0dc83a1-8246-4a52-aa57-c9a7875befeb",
    "countryCode": "RU",
    "state": "43bf94c2-3563-4da5-be51-74e6eef2f9a9",
    "stateCode": "AMU",
    "latitude": "50.72070000",
    "longitude": "129.29122000"
  },
  {
    "id": "a9c6a97a-4d8d-4ed4-bd5a-c5099e2319b4",
    "name": "Selemdzhinskiy Rayon",
    "ru": "Selemdzhinskiy Rayon",
    "country": "e0dc83a1-8246-4a52-aa57-c9a7875befeb",
    "countryCode": "RU",
    "state": "43bf94c2-3563-4da5-be51-74e6eef2f9a9",
    "stateCode": "AMU",
    "latitude": "52.50000000",
    "longitude": "132.00000000"
  },
  {
    "id": "c4840ab5-3725-43d4-917b-80c776177d46",
    "name": "Seryshevo",
    "ru": "Seryshevo",
    "country": "e0dc83a1-8246-4a52-aa57-c9a7875befeb",
    "countryCode": "RU",
    "state": "43bf94c2-3563-4da5-be51-74e6eef2f9a9",
    "stateCode": "AMU",
    "latitude": "51.09391000",
    "longitude": "128.38258000"
  },
  {
    "id": "a0be391c-6d74-4fe9-98a7-b42233c0c003",
    "name": "Seryshevskiy Rayon",
    "ru": "Seryshevskiy Rayon",
    "country": "e0dc83a1-8246-4a52-aa57-c9a7875befeb",
    "countryCode": "RU",
    "state": "43bf94c2-3563-4da5-be51-74e6eef2f9a9",
    "stateCode": "AMU",
    "latitude": "51.16667000",
    "longitude": "128.50000000"
  },
  {
    "id": "e311f251-ead5-41a5-a19c-1d95882f8ac8",
    "name": "Shimanovsk",
    "ru": "Shimanovsk",
    "country": "e0dc83a1-8246-4a52-aa57-c9a7875befeb",
    "countryCode": "RU",
    "state": "43bf94c2-3563-4da5-be51-74e6eef2f9a9",
    "stateCode": "AMU",
    "latitude": "52.00575000",
    "longitude": "127.67756000"
  },
  {
    "id": "b20cc044-2ee6-45df-a27a-fbd89fc7596d",
    "name": "Shimanovskiy Rayon",
    "ru": "Shimanovskiy Rayon",
    "country": "e0dc83a1-8246-4a52-aa57-c9a7875befeb",
    "countryCode": "RU",
    "state": "43bf94c2-3563-4da5-be51-74e6eef2f9a9",
    "stateCode": "AMU",
    "latitude": "52.16667000",
    "longitude": "127.50000000"
  },
  {
    "id": "295a0951-4593-4453-a13d-1d38b5d23905",
    "name": "Shirokiy",
    "ru": "Shirokiy",
    "country": "e0dc83a1-8246-4a52-aa57-c9a7875befeb",
    "countryCode": "RU",
    "state": "43bf94c2-3563-4da5-be51-74e6eef2f9a9",
    "stateCode": "AMU",
    "latitude": "49.75907000",
    "longitude": "129.51988000"
  },
  {
    "id": "b2b96b2a-77a8-4d0b-a26b-3ea96a1969a6",
    "name": "Sivaki",
    "ru": "Sivaki",
    "country": "e0dc83a1-8246-4a52-aa57-c9a7875befeb",
    "countryCode": "RU",
    "state": "43bf94c2-3563-4da5-be51-74e6eef2f9a9",
    "stateCode": "AMU",
    "latitude": "52.63430000",
    "longitude": "126.74777000"
  },
  {
    "id": "489f2253-d594-4acf-aa4b-d601878a250b",
    "name": "Skovorodino",
    "ru": "Skovorodino",
    "country": "e0dc83a1-8246-4a52-aa57-c9a7875befeb",
    "countryCode": "RU",
    "state": "43bf94c2-3563-4da5-be51-74e6eef2f9a9",
    "stateCode": "AMU",
    "latitude": "53.98473000",
    "longitude": "123.94030000"
  },
  {
    "id": "cc00033d-98dc-44e7-adb1-db02ac11b61d",
    "name": "Skovorodinskiy Rayon",
    "ru": "Skovorodinskiy Rayon",
    "country": "e0dc83a1-8246-4a52-aa57-c9a7875befeb",
    "countryCode": "RU",
    "state": "43bf94c2-3563-4da5-be51-74e6eef2f9a9",
    "stateCode": "AMU",
    "latitude": "53.83333000",
    "longitude": "123.50000000"
  },
  {
    "id": "6ada963b-33d6-4e16-a5ea-35633c120188",
    "name": "Solovjevsk",
    "ru": "Solovjevsk",
    "country": "e0dc83a1-8246-4a52-aa57-c9a7875befeb",
    "countryCode": "RU",
    "state": "43bf94c2-3563-4da5-be51-74e6eef2f9a9",
    "stateCode": "AMU",
    "latitude": "54.23333000",
    "longitude": "124.43333000"
  },
  {
    "id": "19a5224e-f99b-4224-82fa-f4a9d58df4ef",
    "name": "Srednebelaya",
    "ru": "Srednebelaya",
    "country": "e0dc83a1-8246-4a52-aa57-c9a7875befeb",
    "countryCode": "RU",
    "state": "43bf94c2-3563-4da5-be51-74e6eef2f9a9",
    "stateCode": "AMU",
    "latitude": "50.65854000",
    "longitude": "128.00932000"
  },
  {
    "id": "13a3c7cd-2c03-47d1-b723-e04a2d31b071",
    "name": "Svobodnenskiy Rayon",
    "ru": "Svobodnenskiy Rayon",
    "country": "e0dc83a1-8246-4a52-aa57-c9a7875befeb",
    "countryCode": "RU",
    "state": "43bf94c2-3563-4da5-be51-74e6eef2f9a9",
    "stateCode": "AMU",
    "latitude": "51.50000000",
    "longitude": "127.83333000"
  },
  {
    "id": "2fdcfcf1-771d-407e-9738-ff6579262fc7",
    "name": "Svobodnyy",
    "ru": "Svobodnyy",
    "country": "e0dc83a1-8246-4a52-aa57-c9a7875befeb",
    "countryCode": "RU",
    "state": "43bf94c2-3563-4da5-be51-74e6eef2f9a9",
    "stateCode": "AMU",
    "latitude": "51.37525000",
    "longitude": "128.14097000"
  },
  {
    "id": "a3d40b1e-675e-4703-95f0-ded0da9d7785",
    "name": "Takhtamygda",
    "ru": "Takhtamygda",
    "country": "e0dc83a1-8246-4a52-aa57-c9a7875befeb",
    "countryCode": "RU",
    "state": "43bf94c2-3563-4da5-be51-74e6eef2f9a9",
    "stateCode": "AMU",
    "latitude": "54.11031000",
    "longitude": "123.60802000"
  },
  {
    "id": "2d45eee8-9b96-47c9-ad0c-8ad6439546c0",
    "name": "Talakan",
    "ru": "Talakan",
    "country": "e0dc83a1-8246-4a52-aa57-c9a7875befeb",
    "countryCode": "RU",
    "state": "43bf94c2-3563-4da5-be51-74e6eef2f9a9",
    "stateCode": "AMU",
    "latitude": "50.26378000",
    "longitude": "130.26755000"
  },
  {
    "id": "3c55cbb4-f6d6-4308-be9b-761fc4068d68",
    "name": "Taldan",
    "ru": "Taldan",
    "country": "e0dc83a1-8246-4a52-aa57-c9a7875befeb",
    "countryCode": "RU",
    "state": "43bf94c2-3563-4da5-be51-74e6eef2f9a9",
    "stateCode": "AMU",
    "latitude": "53.68981000",
    "longitude": "124.81490000"
  },
  {
    "id": "5db2279f-d3b1-48c2-8783-27c381d47874",
    "name": "Tambovka",
    "ru": "Tambovka",
    "country": "e0dc83a1-8246-4a52-aa57-c9a7875befeb",
    "countryCode": "RU",
    "state": "43bf94c2-3563-4da5-be51-74e6eef2f9a9",
    "stateCode": "AMU",
    "latitude": "50.09968000",
    "longitude": "128.05724000"
  },
  {
    "id": "75ed42d6-ea87-4550-9bd3-a71574e1aefe",
    "name": "Tambovskiy Rayon",
    "ru": "Tambovskiy Rayon",
    "country": "e0dc83a1-8246-4a52-aa57-c9a7875befeb",
    "countryCode": "RU",
    "state": "43bf94c2-3563-4da5-be51-74e6eef2f9a9",
    "stateCode": "AMU",
    "latitude": "50.08333000",
    "longitude": "128.00000000"
  },
  {
    "id": "f2c4559c-2ebb-492e-897d-12601f7a1886",
    "name": "Tokur",
    "ru": "Tokur",
    "country": "e0dc83a1-8246-4a52-aa57-c9a7875befeb",
    "countryCode": "RU",
    "state": "43bf94c2-3563-4da5-be51-74e6eef2f9a9",
    "stateCode": "AMU",
    "latitude": "53.13531000",
    "longitude": "132.88996000"
  },
  {
    "id": "4056c79f-162b-4cab-acbd-20b512f9f315",
    "name": "Tsiolkovskiy",
    "ru": "Tsiolkovskiy",
    "country": "e0dc83a1-8246-4a52-aa57-c9a7875befeb",
    "countryCode": "RU",
    "state": "43bf94c2-3563-4da5-be51-74e6eef2f9a9",
    "stateCode": "AMU",
    "latitude": "51.76694000",
    "longitude": "128.11472000"
  },
  {
    "id": "1564e160-420a-4ad1-8248-ff2d02795181",
    "name": "Tygda",
    "ru": "Tygda",
    "country": "e0dc83a1-8246-4a52-aa57-c9a7875befeb",
    "countryCode": "RU",
    "state": "43bf94c2-3563-4da5-be51-74e6eef2f9a9",
    "stateCode": "AMU",
    "latitude": "53.11169000",
    "longitude": "126.32907000"
  },
  {
    "id": "97d87d54-0e9c-4d54-8c7d-521dfecdd4dd",
    "name": "Tynda",
    "ru": "Tynda",
    "country": "e0dc83a1-8246-4a52-aa57-c9a7875befeb",
    "countryCode": "RU",
    "state": "43bf94c2-3563-4da5-be51-74e6eef2f9a9",
    "stateCode": "AMU",
    "latitude": "55.15600000",
    "longitude": "124.72479000"
  },
  {
    "id": "024462fb-fae4-490e-b5bf-590a182569de",
    "name": "Tyndinskiy Rayon",
    "ru": "Tyndinskiy Rayon",
    "country": "e0dc83a1-8246-4a52-aa57-c9a7875befeb",
    "countryCode": "RU",
    "state": "43bf94c2-3563-4da5-be51-74e6eef2f9a9",
    "stateCode": "AMU",
    "latitude": "55.33333000",
    "longitude": "123.50000000"
  },
  {
    "id": "465cbf02-9884-4f37-9605-3b04105da817",
    "name": "Urusha",
    "ru": "Urusha",
    "country": "e0dc83a1-8246-4a52-aa57-c9a7875befeb",
    "countryCode": "RU",
    "state": "43bf94c2-3563-4da5-be51-74e6eef2f9a9",
    "stateCode": "AMU",
    "latitude": "54.05303000",
    "longitude": "122.88561000"
  },
  {
    "id": "557305c4-3777-4249-8dfb-d9871fdda8dc",
    "name": "Ushumun",
    "ru": "Ushumun",
    "country": "e0dc83a1-8246-4a52-aa57-c9a7875befeb",
    "countryCode": "RU",
    "state": "43bf94c2-3563-4da5-be51-74e6eef2f9a9",
    "stateCode": "AMU",
    "latitude": "52.78633000",
    "longitude": "126.53767000"
  },
  {
    "id": "12b5578b-f6ef-4b8a-b289-6e8f9498abe9",
    "name": "Yekaterinoslavka",
    "ru": "Yekaterinoslavka",
    "country": "e0dc83a1-8246-4a52-aa57-c9a7875befeb",
    "countryCode": "RU",
    "state": "43bf94c2-3563-4da5-be51-74e6eef2f9a9",
    "stateCode": "AMU",
    "latitude": "50.37344000",
    "longitude": "129.10957000"
  },
  {
    "id": "a35c7172-ce5a-4aa2-95c1-4fb03a62069a",
    "name": "Yerofey Pavlovich",
    "ru": "Yerofey Pavlovich",
    "country": "e0dc83a1-8246-4a52-aa57-c9a7875befeb",
    "countryCode": "RU",
    "state": "43bf94c2-3563-4da5-be51-74e6eef2f9a9",
    "stateCode": "AMU",
    "latitude": "53.96305000",
    "longitude": "121.95805000"
  },
  {
    "id": "d9acd38d-e8fb-4379-90d2-3d8caf99467a",
    "name": "Zavitinsk",
    "ru": "Zavitinsk",
    "country": "e0dc83a1-8246-4a52-aa57-c9a7875befeb",
    "countryCode": "RU",
    "state": "43bf94c2-3563-4da5-be51-74e6eef2f9a9",
    "stateCode": "AMU",
    "latitude": "50.11118000",
    "longitude": "129.44156000"
  },
  {
    "id": "3847eab3-06f3-4ab9-93a2-1713451ea75f",
    "name": "Zavitinskiy Rayon",
    "ru": "Zavitinskiy Rayon",
    "country": "e0dc83a1-8246-4a52-aa57-c9a7875befeb",
    "countryCode": "RU",
    "state": "43bf94c2-3563-4da5-be51-74e6eef2f9a9",
    "stateCode": "AMU",
    "latitude": "50.16667000",
    "longitude": "129.50000000"
  },
  {
    "id": "ffe2d853-2ca5-4c8b-b486-533c988e2252",
    "name": "Zeya",
    "ru": "Zeya",
    "country": "e0dc83a1-8246-4a52-aa57-c9a7875befeb",
    "countryCode": "RU",
    "state": "43bf94c2-3563-4da5-be51-74e6eef2f9a9",
    "stateCode": "AMU",
    "latitude": "53.73601000",
    "longitude": "127.25700000"
  },
  {
    "id": "f0d8f1bf-9003-4566-bd9f-ef16081fe8ad",
    "name": "Zeyskiy Rayon",
    "ru": "Zeyskiy Rayon",
    "country": "e0dc83a1-8246-4a52-aa57-c9a7875befeb",
    "countryCode": "RU",
    "state": "43bf94c2-3563-4da5-be51-74e6eef2f9a9",
    "stateCode": "AMU",
    "latitude": "54.50000000",
    "longitude": "128.50000000"
  },
  {
    "id": "fe7f3b6c-4f0c-4eba-bb3d-8ebe7254823d",
    "name": "Arkhangel’sk",
    "ru": "Arkhangel’sk",
    "country": "e0dc83a1-8246-4a52-aa57-c9a7875befeb",
    "countryCode": "RU",
    "state": "2f57bb3d-2196-491e-ac6e-a4b3c028fa73",
    "stateCode": "ARK",
    "latitude": "64.54010000",
    "longitude": "40.54330000"
  },
  {
    "id": "42811fd5-2de0-4a2c-9aa0-c6b2f6be4f87",
    "name": "Berëznik",
    "ru": "Berëznik",
    "country": "e0dc83a1-8246-4a52-aa57-c9a7875befeb",
    "countryCode": "RU",
    "state": "2f57bb3d-2196-491e-ac6e-a4b3c028fa73",
    "stateCode": "ARK",
    "latitude": "62.85200000",
    "longitude": "42.70710000"
  },
  {
    "id": "c0636d61-44b9-4a5c-8cb0-3f51f1d1520f",
    "name": "Cheremushskiy",
    "ru": "Cheremushskiy",
    "country": "e0dc83a1-8246-4a52-aa57-c9a7875befeb",
    "countryCode": "RU",
    "state": "2f57bb3d-2196-491e-ac6e-a4b3c028fa73",
    "stateCode": "ARK",
    "latitude": "61.27306000",
    "longitude": "47.26361000"
  },
  {
    "id": "7980c4ed-bed8-4637-9828-5700f9ec059b",
    "name": "Dvinskoy",
    "ru": "Dvinskoy",
    "country": "e0dc83a1-8246-4a52-aa57-c9a7875befeb",
    "countryCode": "RU",
    "state": "2f57bb3d-2196-491e-ac6e-a4b3c028fa73",
    "stateCode": "ARK",
    "latitude": "62.15190000",
    "longitude": "45.11840000"
  },
  {
    "id": "f10c0ca0-1edd-4b2a-9199-778352590e25",
    "name": "Il’insko-Podomskoye",
    "ru": "Il’insko-Podomskoye",
    "country": "e0dc83a1-8246-4a52-aa57-c9a7875befeb",
    "countryCode": "RU",
    "state": "2f57bb3d-2196-491e-ac6e-a4b3c028fa73",
    "stateCode": "ARK",
    "latitude": "61.11444000",
    "longitude": "47.97861000"
  },
  {
    "id": "a023f5ef-af96-49bd-ab62-a7abcc2c1cbd",
    "name": "Ileza",
    "ru": "Ileza",
    "country": "e0dc83a1-8246-4a52-aa57-c9a7875befeb",
    "countryCode": "RU",
    "state": "2f57bb3d-2196-491e-ac6e-a4b3c028fa73",
    "stateCode": "ARK",
    "latitude": "61.05328000",
    "longitude": "43.90021000"
  },
  {
    "id": "b50638f3-1d3f-480a-90d1-19e363aac17a",
    "name": "Isakogorka",
    "ru": "Isakogorka",
    "country": "e0dc83a1-8246-4a52-aa57-c9a7875befeb",
    "countryCode": "RU",
    "state": "2f57bb3d-2196-491e-ac6e-a4b3c028fa73",
    "stateCode": "ARK",
    "latitude": "64.44600000",
    "longitude": "40.65310000"
  },
  {
    "id": "eeab5935-89ba-4602-b0c3-c986c85fc7fc",
    "name": "Kamenka",
    "ru": "Kamenka",
    "country": "e0dc83a1-8246-4a52-aa57-c9a7875befeb",
    "countryCode": "RU",
    "state": "2f57bb3d-2196-491e-ac6e-a4b3c028fa73",
    "stateCode": "ARK",
    "latitude": "65.88350000",
    "longitude": "44.12720000"
  },
  {
    "id": "1082ad6f-3c75-4ff5-97bf-a0225ab40442",
    "name": "Kargopol’",
    "ru": "Kargopol’",
    "country": "e0dc83a1-8246-4a52-aa57-c9a7875befeb",
    "countryCode": "RU",
    "state": "2f57bb3d-2196-491e-ac6e-a4b3c028fa73",
    "stateCode": "ARK",
    "latitude": "61.50359000",
    "longitude": "38.94860000"
  },
  {
    "id": "99867370-250c-4687-bf50-631e1a9af143",
    "name": "Kargopol’skiy Rayon",
    "ru": "Kargopol’skiy Rayon",
    "country": "e0dc83a1-8246-4a52-aa57-c9a7875befeb",
    "countryCode": "RU",
    "state": "2f57bb3d-2196-491e-ac6e-a4b3c028fa73",
    "stateCode": "ARK",
    "latitude": "61.33333000",
    "longitude": "39.00000000"
  },
  {
    "id": "bdb85145-b013-424f-ba8a-5e3d90bdac9d",
    "name": "Karpogory",
    "ru": "Karpogory",
    "country": "e0dc83a1-8246-4a52-aa57-c9a7875befeb",
    "countryCode": "RU",
    "state": "2f57bb3d-2196-491e-ac6e-a4b3c028fa73",
    "stateCode": "ARK",
    "latitude": "64.00189000",
    "longitude": "44.44513000"
  },
  {
    "id": "ebc9d876-adfe-4bfc-abb5-3ef7cb5a761a",
    "name": "Katunino",
    "ru": "Katunino",
    "country": "e0dc83a1-8246-4a52-aa57-c9a7875befeb",
    "countryCode": "RU",
    "state": "2f57bb3d-2196-491e-ac6e-a4b3c028fa73",
    "stateCode": "ARK",
    "latitude": "64.38620000",
    "longitude": "40.62980000"
  },
  {
    "id": "0bdf96f0-c34b-4c2a-a334-a646f237ea7d",
    "name": "Kharitonovo",
    "ru": "Kharitonovo",
    "country": "e0dc83a1-8246-4a52-aa57-c9a7875befeb",
    "countryCode": "RU",
    "state": "2f57bb3d-2196-491e-ac6e-a4b3c028fa73",
    "stateCode": "ARK",
    "latitude": "61.40092000",
    "longitude": "47.49779000"
  },
  {
    "id": "6a1fd848-a7cb-4511-8616-f1ee2cd900a7",
    "name": "Kholmogorskiy Rayon",
    "ru": "Kholmogorskiy Rayon",
    "country": "e0dc83a1-8246-4a52-aa57-c9a7875befeb",
    "countryCode": "RU",
    "state": "2f57bb3d-2196-491e-ac6e-a4b3c028fa73",
    "stateCode": "ARK",
    "latitude": "64.08333000",
    "longitude": "41.66667000"
  },
  {
    "id": "f3832169-8ce9-4596-9de5-4ec08edabd9c",
    "name": "Kholmogory",
    "ru": "Kholmogory",
    "country": "e0dc83a1-8246-4a52-aa57-c9a7875befeb",
    "countryCode": "RU",
    "state": "2f57bb3d-2196-491e-ac6e-a4b3c028fa73",
    "stateCode": "ARK",
    "latitude": "64.22290000",
    "longitude": "41.65600000"
  },
  {
    "id": "1ea686f2-5d01-4ec2-a9a5-5f207c75979a",
    "name": "Kizema",
    "ru": "Kizema",
    "country": "e0dc83a1-8246-4a52-aa57-c9a7875befeb",
    "countryCode": "RU",
    "state": "2f57bb3d-2196-491e-ac6e-a4b3c028fa73",
    "stateCode": "ARK",
    "latitude": "61.11304000",
    "longitude": "44.83017000"
  },
  {
    "id": "bd172429-5052-4d6c-92ac-95fc43a1e667",
    "name": "Kodino",
    "ru": "Kodino",
    "country": "e0dc83a1-8246-4a52-aa57-c9a7875befeb",
    "countryCode": "RU",
    "state": "2f57bb3d-2196-491e-ac6e-a4b3c028fa73",
    "stateCode": "ARK",
    "latitude": "63.71976000",
    "longitude": "39.64465000"
  },
  {
    "id": "64611e4a-3e46-4067-88b2-1836d0482332",
    "name": "Konëvo",
    "ru": "Konëvo",
    "country": "e0dc83a1-8246-4a52-aa57-c9a7875befeb",
    "countryCode": "RU",
    "state": "2f57bb3d-2196-491e-ac6e-a4b3c028fa73",
    "stateCode": "ARK",
    "latitude": "62.11745000",
    "longitude": "39.33131000"
  },
  {
    "id": "63ea57f8-9c51-48b6-a5e9-c1b2cbc48716",
    "name": "Konosha",
    "ru": "Konosha",
    "country": "e0dc83a1-8246-4a52-aa57-c9a7875befeb",
    "countryCode": "RU",
    "state": "2f57bb3d-2196-491e-ac6e-a4b3c028fa73",
    "stateCode": "ARK",
    "latitude": "60.97360000",
    "longitude": "40.25700000"
  },
  {
    "id": "6fa9db25-1ca5-4e99-ac2c-4dd9994922da",
    "name": "Koryazhma",
    "ru": "Koryazhma",
    "country": "e0dc83a1-8246-4a52-aa57-c9a7875befeb",
    "countryCode": "RU",
    "state": "2f57bb3d-2196-491e-ac6e-a4b3c028fa73",
    "stateCode": "ARK",
    "latitude": "61.31433000",
    "longitude": "47.16914000"
  },
  {
    "id": "857938c8-a981-4c3f-8b03-505d5ce1069c",
    "name": "Kotlas",
    "ru": "Kotlas",
    "country": "e0dc83a1-8246-4a52-aa57-c9a7875befeb",
    "countryCode": "RU",
    "state": "2f57bb3d-2196-491e-ac6e-a4b3c028fa73",
    "stateCode": "ARK",
    "latitude": "61.25745000",
    "longitude": "46.64963000"
  },
  {
    "id": "ca6270c3-7c1b-4de5-a95c-d646310d6246",
    "name": "Kotlasskiy Rayon",
    "ru": "Kotlasskiy Rayon",
    "country": "e0dc83a1-8246-4a52-aa57-c9a7875befeb",
    "countryCode": "RU",
    "state": "2f57bb3d-2196-491e-ac6e-a4b3c028fa73",
    "stateCode": "ARK",
    "latitude": "61.16667000",
    "longitude": "46.33333000"
  },
  {
    "id": "212acb23-f9b5-4887-b1c6-7bf4f6653a89",
    "name": "Krasnoborsk",
    "ru": "Krasnoborsk",
    "country": "e0dc83a1-8246-4a52-aa57-c9a7875befeb",
    "countryCode": "RU",
    "state": "2f57bb3d-2196-491e-ac6e-a4b3c028fa73",
    "stateCode": "ARK",
    "latitude": "61.55978000",
    "longitude": "45.93396000"
  },
  {
    "id": "3db82dd2-8a4a-4ddb-bfc4-08cac5eb2794",
    "name": "Kuloy",
    "ru": "Kuloy",
    "country": "e0dc83a1-8246-4a52-aa57-c9a7875befeb",
    "countryCode": "RU",
    "state": "2f57bb3d-2196-491e-ac6e-a4b3c028fa73",
    "stateCode": "ARK",
    "latitude": "61.03049000",
    "longitude": "42.49252000"
  },
  {
    "id": "f3ab14c5-59b6-40e6-a6cc-4fb750ec057f",
    "name": "Lenskiy Rayon",
    "ru": "Lenskiy Rayon",
    "country": "e0dc83a1-8246-4a52-aa57-c9a7875befeb",
    "countryCode": "RU",
    "state": "2f57bb3d-2196-491e-ac6e-a4b3c028fa73",
    "stateCode": "ARK",
    "latitude": "62.00000000",
    "longitude": "48.66667000"
  },
  {
    "id": "4cc1b3b4-1fad-4dad-a6a8-951eb0b87c1a",
    "name": "Leshukonskiy Rayon",
    "ru": "Leshukonskiy Rayon",
    "country": "e0dc83a1-8246-4a52-aa57-c9a7875befeb",
    "countryCode": "RU",
    "state": "2f57bb3d-2196-491e-ac6e-a4b3c028fa73",
    "stateCode": "ARK",
    "latitude": "65.00000000",
    "longitude": "47.00000000"
  },
  {
    "id": "281f01a6-8f0c-4380-96bb-8542c80dd308",
    "name": "Leshukonskoye",
    "ru": "Leshukonskoye",
    "country": "e0dc83a1-8246-4a52-aa57-c9a7875befeb",
    "countryCode": "RU",
    "state": "2f57bb3d-2196-491e-ac6e-a4b3c028fa73",
    "stateCode": "ARK",
    "latitude": "64.89770000",
    "longitude": "45.76550000"
  },
  {
    "id": "103b085a-542e-48fe-b64f-5d27fce14082",
    "name": "Loyga",
    "ru": "Loyga",
    "country": "e0dc83a1-8246-4a52-aa57-c9a7875befeb",
    "countryCode": "RU",
    "state": "2f57bb3d-2196-491e-ac6e-a4b3c028fa73",
    "stateCode": "ARK",
    "latitude": "61.07845000",
    "longitude": "44.60750000"
  },
  {
    "id": "e936288d-d135-493f-97f7-29be76e9da6b",
    "name": "Lukovetskiy",
    "ru": "Lukovetskiy",
    "country": "e0dc83a1-8246-4a52-aa57-c9a7875befeb",
    "countryCode": "RU",
    "state": "2f57bb3d-2196-491e-ac6e-a4b3c028fa73",
    "stateCode": "ARK",
    "latitude": "64.29560000",
    "longitude": "41.92110000"
  },
  {
    "id": "82d8c305-001c-4a06-a208-873288e0e4b3",
    "name": "Mezen’",
    "ru": "Mezen’",
    "country": "e0dc83a1-8246-4a52-aa57-c9a7875befeb",
    "countryCode": "RU",
    "state": "2f57bb3d-2196-491e-ac6e-a4b3c028fa73",
    "stateCode": "ARK",
    "latitude": "65.84010000",
    "longitude": "44.25420000"
  },
  {
    "id": "7cdd6df6-26bd-4c50-8ed5-de4e8f48846e",
    "name": "Mezenskiy Rayon",
    "ru": "Mezenskiy Rayon",
    "country": "e0dc83a1-8246-4a52-aa57-c9a7875befeb",
    "countryCode": "RU",
    "state": "2f57bb3d-2196-491e-ac6e-a4b3c028fa73",
    "stateCode": "ARK",
    "latitude": "65.75000000",
    "longitude": "44.00000000"
  },
  {
    "id": "891a1f53-8c90-4028-a06b-e307d7595ed2",
    "name": "Mirnyy",
    "ru": "Mirnyy",
    "country": "e0dc83a1-8246-4a52-aa57-c9a7875befeb",
    "countryCode": "RU",
    "state": "2f57bb3d-2196-491e-ac6e-a4b3c028fa73",
    "stateCode": "ARK",
    "latitude": "61.33289000",
    "longitude": "44.53598000"
  },
  {
    "id": "f352d6a6-c992-49c8-9c20-dcd7ee157472",
    "name": "Novodvinsk",
    "ru": "Novodvinsk",
    "country": "e0dc83a1-8246-4a52-aa57-c9a7875befeb",
    "countryCode": "RU",
    "state": "2f57bb3d-2196-491e-ac6e-a4b3c028fa73",
    "stateCode": "ARK",
    "latitude": "64.41650000",
    "longitude": "40.81220000"
  },
  {
    "id": "1f148501-52c8-4b74-b6f0-036c13f066a8",
    "name": "Nyandoma",
    "ru": "Nyandoma",
    "country": "e0dc83a1-8246-4a52-aa57-c9a7875befeb",
    "countryCode": "RU",
    "state": "2f57bb3d-2196-491e-ac6e-a4b3c028fa73",
    "stateCode": "ARK",
    "latitude": "61.66560000",
    "longitude": "40.20130000"
  },
  {
    "id": "fd2a235d-f6d6-407c-81c5-eebbf956d064",
    "name": "Nyandomskiy Rayon",
    "ru": "Nyandomskiy Rayon",
    "country": "e0dc83a1-8246-4a52-aa57-c9a7875befeb",
    "countryCode": "RU",
    "state": "2f57bb3d-2196-491e-ac6e-a4b3c028fa73",
    "stateCode": "ARK",
    "latitude": "62.00000000",
    "longitude": "40.66667000"
  },
  {
    "id": "60931aeb-27b0-4479-ae14-99f074d82ab9",
    "name": "Oksovskiy",
    "ru": "Oksovskiy",
    "country": "e0dc83a1-8246-4a52-aa57-c9a7875befeb",
    "countryCode": "RU",
    "state": "2f57bb3d-2196-491e-ac6e-a4b3c028fa73",
    "stateCode": "ARK",
    "latitude": "62.60623000",
    "longitude": "39.89845000"
  },
  {
    "id": "69d99c55-4725-4893-bd87-e06621d25ed2",
    "name": "Onega",
    "ru": "Onega",
    "country": "e0dc83a1-8246-4a52-aa57-c9a7875befeb",
    "countryCode": "RU",
    "state": "2f57bb3d-2196-491e-ac6e-a4b3c028fa73",
    "stateCode": "ARK",
    "latitude": "63.90692000",
    "longitude": "38.11112000"
  },
  {
    "id": "6aa01f9b-8e81-4b66-bd3c-0b2693a24b3d",
    "name": "Onezhskiy Rayon",
    "ru": "Onezhskiy Rayon",
    "country": "e0dc83a1-8246-4a52-aa57-c9a7875befeb",
    "countryCode": "RU",
    "state": "2f57bb3d-2196-491e-ac6e-a4b3c028fa73",
    "stateCode": "ARK",
    "latitude": "63.33333000",
    "longitude": "38.00000000"
  },
  {
    "id": "75141fc2-7f86-4d52-a0ae-c0f94f2107d2",
    "name": "Pinega",
    "ru": "Pinega",
    "country": "e0dc83a1-8246-4a52-aa57-c9a7875befeb",
    "countryCode": "RU",
    "state": "2f57bb3d-2196-491e-ac6e-a4b3c028fa73",
    "stateCode": "ARK",
    "latitude": "64.69969000",
    "longitude": "43.39016000"
  },
  {
    "id": "a592daf5-d560-4ebc-83b5-8ddf351b48c7",
    "name": "Pinezhskiy Rayon",
    "ru": "Pinezhskiy Rayon",
    "country": "e0dc83a1-8246-4a52-aa57-c9a7875befeb",
    "countryCode": "RU",
    "state": "2f57bb3d-2196-491e-ac6e-a4b3c028fa73",
    "stateCode": "ARK",
    "latitude": "64.66667000",
    "longitude": "43.00000000"
  },
  {
    "id": "e0a20dcf-9490-49fc-bdfa-5b310410c5e2",
    "name": "Plesetsk",
    "ru": "Plesetsk",
    "country": "e0dc83a1-8246-4a52-aa57-c9a7875befeb",
    "countryCode": "RU",
    "state": "2f57bb3d-2196-491e-ac6e-a4b3c028fa73",
    "stateCode": "ARK",
    "latitude": "62.70804000",
    "longitude": "40.29159000"
  },
  {
    "id": "a9183f6f-8c78-48d4-a3ae-194760c05464",
    "name": "Podyuga",
    "ru": "Podyuga",
    "country": "e0dc83a1-8246-4a52-aa57-c9a7875befeb",
    "countryCode": "RU",
    "state": "2f57bb3d-2196-491e-ac6e-a4b3c028fa73",
    "stateCode": "ARK",
    "latitude": "61.09500000",
    "longitude": "40.86472000"
  },
  {
    "id": "bb036503-805f-4fe0-9c4d-59942f17adc6",
    "name": "Primorskiy Rayon",
    "ru": "Primorskiy Rayon",
    "country": "e0dc83a1-8246-4a52-aa57-c9a7875befeb",
    "countryCode": "RU",
    "state": "2f57bb3d-2196-491e-ac6e-a4b3c028fa73",
    "stateCode": "ARK",
    "latitude": "65.00000000",
    "longitude": "41.00000000"
  },
  {
    "id": "d0a95daf-989a-4ce6-8cd0-a25991a82162",
    "name": "Privodino",
    "ru": "Privodino",
    "country": "e0dc83a1-8246-4a52-aa57-c9a7875befeb",
    "countryCode": "RU",
    "state": "2f57bb3d-2196-491e-ac6e-a4b3c028fa73",
    "stateCode": "ARK",
    "latitude": "61.07599000",
    "longitude": "46.50238000"
  },
  {
    "id": "4b0e346e-b82a-4b34-b6d9-980fd06b606e",
    "name": "Puksoozero",
    "ru": "Puksoozero",
    "country": "e0dc83a1-8246-4a52-aa57-c9a7875befeb",
    "countryCode": "RU",
    "state": "2f57bb3d-2196-491e-ac6e-a4b3c028fa73",
    "stateCode": "ARK",
    "latitude": "62.59030000",
    "longitude": "40.60660000"
  },
  {
    "id": "6a55c00b-1ed0-4cc8-8ffc-b207eea6660e",
    "name": "Rochegda",
    "ru": "Rochegda",
    "country": "e0dc83a1-8246-4a52-aa57-c9a7875befeb",
    "countryCode": "RU",
    "state": "2f57bb3d-2196-491e-ac6e-a4b3c028fa73",
    "stateCode": "ARK",
    "latitude": "62.66780000",
    "longitude": "43.41330000"
  },
  {
    "id": "93a687dd-3ac0-4984-93f1-d4a38c4eec2b",
    "name": "Samoded",
    "ru": "Samoded",
    "country": "e0dc83a1-8246-4a52-aa57-c9a7875befeb",
    "countryCode": "RU",
    "state": "2f57bb3d-2196-491e-ac6e-a4b3c028fa73",
    "stateCode": "ARK",
    "latitude": "63.60830000",
    "longitude": "40.51110000"
  },
  {
    "id": "c8f9258a-b003-4ec6-b8de-b3c176bf924e",
    "name": "Severodvinsk",
    "ru": "Severodvinsk",
    "country": "e0dc83a1-8246-4a52-aa57-c9a7875befeb",
    "countryCode": "RU",
    "state": "2f57bb3d-2196-491e-ac6e-a4b3c028fa73",
    "stateCode": "ARK",
    "latitude": "64.56350000",
    "longitude": "39.83020000"
  },
  {
    "id": "a89b806b-051a-431a-99db-401c84484bc2",
    "name": "Shalakusha",
    "ru": "Shalakusha",
    "country": "e0dc83a1-8246-4a52-aa57-c9a7875befeb",
    "countryCode": "RU",
    "state": "2f57bb3d-2196-491e-ac6e-a4b3c028fa73",
    "stateCode": "ARK",
    "latitude": "62.22472000",
    "longitude": "40.25389000"
  },
  {
    "id": "edae4131-7f37-45c4-ae4f-daf371ffd951",
    "name": "Shangaly",
    "ru": "Shangaly",
    "country": "e0dc83a1-8246-4a52-aa57-c9a7875befeb",
    "countryCode": "RU",
    "state": "2f57bb3d-2196-491e-ac6e-a4b3c028fa73",
    "stateCode": "ARK",
    "latitude": "61.12842000",
    "longitude": "43.33427000"
  },
  {
    "id": "67d60332-04ed-4c20-b5e5-e93bc8656923",
    "name": "Shenkursk",
    "ru": "Shenkursk",
    "country": "e0dc83a1-8246-4a52-aa57-c9a7875befeb",
    "countryCode": "RU",
    "state": "2f57bb3d-2196-491e-ac6e-a4b3c028fa73",
    "stateCode": "ARK",
    "latitude": "62.10910000",
    "longitude": "42.89595000"
  },
  {
    "id": "587c339c-78c2-4425-81a4-f040859c784a",
    "name": "Shenkurskiy Rayon",
    "ru": "Shenkurskiy Rayon",
    "country": "e0dc83a1-8246-4a52-aa57-c9a7875befeb",
    "countryCode": "RU",
    "state": "2f57bb3d-2196-491e-ac6e-a4b3c028fa73",
    "stateCode": "ARK",
    "latitude": "62.25000000",
    "longitude": "42.41667000"
  },
  {
    "id": "f96e7615-7358-4a28-9927-ea93bd59257f",
    "name": "Shipitsyno",
    "ru": "Shipitsyno",
    "country": "e0dc83a1-8246-4a52-aa57-c9a7875befeb",
    "countryCode": "RU",
    "state": "2f57bb3d-2196-491e-ac6e-a4b3c028fa73",
    "stateCode": "ARK",
    "latitude": "61.28056000",
    "longitude": "46.52083000"
  },
  {
    "id": "18cf2758-3420-47e1-aea1-cf168a0ce9cd",
    "name": "Sol’vychegodsk",
    "ru": "Sol’vychegodsk",
    "country": "e0dc83a1-8246-4a52-aa57-c9a7875befeb",
    "countryCode": "RU",
    "state": "2f57bb3d-2196-491e-ac6e-a4b3c028fa73",
    "stateCode": "ARK",
    "latitude": "61.33046000",
    "longitude": "46.91559000"
  },
  {
    "id": "58ddec94-1e69-4023-ae32-b10d8fbfe8cc",
    "name": "Solginskiy",
    "ru": "Solginskiy",
    "country": "e0dc83a1-8246-4a52-aa57-c9a7875befeb",
    "countryCode": "RU",
    "state": "2f57bb3d-2196-491e-ac6e-a4b3c028fa73",
    "stateCode": "ARK",
    "latitude": "61.05000000",
    "longitude": "41.34278000"
  },
  {
    "id": "d3f53acc-489b-4a45-9943-87bc4119ed5d",
    "name": "Udimskiy",
    "ru": "Udimskiy",
    "country": "e0dc83a1-8246-4a52-aa57-c9a7875befeb",
    "countryCode": "RU",
    "state": "2f57bb3d-2196-491e-ac6e-a4b3c028fa73",
    "stateCode": "ARK",
    "latitude": "61.14171000",
    "longitude": "45.91443000"
  },
  {
    "id": "b6be6e61-c639-4d95-9013-85c8bdf3c5ef",
    "name": "Urdoma",
    "ru": "Urdoma",
    "country": "e0dc83a1-8246-4a52-aa57-c9a7875befeb",
    "countryCode": "RU",
    "state": "2f57bb3d-2196-491e-ac6e-a4b3c028fa73",
    "stateCode": "ARK",
    "latitude": "61.75335000",
    "longitude": "48.54420000"
  },
  {
    "id": "1fc96eac-c759-477e-b1e1-89054072fab1",
    "name": "Ust’-Shonosha",
    "ru": "Ust’-Shonosha",
    "country": "e0dc83a1-8246-4a52-aa57-c9a7875befeb",
    "countryCode": "RU",
    "state": "2f57bb3d-2196-491e-ac6e-a4b3c028fa73",
    "stateCode": "ARK",
    "latitude": "61.15310000",
    "longitude": "41.34300000"
  },
  {
    "id": "33cbcc09-0798-4694-81d9-8207fd784c8d",
    "name": "Ust’yanskiy Rayon",
    "ru": "Ust’yanskiy Rayon",
    "country": "e0dc83a1-8246-4a52-aa57-c9a7875befeb",
    "countryCode": "RU",
    "state": "2f57bb3d-2196-491e-ac6e-a4b3c028fa73",
    "stateCode": "ARK",
    "latitude": "61.33333000",
    "longitude": "43.66667000"
  },
  {
    "id": "427c9704-5225-4085-a7db-21b1e693aeb8",
    "name": "Uyemskiy",
    "ru": "Uyemskiy",
    "country": "e0dc83a1-8246-4a52-aa57-c9a7875befeb",
    "countryCode": "RU",
    "state": "2f57bb3d-2196-491e-ac6e-a4b3c028fa73",
    "stateCode": "ARK",
    "latitude": "64.47430000",
    "longitude": "40.85240000"
  },
  {
    "id": "8cf4ddea-2779-4fd9-aea8-3b72ae3342cc",
    "name": "Vas’kovo",
    "ru": "Vas’kovo",
    "country": "e0dc83a1-8246-4a52-aa57-c9a7875befeb",
    "countryCode": "RU",
    "state": "2f57bb3d-2196-491e-ac6e-a4b3c028fa73",
    "stateCode": "ARK",
    "latitude": "64.41220000",
    "longitude": "40.46390000"
  },
  {
    "id": "f6d83769-2490-45b5-9c7d-0551b5dc34f0",
    "name": "Vel’sk",
    "ru": "Vel’sk",
    "country": "e0dc83a1-8246-4a52-aa57-c9a7875befeb",
    "countryCode": "RU",
    "state": "2f57bb3d-2196-491e-ac6e-a4b3c028fa73",
    "stateCode": "ARK",
    "latitude": "61.07006000",
    "longitude": "42.09830000"
  },
  {
    "id": "fb0d2210-a828-4216-b75d-45eddfdd1f6e",
    "name": "Vel’skiy Rayon",
    "ru": "Vel’skiy Rayon",
    "country": "e0dc83a1-8246-4a52-aa57-c9a7875befeb",
    "countryCode": "RU",
    "state": "2f57bb3d-2196-491e-ac6e-a4b3c028fa73",
    "stateCode": "ARK",
    "latitude": "61.00000000",
    "longitude": "42.00000000"
  },
  {
    "id": "bf6df8d5-3e39-483a-aee5-bfa1c1f92ee4",
    "name": "Verkhnyaya Toyma",
    "ru": "Verkhnyaya Toyma",
    "country": "e0dc83a1-8246-4a52-aa57-c9a7875befeb",
    "countryCode": "RU",
    "state": "2f57bb3d-2196-491e-ac6e-a4b3c028fa73",
    "stateCode": "ARK",
    "latitude": "62.23470000",
    "longitude": "45.00090000"
  },
  {
    "id": "95c186d1-8eef-4e5c-84d1-198bdffd2f0a",
    "name": "Voloshka",
    "ru": "Voloshka",
    "country": "e0dc83a1-8246-4a52-aa57-c9a7875befeb",
    "countryCode": "RU",
    "state": "2f57bb3d-2196-491e-ac6e-a4b3c028fa73",
    "stateCode": "ARK",
    "latitude": "61.33139000",
    "longitude": "40.08583000"
  },
  {
    "id": "3006ca33-a93b-46b9-8812-d7a1879b414b",
    "name": "Vychegodskiy",
    "ru": "Vychegodskiy",
    "country": "e0dc83a1-8246-4a52-aa57-c9a7875befeb",
    "countryCode": "RU",
    "state": "2f57bb3d-2196-491e-ac6e-a4b3c028fa73",
    "stateCode": "ARK",
    "latitude": "61.24702000",
    "longitude": "46.89842000"
  },