[{"id":"c10a2d01-5cc8-4327-99bd-262e708f9a7c","name":"Akkol","ru":"Akkol","country":"766899b3-3227-4d13-8380-1f181115784e","countryCode":"KZ","state":"a6dc8896-98c2-45c7-b4f2-4f44dc1acbc1","stateCode":"AKM","latitude":"51.99374000","longitude":"70.94704000"},{"id":"1c81d073-597a-4eeb-8e50-4f047183a426","name":"Akkol’","ru":"Akkol’","country":"766899b3-3227-4d13-8380-1f181115784e","countryCode":"KZ","state":"a6dc8896-98c2-45c7-b4f2-4f44dc1acbc1","stateCode":"AKM","latitude":"53.29617000","longitude":"69.59997000"},{"id":"79602e8b-63f6-4983-af2e-0f9f9832d4cb","name":"Aksu","ru":"Aksu","country":"766899b3-3227-4d13-8380-1f181115784e","countryCode":"KZ","state":"a6dc8896-98c2-45c7-b4f2-4f44dc1acbc1","stateCode":"AKM","latitude":"52.44422000","longitude":"71.95761000"},{"id":"2084f324-5b50-47ef-a95a-952a2da7593d","name":"Astrakhan","ru":"Astrakhan","country":"766899b3-3227-4d13-8380-1f181115784e","countryCode":"KZ","state":"a6dc8896-98c2-45c7-b4f2-4f44dc1acbc1","stateCode":"AKM","latitude":"51.53092000","longitude":"69.79684000"},{"id":"184505ad-8db8-4de6-b731-fedf46421162","name":"Atbasar","ru":"Atbasar","country":"766899b3-3227-4d13-8380-1f181115784e","countryCode":"KZ","state":"a6dc8896-98c2-45c7-b4f2-4f44dc1acbc1","stateCode":"AKM","latitude":"51.80652000","longitude":"68.35996000"},{"id":"a459890a-4df8-4108-9d89-35ee32bbd97a","name":"Balkashino","ru":"Balkashino","country":"766899b3-3227-4d13-8380-1f181115784e","countryCode":"KZ","state":"a6dc8896-98c2-45c7-b4f2-4f44dc1acbc1","stateCode":"AKM","latitude":"52.51779000","longitude":"68.75160000"},{"id":"f49daf5c-0ad6-49a2-a61d-b6d4b4de4f7d","name":"Bestobe","ru":"Bestobe","country":"766899b3-3227-4d13-8380-1f181115784e","countryCode":"KZ","state":"a6dc8896-98c2-45c7-b4f2-4f44dc1acbc1","stateCode":"AKM","latitude":"52.49795000","longitude":"73.09592000"},{"id":"d34948bd-f73d-4727-a7fd-8faf764aeeda","name":"Derzhavīnsk","ru":"Derzhavīnsk","country":"766899b3-3227-4d13-8380-1f181115784e","countryCode":"KZ","state":"a6dc8896-98c2-45c7-b4f2-4f44dc1acbc1","stateCode":"AKM","latitude":"51.09922000","longitude":"66.31557000"},{"id":"52387248-470a-4295-9072-7e2684be2a66","name":"Egindiköl","ru":"Egindiköl","country":"766899b3-3227-4d13-8380-1f181115784e","countryCode":"KZ","state":"a6dc8896-98c2-45c7-b4f2-4f44dc1acbc1","stateCode":"AKM","latitude":"51.05412000","longitude":"69.47928000"},{"id":"fca9c291-a4b0-401b-bac3-716718d60331","name":"Esil","ru":"Esil","country":"766899b3-3227-4d13-8380-1f181115784e","countryCode":"KZ","state":"a6dc8896-98c2-45c7-b4f2-4f44dc1acbc1","stateCode":"AKM","latitude":"51.95495000","longitude":"66.40841000"},{"id":"0133d4ec-a49a-4766-8ff5-961c5440cda5","name":"Kokshetau","ru":"Kokshetau","country":"766899b3-3227-4d13-8380-1f181115784e","countryCode":"KZ","state":"a6dc8896-98c2-45c7-b4f2-4f44dc1acbc1","stateCode":"AKM","latitude":"53.28333000","longitude":"69.40000000"},{"id":"c40093ba-6168-49dd-9d20-a3f598842b2e","name":"Krasnogorskiy","ru":"Krasnogorskiy","country":"766899b3-3227-4d13-8380-1f181115784e","countryCode":"KZ","state":"a6dc8896-98c2-45c7-b4f2-4f44dc1acbc1","stateCode":"AKM","latitude":"52.24560000","longitude":"66.52081000"},{"id":"cff4a275-cc59-4e6a-b577-d7d20cf3483b","name":"Makinsk","ru":"Makinsk","country":"766899b3-3227-4d13-8380-1f181115784e","countryCode":"KZ","state":"a6dc8896-98c2-45c7-b4f2-4f44dc1acbc1","stateCode":"AKM","latitude":"52.63290000","longitude":"70.41911000"},{"id":"ced3c670-01e9-4054-a295-51ea700f10f1","name":"Shantobe","ru":"Shantobe","country":"766899b3-3227-4d13-8380-1f181115784e","countryCode":"KZ","state":"a6dc8896-98c2-45c7-b4f2-4f44dc1acbc1","stateCode":"AKM","latitude":"52.45376000","longitude":"68.17475000"},{"id":"174cb139-0d47-4f67-8d3d-04a0e5bb5ba3","name":"Shchuchinsk","ru":"Shchuchinsk","country":"766899b3-3227-4d13-8380-1f181115784e","countryCode":"KZ","state":"a6dc8896-98c2-45c7-b4f2-4f44dc1acbc1","stateCode":"AKM","latitude":"52.93592000","longitude":"70.18895000"},{"id":"59c6745a-ef69-4ea4-9a01-3a1950d5c9f0","name":"Shortandy","ru":"Shortandy","country":"766899b3-3227-4d13-8380-1f181115784e","countryCode":"KZ","state":"a6dc8896-98c2-45c7-b4f2-4f44dc1acbc1","stateCode":"AKM","latitude":"51.69946000","longitude":"70.99457000"},{"id":"feb3168b-bca6-4888-92a9-49ada29a25be","name":"Stepnogorsk","ru":"Stepnogorsk","country":"766899b3-3227-4d13-8380-1f181115784e","countryCode":"KZ","state":"a6dc8896-98c2-45c7-b4f2-4f44dc1acbc1","stateCode":"AKM","latitude":"52.35062000","longitude":"71.88161000"},{"id":"04ba17d6-09c2-4cef-9eda-af78b73cd095","name":"Stepnyak","ru":"Stepnyak","country":"766899b3-3227-4d13-8380-1f181115784e","countryCode":"KZ","state":"a6dc8896-98c2-45c7-b4f2-4f44dc1acbc1","stateCode":"AKM","latitude":"52.83489000","longitude":"70.78861000"},{"id":"353eeecb-8934-472a-ac1b-47d85e0603de","name":"Yermentau","ru":"Yermentau","country":"766899b3-3227-4d13-8380-1f181115784e","countryCode":"KZ","state":"a6dc8896-98c2-45c7-b4f2-4f44dc1acbc1","stateCode":"AKM","latitude":"51.62364000","longitude":"73.10265000"},{"id":"d1eef85d-992f-4629-93aa-522d8b57b378","name":"Zavodskoy","ru":"Zavodskoy","country":"766899b3-3227-4d13-8380-1f181115784e","countryCode":"KZ","state":"a6dc8896-98c2-45c7-b4f2-4f44dc1acbc1","stateCode":"AKM","latitude":"52.47031000","longitude":"72.01514000"},{"id":"2868f011-10f1-4c16-af3f-c1b9751261ed","name":"Zhaqsy","ru":"Zhaqsy","country":"766899b3-3227-4d13-8380-1f181115784e","countryCode":"KZ","state":"a6dc8896-98c2-45c7-b4f2-4f44dc1acbc1","stateCode":"AKM","latitude":"51.91058000","longitude":"67.31665000"},{"id":"88e80af6-29ea-45ff-bc9b-b5c23dcdb921","name":"Zholymbet","ru":"Zholymbet","country":"766899b3-3227-4d13-8380-1f181115784e","countryCode":"KZ","state":"a6dc8896-98c2-45c7-b4f2-4f44dc1acbc1","stateCode":"AKM","latitude":"51.74211000","longitude":"71.71245000"},{"id":"068c4d9a-abc9-44d6-a134-32027ebc9120","name":"Aktobe","ru":"Aktobe","country":"766899b3-3227-4d13-8380-1f181115784e","countryCode":"KZ","state":"1401ee7e-3e0e-45f4-8ee4-616ec5ecb789","stateCode":"AKT","latitude":"50.27969000","longitude":"57.20718000"},{"id":"b25750ae-e133-4d82-b7fa-ef19c7fae0c0","name":"Batamshinskiy","ru":"Batamshinskiy","country":"766899b3-3227-4d13-8380-1f181115784e","countryCode":"KZ","state":"1401ee7e-3e0e-45f4-8ee4-616ec5ecb789","stateCode":"AKT","latitude":"50.56022000","longitude":"58.27715000"},{"id":"991ede3f-2fc9-445c-9186-8d74f4e3e49f","name":"Bayganin","ru":"Bayganin","country":"766899b3-3227-4d13-8380-1f181115784e","countryCode":"KZ","state":"1401ee7e-3e0e-45f4-8ee4-616ec5ecb789","stateCode":"AKT","latitude":"48.68975000","longitude":"55.87512000"},{"id":"c54d98f5-104c-4a18-8782-129b2e5b7d6f","name":"Embi","ru":"Embi","country":"766899b3-3227-4d13-8380-1f181115784e","countryCode":"KZ","state":"1401ee7e-3e0e-45f4-8ee4-616ec5ecb789","stateCode":"AKT","latitude":"48.82981000","longitude":"58.15042000"},{"id":"62af9edd-c2ef-41f9-89d0-c351cf0d591d","name":"Kandyagash","ru":"Kandyagash","country":"766899b3-3227-4d13-8380-1f181115784e","countryCode":"KZ","state":"1401ee7e-3e0e-45f4-8ee4-616ec5ecb789","stateCode":"AKT","latitude":"49.46912000","longitude":"57.41914000"},{"id":"7150d6d5-7f64-4fb7-951f-958121f981b2","name":"Khromtau","ru":"Khromtau","country":"766899b3-3227-4d13-8380-1f181115784e","countryCode":"KZ","state":"1401ee7e-3e0e-45f4-8ee4-616ec5ecb789","stateCode":"AKT","latitude":"50.25117000","longitude":"58.44003000"},{"id":"cb5172b9-eb1f-44ab-88f7-7437ad94d590","name":"Martuk","ru":"Martuk","country":"766899b3-3227-4d13-8380-1f181115784e","countryCode":"KZ","state":"1401ee7e-3e0e-45f4-8ee4-616ec5ecb789","stateCode":"AKT","latitude":"50.74746000","longitude":"56.50611000"},{"id":"47f72f61-003a-4d81-91e2-8dc2c0f40d02","name":"Shalqar","ru":"Shalqar","country":"766899b3-3227-4d13-8380-1f181115784e","countryCode":"KZ","state":"1401ee7e-3e0e-45f4-8ee4-616ec5ecb789","stateCode":"AKT","latitude":"47.83333000","longitude":"59.60000000"},{"id":"25812dc1-55fe-4f16-b6bc-111a220c3f92","name":"Shubarkuduk","ru":"Shubarkuduk","country":"766899b3-3227-4d13-8380-1f181115784e","countryCode":"KZ","state":"1401ee7e-3e0e-45f4-8ee4-616ec5ecb789","stateCode":"AKT","latitude":"49.14391000","longitude":"56.48196000"},{"id":"46a4643e-cfd6-4b03-be76-09b1adfa324a","name":"Shubarshi","ru":"Shubarshi","country":"766899b3-3227-4d13-8380-1f181115784e","countryCode":"KZ","state":"1401ee7e-3e0e-45f4-8ee4-616ec5ecb789","stateCode":"AKT","latitude":"48.58022000","longitude":"57.18289000"},{"id":"c01c900c-e280-417c-8c82-dfd3675df7fa","name":"Temir","ru":"Temir","country":"766899b3-3227-4d13-8380-1f181115784e","countryCode":"KZ","state":"1401ee7e-3e0e-45f4-8ee4-616ec5ecb789","stateCode":"AKT","latitude":"49.14132000","longitude":"57.12855000"},{"id":"6838640e-b089-4429-afe1-3cf2b645dd23","name":"Yrghyz","ru":"Yrghyz","country":"766899b3-3227-4d13-8380-1f181115784e","countryCode":"KZ","state":"1401ee7e-3e0e-45f4-8ee4-616ec5ecb789","stateCode":"AKT","latitude":"48.61667000","longitude":"61.26667000"},{"id":"1d605cbd-53f2-4ce9-83db-246f9dce1536","name":"Almaty","ru":"Almaty","country":"766899b3-3227-4d13-8380-1f181115784e","countryCode":"KZ","state":"3bb9f4c6-917d-4532-9e74-94b90786b0bb","stateCode":"ALA","latitude":"43.25667000","longitude":"76.92861000"},{"id":"d31d3504-cbdf-4c4f-8cda-a44668fcfc07","name":"Ülken","ru":"Ülken","country":"766899b3-3227-4d13-8380-1f181115784e","countryCode":"KZ","state":"c00a8a61-6df6-4aaf-a5d7-ab926881ac67","stateCode":"ALM","latitude":"45.21194000","longitude":"73.97861000"},{"id":"52ec9374-3a28-445d-9432-c9c83dedd9b5","name":"Bakanas","ru":"Bakanas","country":"766899b3-3227-4d13-8380-1f181115784e","countryCode":"KZ","state":"c00a8a61-6df6-4aaf-a5d7-ab926881ac67","stateCode":"ALM","latitude":"44.80838000","longitude":"76.27214000"},{"id":"4ea6ac9e-76da-47b7-b081-afa0a9e52ae1","name":"Balpyk Bī","ru":"Balpyk Bī","country":"766899b3-3227-4d13-8380-1f181115784e","countryCode":"KZ","state":"c00a8a61-6df6-4aaf-a5d7-ab926881ac67","stateCode":"ALM","latitude":"44.90225000","longitude":"78.23157000"},{"id":"21506bfe-cdb3-4888-90a8-59166578179a","name":"Burunday","ru":"Burunday","country":"766899b3-3227-4d13-8380-1f181115784e","countryCode":"KZ","state":"c00a8a61-6df6-4aaf-a5d7-ab926881ac67","stateCode":"ALM","latitude":"43.35567000","longitude":"76.85477000"},{"id":"7fd690d8-c28e-4d34-b903-99ddca913ec4","name":"Chemolgan","ru":"Chemolgan","country":"766899b3-3227-4d13-8380-1f181115784e","countryCode":"KZ","state":"c00a8a61-6df6-4aaf-a5d7-ab926881ac67","stateCode":"ALM","latitude":"43.37633000","longitude":"76.62456000"},{"id":"e69934e7-0fc2-4d0a-b074-927d8e06bbc8","name":"Druzhba","ru":"Druzhba","country":"766899b3-3227-4d13-8380-1f181115784e","countryCode":"KZ","state":"c00a8a61-6df6-4aaf-a5d7-ab926881ac67","stateCode":"ALM","latitude":"45.25332000","longitude":"82.48044000"},{"id":"becfa334-885e-4ebc-9bc3-25a5bf3ac089","name":"Esik","ru":"Esik","country":"766899b3-3227-4d13-8380-1f181115784e","countryCode":"KZ","state":"c00a8a61-6df6-4aaf-a5d7-ab926881ac67","stateCode":"ALM","latitude":"43.35520000","longitude":"77.45245000"},{"id":"9026d36d-59f4-472a-a5c0-7bd492b9e7d9","name":"Kapshagay","ru":"Kapshagay","country":"766899b3-3227-4d13-8380-1f181115784e","countryCode":"KZ","state":"c00a8a61-6df6-4aaf-a5d7-ab926881ac67","stateCode":"ALM","latitude":"43.86681000","longitude":"77.06304000"},{"id":"bacc6825-dee9-486e-9e2c-7dd085fef595","name":"Kegen","ru":"Kegen","country":"766899b3-3227-4d13-8380-1f181115784e","countryCode":"KZ","state":"c00a8a61-6df6-4aaf-a5d7-ab926881ac67","stateCode":"ALM","latitude":"43.02143000","longitude":"79.22055000"},{"id":"e5ea52b2-9f9d-4c31-a95c-103564dd5ff1","name":"Lepsy","ru":"Lepsy","country":"766899b3-3227-4d13-8380-1f181115784e","countryCode":"KZ","state":"c00a8a61-6df6-4aaf-a5d7-ab926881ac67","stateCode":"ALM","latitude":"46.23500000","longitude":"78.94556000"},{"id":"9e81d5f0-e5b6-4232-8958-15f26d4a22f2","name":"Matay","ru":"Matay","country":"766899b3-3227-4d13-8380-1f181115784e","countryCode":"KZ","state":"c00a8a61-6df6-4aaf-a5d7-ab926881ac67","stateCode":"ALM","latitude":"45.89500000","longitude":"78.71806000"},{"id":"f7776f72-de65-45f0-8a43-af8fd91c8729","name":"Otegen Batyra","ru":"Otegen Batyra","country":"766899b3-3227-4d13-8380-1f181115784e","countryCode":"KZ","state":"c00a8a61-6df6-4aaf-a5d7-ab926881ac67","stateCode":"ALM","latitude":"43.41949000","longitude":"77.02020000"},{"id":"ef873e3a-8240-42b2-a02b-770c830e5587","name":"Pervomayka","ru":"Pervomayka","country":"766899b3-3227-4d13-8380-1f181115784e","countryCode":"KZ","state":"c00a8a61-6df6-4aaf-a5d7-ab926881ac67","stateCode":"ALM","latitude":"43.37361000","longitude":"76.94000000"},{"id":"c4a82d36-e305-465b-b0ca-29dadd76e840","name":"Sarkand","ru":"Sarkand","country":"766899b3-3227-4d13-8380-1f181115784e","countryCode":"KZ","state":"c00a8a61-6df6-4aaf-a5d7-ab926881ac67","stateCode":"ALM","latitude":"45.41126000","longitude":"79.91545000"},{"id":"b86b3bf1-cbfb-4855-9138-530717bea606","name":"Saryozek","ru":"Saryozek","country":"766899b3-3227-4d13-8380-1f181115784e","countryCode":"KZ","state":"c00a8a61-6df6-4aaf-a5d7-ab926881ac67","stateCode":"ALM","latitude":"44.36178000","longitude":"77.97279000"},{"id":"51ffe8ce-e322-4b03-a3fc-db1c58bdc84f","name":"Taldykorgan","ru":"Taldykorgan","country":"766899b3-3227-4d13-8380-1f181115784e","countryCode":"KZ","state":"c00a8a61-6df6-4aaf-a5d7-ab926881ac67","stateCode":"ALM","latitude":"45.01556000","longitude":"78.37389000"},{"id":"42bc7218-0d04-4c5e-b42f-e2fcc0cc0540","name":"Talghar","ru":"Talghar","country":"766899b3-3227-4d13-8380-1f181115784e","countryCode":"KZ","state":"c00a8a61-6df6-4aaf-a5d7-ab926881ac67","stateCode":"ALM","latitude":"43.30348000","longitude":"77.24085000"},{"id":"01fb7cd2-f82d-4846-a25a-e40165df74a9","name":"Tekeli","ru":"Tekeli","country":"766899b3-3227-4d13-8380-1f181115784e","countryCode":"KZ","state":"c00a8a61-6df6-4aaf-a5d7-ab926881ac67","stateCode":"ALM","latitude":"44.83322000","longitude":"78.83089000"},{"id":"de8bd752-091e-41e1-81ad-aef43f63e9c9","name":"Turgen","ru":"Turgen","country":"766899b3-3227-4d13-8380-1f181115784e","countryCode":"KZ","state":"c00a8a61-6df6-4aaf-a5d7-ab926881ac67","stateCode":"ALM","latitude":"43.40056000","longitude":"77.59333000"},{"id":"dda2c24d-aa72-4e3e-8627-2afccb9684f7","name":"Ush-Tyube","ru":"Ush-Tyube","country":"766899b3-3227-4d13-8380-1f181115784e","countryCode":"KZ","state":"c00a8a61-6df6-4aaf-a5d7-ab926881ac67","stateCode":"ALM","latitude":"45.25201000","longitude":"77.98007000"},{"id":"b4d2f865-0996-43e1-9fb0-73659b688cb3","name":"Zharkent","ru":"Zharkent","country":"766899b3-3227-4d13-8380-1f181115784e","countryCode":"KZ","state":"c00a8a61-6df6-4aaf-a5d7-ab926881ac67","stateCode":"ALM","latitude":"44.16660000","longitude":"80.00655000"},{"id":"3199015b-c60a-485b-8f7f-3ced560b020d","name":"Akkol’","ru":"Akkol’","country":"766899b3-3227-4d13-8380-1f181115784e","countryCode":"KZ","state":"2232b6c5-bb71-46f1-8153-c36a5474c38d","stateCode":"ATY","latitude":"48.77177000","longitude":"53.18580000"},{"id":"c37f4c45-114b-4b92-ac3c-af55d52d287b","name":"Atyrau","ru":"Atyrau","country":"766899b3-3227-4d13-8380-1f181115784e","countryCode":"KZ","state":"2232b6c5-bb71-46f1-8153-c36a5474c38d","stateCode":"ATY","latitude":"47.11667000","longitude":"51.88333000"},{"id":"ace5ca1a-94d2-4428-af1a-c5a90be0e298","name":"Balykshi","ru":"Balykshi","country":"766899b3-3227-4d13-8380-1f181115784e","countryCode":"KZ","state":"2232b6c5-bb71-46f1-8153-c36a5474c38d","stateCode":"ATY","latitude":"47.06667000","longitude":"51.86667000"},{"id":"f34d4929-1a3b-45a9-ae41-9d4434fed0e6","name":"Bayshonas","ru":"Bayshonas","country":"766899b3-3227-4d13-8380-1f181115784e","countryCode":"KZ","state":"2232b6c5-bb71-46f1-8153-c36a5474c38d","stateCode":"ATY","latitude":"47.24139000","longitude":"52.94111000"},{"id":"2326b0e6-faaf-4d05-b718-5d8f104a7dcb","name":"Dossor","ru":"Dossor","country":"766899b3-3227-4d13-8380-1f181115784e","countryCode":"KZ","state":"2232b6c5-bb71-46f1-8153-c36a5474c38d","stateCode":"ATY","latitude":"47.52722000","longitude":"52.98111000"},{"id":"dd632c28-8c63-470e-8025-a61c9dea6952","name":"Inderbor","ru":"Inderbor","country":"766899b3-3227-4d13-8380-1f181115784e","countryCode":"KZ","state":"2232b6c5-bb71-46f1-8153-c36a5474c38d","stateCode":"ATY","latitude":"48.55000000","longitude":"51.78333000"},{"id":"7db38962-50a1-4e7f-b2bc-ae2ba167b603","name":"Makhambet","ru":"Makhambet","country":"766899b3-3227-4d13-8380-1f181115784e","countryCode":"KZ","state":"2232b6c5-bb71-46f1-8153-c36a5474c38d","stateCode":"ATY","latitude":"47.66667000","longitude":"51.58333000"},{"id":"9d67fe55-e4bf-410c-8075-b1018e00c754","name":"Maloye Ganyushkino","ru":"Maloye Ganyushkino","country":"766899b3-3227-4d13-8380-1f181115784e","countryCode":"KZ","state":"2232b6c5-bb71-46f1-8153-c36a5474c38d","stateCode":"ATY","latitude":"46.60000000","longitude":"49.26667000"},{"id":"ee7e5ae0-a88e-4beb-9760-786a2f911d29","name":"Maqat","ru":"Maqat","country":"766899b3-3227-4d13-8380-1f181115784e","countryCode":"KZ","state":"2232b6c5-bb71-46f1-8153-c36a5474c38d","stateCode":"ATY","latitude":"47.65000000","longitude":"53.31667000"},{"id":"0a0272a9-c1ef-4d07-890f-a450ab044d95","name":"Miyaly","ru":"Miyaly","country":"766899b3-3227-4d13-8380-1f181115784e","countryCode":"KZ","state":"2232b6c5-bb71-46f1-8153-c36a5474c38d","stateCode":"ATY","latitude":"48.88504000","longitude":"53.79194000"},{"id":"876b8588-e8bd-4fd5-92ef-7d5a9a571212","name":"Qaraton","ru":"Qaraton","country":"766899b3-3227-4d13-8380-1f181115784e","countryCode":"KZ","state":"2232b6c5-bb71-46f1-8153-c36a5474c38d","stateCode":"ATY","latitude":"46.43528000","longitude":"53.48639000"},{"id":"b987ad22-380c-4367-8c7d-97248ed17d4f","name":"Qulsary","ru":"Qulsary","country":"766899b3-3227-4d13-8380-1f181115784e","countryCode":"KZ","state":"2232b6c5-bb71-46f1-8153-c36a5474c38d","stateCode":"ATY","latitude":"46.95307000","longitude":"54.01978000"},{"id":"0dec8505-8286-483c-aee0-c248527bd13d","name":"Shalkar","ru":"Shalkar","country":"766899b3-3227-4d13-8380-1f181115784e","countryCode":"KZ","state":"2232b6c5-bb71-46f1-8153-c36a5474c38d","stateCode":"ATY","latitude":"48.03333000","longitude":"48.90000000"},{"id":"15e2cb7f-d94c-496f-b2d4-cdf7a24feb9c","name":"Baikonur","ru":"Baikonur","country":"766899b3-3227-4d13-8380-1f181115784e","countryCode":"KZ","state":"7534009e-a4f3-406e-a88e-99b74e3451e3","stateCode":"BAY","latitude":"45.61667000","longitude":"63.31667000"},{"id":"8887bf5d-e639-4166-bffb-dcbefad09aba","name":"Altayskiy","ru":"Altayskiy","country":"766899b3-3227-4d13-8380-1f181115784e","countryCode":"KZ","state":"7bbb40ab-494f-4948-8a3a-86af7df17762","stateCode":"VOS","latitude":"50.24593000","longitude":"82.36252000"},{"id":"3df638e2-57c6-4579-872c-6b4613b7bcac","name":"Aqtoghay","ru":"Aqtoghay","country":"766899b3-3227-4d13-8380-1f181115784e","countryCode":"KZ","state":"7bbb40ab-494f-4948-8a3a-86af7df17762","stateCode":"VOS","latitude":"46.95000000","longitude":"79.66667000"},{"id":"7ab4f4fc-b4ca-42d2-b729-38528e77a9fd","name":"Asūbulaq","ru":"Asūbulaq","country":"766899b3-3227-4d13-8380-1f181115784e","countryCode":"KZ","state":"7bbb40ab-494f-4948-8a3a-86af7df17762","stateCode":"VOS","latitude":"49.55688000","longitude":"83.06355000"},{"id":"670b0929-33de-49ea-9b57-52c378b52871","name":"Auezov","ru":"Auezov","country":"766899b3-3227-4d13-8380-1f181115784e","countryCode":"KZ","state":"7bbb40ab-494f-4948-8a3a-86af7df17762","stateCode":"VOS","latitude":"49.71003000","longitude":"81.58018000"},{"id":"35b6d16e-1380-4b84-83b3-87a2e2e46de0","name":"Ayagoz","ru":"Ayagoz","country":"766899b3-3227-4d13-8380-1f181115784e","countryCode":"KZ","state":"7bbb40ab-494f-4948-8a3a-86af7df17762","stateCode":"VOS","latitude":"47.96447000","longitude":"80.43437000"},{"id":"2222cb60-ea2a-431d-992f-0d8d9eec0f1d","name":"Ūst’-Talovka","ru":"Ūst’-Talovka","country":"766899b3-3227-4d13-8380-1f181115784e","countryCode":"KZ","state":"7bbb40ab-494f-4948-8a3a-86af7df17762","stateCode":"VOS","latitude":"50.54927000","longitude":"81.84997000"},{"id":"2115b708-f19a-481f-b5ed-1d98eb831445","name":"Belogorskīy","ru":"Belogorskīy","country":"766899b3-3227-4d13-8380-1f181115784e","countryCode":"KZ","state":"7bbb40ab-494f-4948-8a3a-86af7df17762","stateCode":"VOS","latitude":"49.47698000","longitude":"83.14803000"},{"id":"7ce2c14b-1954-4abb-929c-8717d2a698cf","name":"Belousovka","ru":"Belousovka","country":"766899b3-3227-4d13-8380-1f181115784e","countryCode":"KZ","state":"7bbb40ab-494f-4948-8a3a-86af7df17762","stateCode":"VOS","latitude":"50.13287000","longitude":"82.52481000"},{"id":"84c894e1-58ba-49a1-8f30-7a57a45d1146","name":"Borodulikha","ru":"Borodulikha","country":"766899b3-3227-4d13-8380-1f181115784e","countryCode":"KZ","state":"7bbb40ab-494f-4948-8a3a-86af7df17762","stateCode":"VOS","latitude":"50.71841000","longitude":"80.92950000"},{"id":"965644c8-1cd7-48ec-9d0e-293fdc584882","name":"Georgīevka","ru":"Georgīevka","country":"766899b3-3227-4d13-8380-1f181115784e","countryCode":"KZ","state":"7bbb40ab-494f-4948-8a3a-86af7df17762","stateCode":"VOS","latitude":"49.32671000","longitude":"81.57373000"},{"id":"f86f494e-df5d-426d-aa63-0dea7709e08a","name":"Glubokoye","ru":"Glubokoye","country":"766899b3-3227-4d13-8380-1f181115784e","countryCode":"KZ","state":"7bbb40ab-494f-4948-8a3a-86af7df17762","stateCode":"VOS","latitude":"50.13887000","longitude":"82.31114000"},{"id":"1552dcec-8c90-46c1-b9fd-b4ae6d32d069","name":"Kurchatov","ru":"Kurchatov","country":"766899b3-3227-4d13-8380-1f181115784e","countryCode":"KZ","state":"7bbb40ab-494f-4948-8a3a-86af7df17762","stateCode":"VOS","latitude":"50.75617000","longitude":"78.54188000"},{"id":"b740917b-5d52-4460-92da-dd2d62f1e736","name":"Kurchum","ru":"Kurchum","country":"766899b3-3227-4d13-8380-1f181115784e","countryCode":"KZ","state":"7bbb40ab-494f-4948-8a3a-86af7df17762","stateCode":"VOS","latitude":"48.56603000","longitude":"83.66146000"},{"id":"34bc25b2-7c6d-4fd9-a5cb-1d5b1704c537","name":"Maleyevsk","ru":"Maleyevsk","country":"766899b3-3227-4d13-8380-1f181115784e","countryCode":"KZ","state":"7bbb40ab-494f-4948-8a3a-86af7df17762","stateCode":"VOS","latitude":"49.81441000","longitude":"84.29102000"},{"id":"ca37a64a-0b75-45e4-a9cb-f8683259186c","name":"Ognevka","ru":"Ognevka","country":"766899b3-3227-4d13-8380-1f181115784e","countryCode":"KZ","state":"7bbb40ab-494f-4948-8a3a-86af7df17762","stateCode":"VOS","latitude":"49.68351000","longitude":"83.01674000"},{"id":"5822ba7d-64a2-46d9-af93-979ab1069c66","name":"Priisk Boko","ru":"Priisk Boko","country":"766899b3-3227-4d13-8380-1f181115784e","countryCode":"KZ","state":"7bbb40ab-494f-4948-8a3a-86af7df17762","stateCode":"VOS","latitude":"49.06028000","longitude":"81.64528000"},{"id":"3c1ae1da-a306-4075-9a22-3e78dbfa0312","name":"Qaraūyl","ru":"Qaraūyl","country":"766899b3-3227-4d13-8380-1f181115784e","countryCode":"KZ","state":"7bbb40ab-494f-4948-8a3a-86af7df17762","stateCode":"VOS","latitude":"48.94509000","longitude":"79.25502000"},{"id":"48da9190-8d90-4f8b-a84f-1687f8133828","name":"Ridder","ru":"Ridder","country":"766899b3-3227-4d13-8380-1f181115784e","countryCode":"KZ","state":"7bbb40ab-494f-4948-8a3a-86af7df17762","stateCode":"VOS","latitude":"50.34413000","longitude":"83.51287000"},{"id":"926ac9a4-2026-4faa-979d-c83514db65ea","name":"Semey","ru":"Semey","country":"766899b3-3227-4d13-8380-1f181115784e","countryCode":"KZ","state":"7bbb40ab-494f-4948-8a3a-86af7df17762","stateCode":"VOS","latitude":"50.42675000","longitude":"80.26669000"},{"id":"6c7cfc64-8f85-4956-bec4-ad605866b9db","name":"Shar","ru":"Shar","country":"766899b3-3227-4d13-8380-1f181115784e","countryCode":"KZ","state":"7bbb40ab-494f-4948-8a3a-86af7df17762","stateCode":"VOS","latitude":"49.58720000","longitude":"81.04883000"},{"id":"a697a124-7790-400f-9e6b-6bb6c3447cd6","name":"Shemonaīkha","ru":"Shemonaīkha","country":"766899b3-3227-4d13-8380-1f181115784e","countryCode":"KZ","state":"7bbb40ab-494f-4948-8a3a-86af7df17762","stateCode":"VOS","latitude":"50.62811000","longitude":"81.91213000"},{"id":"0bf6ee1a-42e2-4257-a2b9-f829d0f8eef4","name":"Suykbulak","ru":"Suykbulak","country":"766899b3-3227-4d13-8380-1f181115784e","countryCode":"KZ","state":"7bbb40ab-494f-4948-8a3a-86af7df17762","stateCode":"VOS","latitude":"49.70837000","longitude":"81.04854000"},{"id":"669e66ca-4831-4b2e-ac9a-b22ced9cc510","name":"Tūghyl","ru":"Tūghyl","country":"766899b3-3227-4d13-8380-1f181115784e","countryCode":"KZ","state":"7bbb40ab-494f-4948-8a3a-86af7df17762","stateCode":"VOS","latitude":"47.72521000","longitude":"84.20629000"},{"id":"66a870ef-0576-4938-909f-22a77f71cd9f","name":"Urzhar","ru":"Urzhar","country":"766899b3-3227-4d13-8380-1f181115784e","countryCode":"KZ","state":"7bbb40ab-494f-4948-8a3a-86af7df17762","stateCode":"VOS","latitude":"47.09302000","longitude":"81.62939000"},{"id":"d6806b43-d805-4e9d-9232-bcf47fc5aef6","name":"Ust-Kamenogorsk","ru":"Ust-Kamenogorsk","country":"766899b3-3227-4d13-8380-1f181115784e","countryCode":"KZ","state":"7bbb40ab-494f-4948-8a3a-86af7df17762","stateCode":"VOS","latitude":"49.97143000","longitude":"82.60586000"},{"id":"d14c2192-7f2e-40d9-ae37-972a35ab2ec5","name":"Zaysan","ru":"Zaysan","country":"766899b3-3227-4d13-8380-1f181115784e","countryCode":"KZ","state":"7bbb40ab-494f-4948-8a3a-86af7df17762","stateCode":"VOS","latitude":"47.46657000","longitude":"84.87144000"},{"id":"aab2810d-2c2b-45f0-828d-905c05672cf9","name":"Zhalghyztobe","ru":"Zhalghyztobe","country":"766899b3-3227-4d13-8380-1f181115784e","countryCode":"KZ","state":"7bbb40ab-494f-4948-8a3a-86af7df17762","stateCode":"VOS","latitude":"49.21094000","longitude":"81.21596000"},{"id":"4960df60-98b5-4753-8e63-9040fa01584b","name":"Zhanga Buqtyrma","ru":"Zhanga Buqtyrma","country":"766899b3-3227-4d13-8380-1f181115784e","countryCode":"KZ","state":"7bbb40ab-494f-4948-8a3a-86af7df17762","stateCode":"VOS","latitude":"49.62950000","longitude":"83.52475000"},{"id":"0b3f8344-39dd-4f98-9165-1804b1c6684b","name":"Zhezkent","ru":"Zhezkent","country":"766899b3-3227-4d13-8380-1f181115784e","countryCode":"KZ","state":"7bbb40ab-494f-4948-8a3a-86af7df17762","stateCode":"VOS","latitude":"50.93112000","longitude":"81.36150000"},{"id":"416148cf-fb24-47ce-a999-8b6ec2b40a2d","name":"Zyryanovsk","ru":"Zyryanovsk","country":"766899b3-3227-4d13-8380-1f181115784e","countryCode":"KZ","state":"7bbb40ab-494f-4948-8a3a-86af7df17762","stateCode":"VOS","latitude":"49.72654000","longitude":"84.27318000"},{"id":"e7fb8473-9e60-4574-bc3f-6ad62b3b89fa","name":"Aqbaqay","ru":"Aqbaqay","country":"766899b3-3227-4d13-8380-1f181115784e","countryCode":"KZ","state":"b26d0d07-d3c2-4b01-9ea8-b3eb4d542c9f","stateCode":"ZHA","latitude":"45.00000000","longitude":"72.78333000"},{"id":"594802a9-e3e8-4325-9ec0-74147b44f665","name":"Chu","ru":"Chu","country":"766899b3-3227-4d13-8380-1f181115784e","countryCode":"KZ","state":"b26d0d07-d3c2-4b01-9ea8-b3eb4d542c9f","stateCode":"ZHA","latitude":"43.60334000","longitude":"73.75919000"},{"id":"f3aa96f9-536f-4edd-acc6-e0054074b5de","name":"Georgiyevka","ru":"Georgiyevka","country":"766899b3-3227-4d13-8380-1f181115784e","countryCode":"KZ","state":"b26d0d07-d3c2-4b01-9ea8-b3eb4d542c9f","stateCode":"ZHA","latitude":"43.03882000","longitude":"74.71287000"},{"id":"d39df059-76af-4c51-81de-fd2931f3a0ae","name":"Granitogorsk","ru":"Granitogorsk","country":"766899b3-3227-4d13-8380-1f181115784e","countryCode":"KZ","state":"b26d0d07-d3c2-4b01-9ea8-b3eb4d542c9f","stateCode":"ZHA","latitude":"42.74400000","longitude":"73.46848000"},{"id":"60be5cc7-c781-4f20-9d0a-b2e4e5f15ec3","name":"Karatau","ru":"Karatau","country":"766899b3-3227-4d13-8380-1f181115784e","countryCode":"KZ","state":"b26d0d07-d3c2-4b01-9ea8-b3eb4d542c9f","stateCode":"ZHA","latitude":"43.17869000","longitude":"70.46768000"},{"id":"edb2f4ed-b445-48c6-a9b0-6f6d445c6377","name":"Khantaū","ru":"Khantaū","country":"766899b3-3227-4d13-8380-1f181115784e","countryCode":"KZ","state":"b26d0d07-d3c2-4b01-9ea8-b3eb4d542c9f","stateCode":"ZHA","latitude":"44.22744000","longitude":"73.79555000"},{"id":"ab0881f7-6bdb-4e0d-9098-c7771d208b46","name":"Lugovoy","ru":"Lugovoy","country":"766899b3-3227-4d13-8380-1f181115784e","countryCode":"KZ","state":"b26d0d07-d3c2-4b01-9ea8-b3eb4d542c9f","stateCode":"ZHA","latitude":"42.94197000","longitude":"72.76098000"},{"id":"a72bd595-30e6-4d1d-81a8-409cbf34b2b5","name":"Lugovoye","ru":"Lugovoye","country":"766899b3-3227-4d13-8380-1f181115784e","countryCode":"KZ","state":"b26d0d07-d3c2-4b01-9ea8-b3eb4d542c9f","stateCode":"ZHA","latitude":"42.91010000","longitude":"72.72066000"},{"id":"0ca7bed2-0375-47e0-abdd-38b040d653c4","name":"Merke","ru":"Merke","country":"766899b3-3227-4d13-8380-1f181115784e","countryCode":"KZ","state":"b26d0d07-d3c2-4b01-9ea8-b3eb4d542c9f","stateCode":"ZHA","latitude":"42.86976000","longitude":"73.18463000"},{"id":"8231cd35-6fe2-40a7-9c21-8966baede465","name":"Moyynkum","ru":"Moyynkum","country":"766899b3-3227-4d13-8380-1f181115784e","countryCode":"KZ","state":"b26d0d07-d3c2-4b01-9ea8-b3eb4d542c9f","stateCode":"ZHA","latitude":"44.28461000","longitude":"72.93920000"},{"id":"dd18e2c9-8d1a-43a2-b60c-6871fd8f92a3","name":"Mynaral","ru":"Mynaral","country":"766899b3-3227-4d13-8380-1f181115784e","countryCode":"KZ","state":"b26d0d07-d3c2-4b01-9ea8-b3eb4d542c9f","stateCode":"ZHA","latitude":"45.41611000","longitude":"73.68444000"},{"id":"5c78b645-d852-4eaa-a583-e5e2353960b6","name":"Oytal","ru":"Oytal","country":"766899b3-3227-4d13-8380-1f181115784e","countryCode":"KZ","state":"b26d0d07-d3c2-4b01-9ea8-b3eb4d542c9f","stateCode":"ZHA","latitude":"42.90573000","longitude":"73.26972000"},{"id":"fb2334f9-7081-44c4-afea-a27b209d7513","name":"Sarykemer","ru":"Sarykemer","country":"766899b3-3227-4d13-8380-1f181115784e","countryCode":"KZ","state":"b26d0d07-d3c2-4b01-9ea8-b3eb4d542c9f","stateCode":"ZHA","latitude":"43.00000000","longitude":"71.50000000"},{"id":"d2faaa33-b1e0-4d96-98df-136095f7b91e","name":"Shyghanaq","ru":"Shyghanaq","country":"766899b3-3227-4d13-8380-1f181115784e","countryCode":"KZ","state":"b26d0d07-d3c2-4b01-9ea8-b3eb4d542c9f","stateCode":"ZHA","latitude":"44.83056000","longitude":"70.00194000"},{"id":"435ebe2e-d6f7-43f4-b321-45542f5e1aa7","name":"Taraz","ru":"Taraz","country":"766899b3-3227-4d13-8380-1f181115784e","countryCode":"KZ","state":"b26d0d07-d3c2-4b01-9ea8-b3eb4d542c9f","stateCode":"ZHA","latitude":"42.90000000","longitude":"71.36667000"},{"id":"0ad08bb2-ed69-441e-877f-9fe1f5a2c62c","name":"Zhangatas","ru":"Zhangatas","country":"766899b3-3227-4d13-8380-1f181115784e","countryCode":"KZ","state":"b26d0d07-d3c2-4b01-9ea8-b3eb4d542c9f","stateCode":"ZHA","latitude":"43.56222000","longitude":"69.73428000"},{"id":"2ac0af19-8a1d-43a3-bfb2-01188a348ab6","name":"Abay","ru":"Abay","country":"766899b3-3227-4d13-8380-1f181115784e","countryCode":"KZ","state":"e33d779c-29c3-40d6-8777-2600b29667ac","stateCode":"KAR","latitude":"49.63575000","longitude":"72.86164000"},{"id":"ca889c80-b52f-42ef-b576-e0e774127ff3","name":"Abay Qalasy","ru":"Abay Qalasy","country":"766899b3-3227-4d13-8380-1f181115784e","countryCode":"KZ","state":"e33d779c-29c3-40d6-8777-2600b29667ac","stateCode":"KAR","latitude":"49.63333000","longitude":"72.88333000"},{"id":"5d8fa263-00aa-43ab-ad16-a5241da353fd","name":"Aksu-Ayuly","ru":"Aksu-Ayuly","country":"766899b3-3227-4d13-8380-1f181115784e","countryCode":"KZ","state":"e33d779c-29c3-40d6-8777-2600b29667ac","stateCode":"KAR","latitude":"48.76788000","longitude":"73.67272000"},{"id":"44d0894e-19da-409c-a3a4-a7e0dae6f78f","name":"Aktas","ru":"Aktas","country":"766899b3-3227-4d13-8380-1f181115784e","countryCode":"KZ","state":"e33d779c-29c3-40d6-8777-2600b29667ac","stateCode":"KAR","latitude":"49.77952000","longitude":"72.96128000"},{"id":"acc74f24-f151-4384-b6c0-e9c2cb586ad9","name":"Aktau","ru":"Aktau","country":"766899b3-3227-4d13-8380-1f181115784e","countryCode":"KZ","state":"e33d779c-29c3-40d6-8777-2600b29667ac","stateCode":"KAR","latitude":"48.03333000","longitude":"72.83333000"},{"id":"aecfe1fa-5128-415b-8fb9-ce5de5a2101b","name":"Aktogay","ru":"Aktogay","country":"766899b3-3227-4d13-8380-1f181115784e","countryCode":"KZ","state":"e33d779c-29c3-40d6-8777-2600b29667ac","stateCode":"KAR","latitude":"48.16667000","longitude":"75.30000000"},{"id":"804a13c2-1859-4840-a2e1-b06b59cd06f4","name":"Aqadyr","ru":"Aqadyr","country":"766899b3-3227-4d13-8380-1f181115784e","countryCode":"KZ","state":"e33d779c-29c3-40d6-8777-2600b29667ac","stateCode":"KAR","latitude":"48.26014000","longitude":"72.85851000"},{"id":"c7d743c9-a2cc-423b-94d4-c005c63ffad3","name":"Aqshataū","ru":"Aqshataū","country":"766899b3-3227-4d13-8380-1f181115784e","countryCode":"KZ","state":"e33d779c-29c3-40d6-8777-2600b29667ac","stateCode":"KAR","latitude":"47.98917000","longitude":"74.05750000"},{"id":"fc16ada5-73cd-477a-b224-4d92a449afa2","name":"Aqtoghay Aūdany","ru":"Aqtoghay Aūdany","country":"766899b3-3227-4d13-8380-1f181115784e","countryCode":"KZ","state":"e33d779c-29c3-40d6-8777-2600b29667ac","stateCode":"KAR","latitude":"48.50000000","longitude":"74.75000000"},{"id":"f28fe4b5-7824-4527-b5d8-18c97a7ddadd","name":"Atasū","ru":"Atasū","country":"766899b3-3227-4d13-8380-1f181115784e","countryCode":"KZ","state":"e33d779c-29c3-40d6-8777-2600b29667ac","stateCode":"KAR","latitude":"48.68659000","longitude":"71.64469000"},{"id":"1e9ad038-c97b-450c-b974-be8598dbfe88","name":"Balqash","ru":"Balqash","country":"766899b3-3227-4d13-8380-1f181115784e","countryCode":"KZ","state":"e33d779c-29c3-40d6-8777-2600b29667ac","stateCode":"KAR","latitude":"46.84806000","longitude":"74.99500000"},{"id":"06064cb4-8b8c-4135-bab9-60cd1df7112a","name":"Bukhar-Zhyrau","ru":"Bukhar-Zhyrau","country":"766899b3-3227-4d13-8380-1f181115784e","countryCode":"KZ","state":"e33d779c-29c3-40d6-8777-2600b29667ac","stateCode":"KAR","latitude":"49.85658000","longitude":"73.68118000"},{"id":"f6088ca4-9e90-4592-937e-fa08c495e79c","name":"Dolinka","ru":"Dolinka","country":"766899b3-3227-4d13-8380-1f181115784e","countryCode":"KZ","state":"e33d779c-29c3-40d6-8777-2600b29667ac","stateCode":"KAR","latitude":"49.67685000","longitude":"72.67822000"},{"id":"a7028172-a755-4c0a-8d05-c0325ba9614c","name":"Karagandy","ru":"Karagandy","country":"766899b3-3227-4d13-8380-1f181115784e","countryCode":"KZ","state":"e33d779c-29c3-40d6-8777-2600b29667ac","stateCode":"KAR","latitude":"49.80187000","longitude":"73.10211000"},{"id":"fd05369b-6f8c-4fb9-8cbd-e0f5c9557dc2","name":"Kīevka","ru":"Kīevka","country":"766899b3-3227-4d13-8380-1f181115784e","countryCode":"KZ","state":"e33d779c-29c3-40d6-8777-2600b29667ac","stateCode":"KAR","latitude":"50.26212000","longitude":"71.54839000"},{"id":"f227fb3d-3d9f-4eb9-ae8c-de4806835ef6","name":"Koktal","ru":"Koktal","country":"766899b3-3227-4d13-8380-1f181115784e","countryCode":"KZ","state":"e33d779c-29c3-40d6-8777-2600b29667ac","stateCode":"KAR","latitude":"49.65000000","longitude":"73.51667000"},{"id":"65472ccf-a4c2-44a9-b6cd-c4117fc09dd4","name":"Kushoky","ru":"Kushoky","country":"766899b3-3227-4d13-8380-1f181115784e","countryCode":"KZ","state":"e33d779c-29c3-40d6-8777-2600b29667ac","stateCode":"KAR","latitude":"50.23091000","longitude":"73.40146000"},{"id":"233e1e07-bf38-42df-aaff-fbe2026bb055","name":"Kyzylzhar","ru":"Kyzylzhar","country":"766899b3-3227-4d13-8380-1f181115784e","countryCode":"KZ","state":"e33d779c-29c3-40d6-8777-2600b29667ac","stateCode":"KAR","latitude":"49.98197000","longitude":"72.60761000"},{"id":"ebcb7ab8-4539-421d-a167-1bed4df7701e","name":"Moyynty","ru":"Moyynty","country":"766899b3-3227-4d13-8380-1f181115784e","countryCode":"KZ","state":"e33d779c-29c3-40d6-8777-2600b29667ac","stateCode":"KAR","latitude":"47.22111000","longitude":"73.36694000"},{"id":"a3720009-9115-4da4-8b6e-353f8264fa96","name":"Novodolinskiy","ru":"Novodolinskiy","country":"766899b3-3227-4d13-8380-1f181115784e","countryCode":"KZ","state":"e33d779c-29c3-40d6-8777-2600b29667ac","stateCode":"KAR","latitude":"49.70650000","longitude":"72.70807000"},{"id":"8e1e528d-1d25-4386-b048-ac4de7107132","name":"Osakarovka","ru":"Osakarovka","country":"766899b3-3227-4d13-8380-1f181115784e","countryCode":"KZ","state":"e33d779c-29c3-40d6-8777-2600b29667ac","stateCode":"KAR","latitude":"50.56219000","longitude":"72.57089000"},{"id":"fb0b36d4-4973-4014-982f-9a48339e4b95","name":"Prigorodnoye","ru":"Prigorodnoye","country":"766899b3-3227-4d13-8380-1f181115784e","countryCode":"KZ","state":"e33d779c-29c3-40d6-8777-2600b29667ac","stateCode":"KAR","latitude":"49.69244000","longitude":"75.58438000"},{"id":"8572f6d8-edc3-4df6-a499-8decb7d02c60","name":"Priozersk","ru":"Priozersk","country":"766899b3-3227-4d13-8380-1f181115784e","countryCode":"KZ","state":"e33d779c-29c3-40d6-8777-2600b29667ac","stateCode":"KAR","latitude":"46.03106000","longitude":"73.70247000"},{"id":"5187d118-bd78-4f56-b4b2-7bccdad4db40","name":"Qarazhal","ru":"Qarazhal","country":"766899b3-3227-4d13-8380-1f181115784e","countryCode":"KZ","state":"e33d779c-29c3-40d6-8777-2600b29667ac","stateCode":"KAR","latitude":"48.00627000","longitude":"70.79607000"},{"id":"fe7a5608-09f9-42b9-a227-2376f72372a2","name":"Qarqaraly","ru":"Qarqaraly","country":"766899b3-3227-4d13-8380-1f181115784e","countryCode":"KZ","state":"e33d779c-29c3-40d6-8777-2600b29667ac","stateCode":"KAR","latitude":"49.41287000","longitude":"75.47286000"},{"id":"71b8994c-f4a6-400f-acf6-338346a6f760","name":"Saryshaghan","ru":"Saryshaghan","country":"766899b3-3227-4d13-8380-1f181115784e","countryCode":"KZ","state":"e33d779c-29c3-40d6-8777-2600b29667ac","stateCode":"KAR","latitude":"46.11917000","longitude":"73.61917000"},{"id":"e6ac1133-3091-4dcb-9920-ff58a35809dd","name":"Sayaq","ru":"Sayaq","country":"766899b3-3227-4d13-8380-1f181115784e","countryCode":"KZ","state":"e33d779c-29c3-40d6-8777-2600b29667ac","stateCode":"KAR","latitude":"47.00000000","longitude":"77.26667000"},{"id":"354c578d-fbfc-4c2d-ae34-24b483e88d55","name":"Shakhan","ru":"Shakhan","country":"766899b3-3227-4d13-8380-1f181115784e","countryCode":"KZ","state":"e33d779c-29c3-40d6-8777-2600b29667ac","stateCode":"KAR","latitude":"49.81958000","longitude":"72.65407000"},{"id":"f2ee7366-d736-45a9-8982-0a52470b9c5f","name":"Shakhtinsk","ru":"Shakhtinsk","country":"766899b3-3227-4d13-8380-1f181115784e","countryCode":"KZ","state":"e33d779c-29c3-40d6-8777-2600b29667ac","stateCode":"KAR","latitude":"49.70885000","longitude":"72.59212000"},{"id":"97f2bd4c-0110-49f3-8031-075ccafd3e7e","name":"Shashūbay","ru":"Shashūbay","country":"766899b3-3227-4d13-8380-1f181115784e","countryCode":"KZ","state":"e33d779c-29c3-40d6-8777-2600b29667ac","stateCode":"KAR","latitude":"46.81694000","longitude":"75.04028000"},{"id":"2e9427b9-65e8-4ecd-a7f9-40c2f8334adc","name":"Shubarköl","ru":"Shubarköl","country":"766899b3-3227-4d13-8380-1f181115784e","countryCode":"KZ","state":"e33d779c-29c3-40d6-8777-2600b29667ac","stateCode":"KAR","latitude":"48.88222000","longitude":"68.80722000"},{"id":"835b24e2-7d45-43e3-aea8-9939aba0a6bc","name":"Soran","ru":"Soran","country":"766899b3-3227-4d13-8380-1f181115784e","countryCode":"KZ","state":"e33d779c-29c3-40d6-8777-2600b29667ac","stateCode":"KAR","latitude":"49.79080000","longitude":"72.83744000"},{"id":"e4a576f9-67d5-4668-81bf-0eb0b035e9c8","name":"Temirtau","ru":"Temirtau","country":"766899b3-3227-4d13-8380-1f181115784e","countryCode":"KZ","state":"e33d779c-29c3-40d6-8777-2600b29667ac","stateCode":"KAR","latitude":"50.05494000","longitude":"72.96464000"},{"id":"26252355-afb9-43e7-b393-fd09d461c60a","name":"Tokarevka","ru":"Tokarevka","country":"766899b3-3227-4d13-8380-1f181115784e","countryCode":"KZ","state":"e33d779c-29c3-40d6-8777-2600b29667ac","stateCode":"KAR","latitude":"50.11573000","longitude":"73.16034000"},{"id":"7200951c-6cc0-4a67-a034-12e6df761b5b","name":"Verkhniye Kayrakty","ru":"Verkhniye Kayrakty","country":"766899b3-3227-4d13-8380-1f181115784e","countryCode":"KZ","state":"e33d779c-29c3-40d6-8777-2600b29667ac","stateCode":"KAR","latitude":"48.68333000","longitude":"73.28333000"},{"id":"e45a0edb-f2b4-4480-a9fa-d8f1bc69a748","name":"Zhambyl","ru":"Zhambyl","country":"766899b3-3227-4d13-8380-1f181115784e","countryCode":"KZ","state":"e33d779c-29c3-40d6-8777-2600b29667ac","stateCode":"KAR","latitude":"47.20694000","longitude":"71.39694000"},{"id":"e3ea13b5-3e6e-431f-95e2-12b27ac67f63","name":"Zharyk","ru":"Zharyk","country":"766899b3-3227-4d13-8380-1f181115784e","countryCode":"KZ","state":"e33d779c-29c3-40d6-8777-2600b29667ac","stateCode":"KAR","latitude":"48.85692000","longitude":"72.83598000"},{"id":"8604cb8e-c5a7-4084-95c8-66cc4e809ad2","name":"Zhezqazghan","ru":"Zhezqazghan","country":"766899b3-3227-4d13-8380-1f181115784e","countryCode":"KZ","state":"e33d779c-29c3-40d6-8777-2600b29667ac","stateCode":"KAR","latitude":"47.78333000","longitude":"67.76667000"},{"id":"08b8b6ad-aecc-441f-a0fb-b0976f70cf42","name":"Arkalyk","ru":"Arkalyk","country":"766899b3-3227-4d13-8380-1f181115784e","countryCode":"KZ","state":"dc545733-2c43-4a96-8e59-6463890e5aac","stateCode":"KUS","latitude":"50.24915000","longitude":"66.92027000"},{"id":"9092fade-3b07-4159-84fc-b4b9fd73852f","name":"Ayat","ru":"Ayat","country":"766899b3-3227-4d13-8380-1f181115784e","countryCode":"KZ","state":"dc545733-2c43-4a96-8e59-6463890e5aac","stateCode":"KUS","latitude":"52.83554000","longitude":"62.52078000"},{"id":"9a239d67-4c29-4571-b404-1109d4ce1125","name":"Borovskoy","ru":"Borovskoy","country":"766899b3-3227-4d13-8380-1f181115784e","countryCode":"KZ","state":"dc545733-2c43-4a96-8e59-6463890e5aac","stateCode":"KUS","latitude":"53.79270000","longitude":"64.18268000"},{"id":"ce5ac7d6-6559-4d45-b669-6dcd629188b9","name":"Dzhetygara","ru":"Dzhetygara","country":"766899b3-3227-4d13-8380-1f181115784e","countryCode":"KZ","state":"dc545733-2c43-4a96-8e59-6463890e5aac","stateCode":"KUS","latitude":"52.19019000","longitude":"61.19894000"},{"id":"3331e6d0-fb62-479b-a75d-9d94c74b148b","name":"Fyodorovka","ru":"Fyodorovka","country":"766899b3-3227-4d13-8380-1f181115784e","countryCode":"KZ","state":"dc545733-2c43-4a96-8e59-6463890e5aac","stateCode":"KUS","latitude":"53.63809000","longitude":"62.69653000"},{"id":"3a7f7a9a-a880-459c-9ba1-211618f565d2","name":"Karasu","ru":"Karasu","country":"766899b3-3227-4d13-8380-1f181115784e","countryCode":"KZ","state":"dc545733-2c43-4a96-8e59-6463890e5aac","stateCode":"KUS","latitude":"52.65995000","longitude":"65.48421000"},{"id":"31e0909b-2014-470f-8648-4b6f68bfeaec","name":"Komsomolets","ru":"Komsomolets","country":"766899b3-3227-4d13-8380-1f181115784e","countryCode":"KZ","state":"dc545733-2c43-4a96-8e59-6463890e5aac","stateCode":"KUS","latitude":"53.75019000","longitude":"62.05840000"},{"id":"341a1bab-8082-43f5-85be-4f5a1436ac28","name":"Kostanay","ru":"Kostanay","country":"766899b3-3227-4d13-8380-1f181115784e","countryCode":"KZ","state":"dc545733-2c43-4a96-8e59-6463890e5aac","stateCode":"KUS","latitude":"53.21435000","longitude":"63.62463000"},{"id":"9edc1a87-e385-4852-b8a7-860755be2085","name":"Lisakovsk","ru":"Lisakovsk","country":"766899b3-3227-4d13-8380-1f181115784e","countryCode":"KZ","state":"dc545733-2c43-4a96-8e59-6463890e5aac","stateCode":"KUS","latitude":"52.54707000","longitude":"62.49987000"},{"id":"203ce119-91d6-4b3f-97fe-a48de2f6767e","name":"Ordzhonikidze","ru":"Ordzhonikidze","country":"766899b3-3227-4d13-8380-1f181115784e","countryCode":"KZ","state":"dc545733-2c43-4a96-8e59-6463890e5aac","stateCode":"KUS","latitude":"52.44772000","longitude":"61.74942000"},{"id":"85e5f145-8a24-42d0-b78d-061e84466700","name":"Qashar","ru":"Qashar","country":"766899b3-3227-4d13-8380-1f181115784e","countryCode":"KZ","state":"dc545733-2c43-4a96-8e59-6463890e5aac","stateCode":"KUS","latitude":"53.36799000","longitude":"62.86839000"},{"id":"63ae28ba-e506-4e79-a804-a0a5c6fa9a85","name":"Qusmuryn","ru":"Qusmuryn","country":"766899b3-3227-4d13-8380-1f181115784e","countryCode":"KZ","state":"dc545733-2c43-4a96-8e59-6463890e5aac","stateCode":"KUS","latitude":"52.45107000","longitude":"64.61977000"},{"id":"88a94a71-f748-4faf-988a-de50caaa30c1","name":"Rudnyy","ru":"Rudnyy","country":"766899b3-3227-4d13-8380-1f181115784e","countryCode":"KZ","state":"dc545733-2c43-4a96-8e59-6463890e5aac","stateCode":"KUS","latitude":"52.97290000","longitude":"63.11677000"},{"id":"361331fc-e117-488e-a6be-7259b535bd5b","name":"Tobol","ru":"Tobol","country":"766899b3-3227-4d13-8380-1f181115784e","countryCode":"KZ","state":"dc545733-2c43-4a96-8e59-6463890e5aac","stateCode":"KUS","latitude":"52.69366000","longitude":"62.59140000"},{"id":"f643acd2-e84a-4721-916d-25048cf89b4e","name":"Torghay","ru":"Torghay","country":"766899b3-3227-4d13-8380-1f181115784e","countryCode":"KZ","state":"dc545733-2c43-4a96-8e59-6463890e5aac","stateCode":"KUS","latitude":"49.63389000","longitude":"63.49806000"},{"id":"0d9f67cb-9ff8-4819-becb-ec7437c77ca7","name":"Troyebratskiy","ru":"Troyebratskiy","country":"766899b3-3227-4d13-8380-1f181115784e","countryCode":"KZ","state":"dc545733-2c43-4a96-8e59-6463890e5aac","stateCode":"KUS","latitude":"54.44306000","longitude":"66.07982000"},{"id":"df3681a4-5f87-402f-9ead-eeffc8460bf2","name":"Aral","ru":"Aral","country":"766899b3-3227-4d13-8380-1f181115784e","countryCode":"KZ","state":"3949a2eb-188f-4d2d-97c8-440a1d96c7ed","stateCode":"KZY","latitude":"46.80000000","longitude":"61.66667000"},{"id":"01d445e9-6565-448d-9d9d-dc17cd9472de","name":"Ayteke Bi","ru":"Ayteke Bi","country":"766899b3-3227-4d13-8380-1f181115784e","countryCode":"KZ","state":"3949a2eb-188f-4d2d-97c8-440a1d96c7ed","stateCode":"KZY","latitude":"45.84607000","longitude":"62.15264000"},{"id":"3b559042-1376-4093-8be2-bc3c34626093","name":"Belköl","ru":"Belköl","country":"766899b3-3227-4d13-8380-1f181115784e","countryCode":"KZ","state":"3949a2eb-188f-4d2d-97c8-440a1d96c7ed","stateCode":"KZY","latitude":"44.81162000","longitude":"65.58796000"},{"id":"8b380f08-1b24-437f-bd6a-c98dfa8b13e5","name":"Dzhalagash","ru":"Dzhalagash","country":"766899b3-3227-4d13-8380-1f181115784e","countryCode":"KZ","state":"3949a2eb-188f-4d2d-97c8-440a1d96c7ed","stateCode":"KZY","latitude":"45.08333000","longitude":"64.66667000"},{"id":"170b4654-5443-44b2-bb17-372105f755c5","name":"Kyzylorda","ru":"Kyzylorda","country":"766899b3-3227-4d13-8380-1f181115784e","countryCode":"KZ","state":"3949a2eb-188f-4d2d-97c8-440a1d96c7ed","stateCode":"KZY","latitude":"44.85278000","longitude":"65.50917000"},{"id":"24ecd128-b0aa-4028-a804-fdb3330e7fab","name":"Qazaly","ru":"Qazaly","country":"766899b3-3227-4d13-8380-1f181115784e","countryCode":"KZ","state":"3949a2eb-188f-4d2d-97c8-440a1d96c7ed","stateCode":"KZY","latitude":"45.76278000","longitude":"62.10750000"},{"id":"9ea4c972-6caf-4df9-9eff-82cb84bd05f8","name":"Sekseūil","ru":"Sekseūil","country":"766899b3-3227-4d13-8380-1f181115784e","countryCode":"KZ","state":"3949a2eb-188f-4d2d-97c8-440a1d96c7ed","stateCode":"KZY","latitude":"47.09000000","longitude":"61.15194000"},{"id":"02f859f1-e35b-43ad-8587-041502899a32","name":"Shalqīya","ru":"Shalqīya","country":"766899b3-3227-4d13-8380-1f181115784e","countryCode":"KZ","state":"3949a2eb-188f-4d2d-97c8-440a1d96c7ed","stateCode":"KZY","latitude":"44.00947000","longitude":"67.41062000"},{"id":"e488b799-c58f-4436-866a-be1c4a438313","name":"Shīeli","ru":"Shīeli","country":"766899b3-3227-4d13-8380-1f181115784e","countryCode":"KZ","state":"3949a2eb-188f-4d2d-97c8-440a1d96c7ed","stateCode":"KZY","latitude":"44.16882000","longitude":"66.73887000"},{"id":"48af40f6-7992-4fc7-b122-de77957ed13c","name":"Tasböget","ru":"Tasböget","country":"766899b3-3227-4d13-8380-1f181115784e","countryCode":"KZ","state":"3949a2eb-188f-4d2d-97c8-440a1d96c7ed","stateCode":"KZY","latitude":"44.77384000","longitude":"65.55227000"},{"id":"fbb5549d-5824-40d0-acb0-80c11bbd6f4d","name":"Terenozek","ru":"Terenozek","country":"766899b3-3227-4d13-8380-1f181115784e","countryCode":"KZ","state":"3949a2eb-188f-4d2d-97c8-440a1d96c7ed","stateCode":"KZY","latitude":"45.05053000","longitude":"64.98395000"},{"id":"227fa362-a731-47c0-a9b3-58627548220d","name":"Yanykurgan","ru":"Yanykurgan","country":"766899b3-3227-4d13-8380-1f181115784e","countryCode":"KZ","state":"3949a2eb-188f-4d2d-97c8-440a1d96c7ed","stateCode":"KZY","latitude":"43.90652000","longitude":"67.24637000"},{"id":"2807670d-3206-463d-a9c1-657bed558399","name":"Zhosaly","ru":"Zhosaly","country":"766899b3-3227-4d13-8380-1f181115784e","countryCode":"KZ","state":"3949a2eb-188f-4d2d-97c8-440a1d96c7ed","stateCode":"KZY","latitude":"45.48778000","longitude":"64.07806000"},{"id":"ee4236cc-9a9b-4316-9923-dc0d73957b6e","name":"Aktau","ru":"Aktau","country":"766899b3-3227-4d13-8380-1f181115784e","countryCode":"KZ","state":"5057dc66-2a82-4bbd-8499-bcce61f519e6","stateCode":"MAN","latitude":"43.65000000","longitude":"51.16667000"},{"id":"77e5b1f9-447c-42ab-83e3-9696f57d8458","name":"Ömirzaq","ru":"Ömirzaq","country":"766899b3-3227-4d13-8380-1f181115784e","countryCode":"KZ","state":"5057dc66-2a82-4bbd-8499-bcce61f519e6","stateCode":"MAN","latitude":"43.59786000","longitude":"51.24171000"},{"id":"35c5695b-4c72-4c90-a1c5-39a9ff01b2df","name":"Baūtīno","ru":"Baūtīno","country":"766899b3-3227-4d13-8380-1f181115784e","countryCode":"KZ","state":"5057dc66-2a82-4bbd-8499-bcce61f519e6","stateCode":"MAN","latitude":"44.54479000","longitude":"50.24629000"},{"id":"a6000957-2543-4d1e-a137-917f7066a0f5","name":"Beyneu","ru":"Beyneu","country":"766899b3-3227-4d13-8380-1f181115784e","countryCode":"KZ","state":"5057dc66-2a82-4bbd-8499-bcce61f519e6","stateCode":"MAN","latitude":"45.31667000","longitude":"55.20000000"},{"id":"1d055b67-3974-4b20-a32e-9c1772874ca8","name":"Fort-Shevchenko","ru":"Fort-Shevchenko","country":"766899b3-3227-4d13-8380-1f181115784e","countryCode":"KZ","state":"5057dc66-2a82-4bbd-8499-bcce61f519e6","stateCode":"MAN","latitude":"44.50654000","longitude":"50.26388000"},{"id":"5fce53db-9faa-4775-9fca-d12282e68cbd","name":"Munayshy","ru":"Munayshy","country":"766899b3-3227-4d13-8380-1f181115784e","countryCode":"KZ","state":"5057dc66-2a82-4bbd-8499-bcce61f519e6","stateCode":"MAN","latitude":"43.49111000","longitude":"52.10861000"},{"id":"740679e3-9093-48e0-81c0-6eb420cebe49","name":"Sayötesh","ru":"Sayötesh","country":"766899b3-3227-4d13-8380-1f181115784e","countryCode":"KZ","state":"5057dc66-2a82-4bbd-8499-bcce61f519e6","stateCode":"MAN","latitude":"44.32781000","longitude":"53.53246000"},{"id":"9a657d46-32a8-4588-bde3-21046c282a41","name":"Shetpe","ru":"Shetpe","country":"766899b3-3227-4d13-8380-1f181115784e","countryCode":"KZ","state":"5057dc66-2a82-4bbd-8499-bcce61f519e6","stateCode":"MAN","latitude":"44.16667000","longitude":"52.11667000"},{"id":"08950756-f018-421f-af3c-55b146c88882","name":"Taūshyq","ru":"Taūshyq","country":"766899b3-3227-4d13-8380-1f181115784e","countryCode":"KZ","state":"5057dc66-2a82-4bbd-8499-bcce61f519e6","stateCode":"MAN","latitude":"44.34678000","longitude":"51.34932000"},{"id":"7efc3a67-c856-4c2a-9674-5099b0e80cc4","name":"Yeraliyev","ru":"Yeraliyev","country":"766899b3-3227-4d13-8380-1f181115784e","countryCode":"KZ","state":"5057dc66-2a82-4bbd-8499-bcce61f519e6","stateCode":"MAN","latitude":"43.18032000","longitude":"51.68116000"},{"id":"46606071-5683-4e34-905d-149e84e46c3c","name":"Zhanaozen","ru":"Zhanaozen","country":"766899b3-3227-4d13-8380-1f181115784e","countryCode":"KZ","state":"5057dc66-2a82-4bbd-8499-bcce61f519e6","stateCode":"MAN","latitude":"43.34116000","longitude":"52.86192000"},{"id":"133ad677-bd85-41c8-aad2-959317b23da5","name":"Zhetibay","ru":"Zhetibay","country":"766899b3-3227-4d13-8380-1f181115784e","countryCode":"KZ","state":"5057dc66-2a82-4bbd-8499-bcce61f519e6","stateCode":"MAN","latitude":"43.59417000","longitude":"52.07889000"},{"id":"7c7039d9-2bf3-44ea-be14-30854f7c6237","name":"Būrabay","ru":"Būrabay","country":"766899b3-3227-4d13-8380-1f181115784e","countryCode":"KZ","state":"861805fe-4c6a-4299-84fe-d692aa4d8548","stateCode":"SEV","latitude":"53.08382000","longitude":"70.31379000"},{"id":"61c67b9f-68ac-425d-b74e-81eddc7985cc","name":"Birlestik","ru":"Birlestik","country":"766899b3-3227-4d13-8380-1f181115784e","countryCode":"KZ","state":"861805fe-4c6a-4299-84fe-d692aa4d8548","stateCode":"SEV","latitude":"53.58414000","longitude":"68.35382000"},{"id":"77bd90af-db9b-4d55-a9cc-7a40733c670f","name":"Bishkul","ru":"Bishkul","country":"766899b3-3227-4d13-8380-1f181115784e","countryCode":"KZ","state":"861805fe-4c6a-4299-84fe-d692aa4d8548","stateCode":"SEV","latitude":"54.77763000","longitude":"69.09951000"},{"id":"c069bfeb-c1e4-4358-bb83-1696bdbdd38d","name":"Bulayevo","ru":"Bulayevo","country":"766899b3-3227-4d13-8380-1f181115784e","countryCode":"KZ","state":"861805fe-4c6a-4299-84fe-d692aa4d8548","stateCode":"SEV","latitude":"54.90596000","longitude":"70.44155000"},{"id":"a319b2cc-d799-4326-8612-a82db0bc8685","name":"Kzyltu","ru":"Kzyltu","country":"766899b3-3227-4d13-8380-1f181115784e","countryCode":"KZ","state":"861805fe-4c6a-4299-84fe-d692aa4d8548","stateCode":"SEV","latitude":"53.63589000","longitude":"72.34079000"},{"id":"6ca4fd08-b346-4a7b-a8d0-d262d622c640","name":"Novoishimskiy","ru":"Novoishimskiy","country":"766899b3-3227-4d13-8380-1f181115784e","countryCode":"KZ","state":"861805fe-4c6a-4299-84fe-d692aa4d8548","stateCode":"SEV","latitude":"53.19806000","longitude":"66.76944000"},{"id":"f253c6a6-0709-4fd5-a201-8f4ea7e326b7","name":"Petropavl","ru":"Petropavl","country":"766899b3-3227-4d13-8380-1f181115784e","countryCode":"KZ","state":"861805fe-4c6a-4299-84fe-d692aa4d8548","stateCode":"SEV","latitude":"54.86667000","longitude":"69.15000000"},{"id":"ad725dc4-75e5-4770-a1a2-ebcbf8149b14","name":"Sergeyevka","ru":"Sergeyevka","country":"766899b3-3227-4d13-8380-1f181115784e","countryCode":"KZ","state":"861805fe-4c6a-4299-84fe-d692aa4d8548","stateCode":"SEV","latitude":"53.88139000","longitude":"67.40882000"},{"id":"4cf6b858-7f9d-4a72-831b-3330e40cb6cf","name":"Smirnovo","ru":"Smirnovo","country":"766899b3-3227-4d13-8380-1f181115784e","countryCode":"KZ","state":"861805fe-4c6a-4299-84fe-d692aa4d8548","stateCode":"SEV","latitude":"54.51480000","longitude":"69.42732000"},{"id":"6a190609-d3fb-4156-86d7-848886382c77","name":"Taiynsha","ru":"Taiynsha","country":"766899b3-3227-4d13-8380-1f181115784e","countryCode":"KZ","state":"861805fe-4c6a-4299-84fe-d692aa4d8548","stateCode":"SEV","latitude":"53.84796000","longitude":"69.76773000"},{"id":"dfa11c05-f410-4d1e-a7dc-9e20129bcbe3","name":"Talshik","ru":"Talshik","country":"766899b3-3227-4d13-8380-1f181115784e","countryCode":"KZ","state":"861805fe-4c6a-4299-84fe-d692aa4d8548","stateCode":"SEV","latitude":"53.63736000","longitude":"71.87404000"},{"id":"3ef8e856-377a-408a-8032-fd494fad4ab7","name":"Timiryazevo","ru":"Timiryazevo","country":"766899b3-3227-4d13-8380-1f181115784e","countryCode":"KZ","state":"861805fe-4c6a-4299-84fe-d692aa4d8548","stateCode":"SEV","latitude":"53.74947000","longitude":"66.48852000"},{"id":"3802ac53-873c-4172-a9a2-93df836ce3fc","name":"Volodarskoye","ru":"Volodarskoye","country":"766899b3-3227-4d13-8380-1f181115784e","countryCode":"KZ","state":"861805fe-4c6a-4299-84fe-d692aa4d8548","stateCode":"SEV","latitude":"53.29270000","longitude":"68.10500000"},{"id":"bbee1809-e7a4-40a6-8c49-65fb11eb4412","name":"Yavlenka","ru":"Yavlenka","country":"766899b3-3227-4d13-8380-1f181115784e","countryCode":"KZ","state":"861805fe-4c6a-4299-84fe-d692aa4d8548","stateCode":"SEV","latitude":"54.34525000","longitude":"68.45740000"},{"id":"241864f8-2863-490d-a1e4-bf3491672d28","name":"Nur-Sultan","ru":"Nur-Sultan","country":"766899b3-3227-4d13-8380-1f181115784e","countryCode":"KZ","state":"e987dfc7-6024-40ea-b4ea-071c1147152e","stateCode":"AST","latitude":"51.18010000","longitude":"71.44598000"},{"id":"8135b162-801f-42e1-a795-2c4b01fc2c4c","name":"Aksu","ru":"Aksu","country":"766899b3-3227-4d13-8380-1f181115784e","countryCode":"KZ","state":"20e714bc-c5de-4589-b133-2050c9902609","stateCode":"PAV","latitude":"52.04023000","longitude":"76.92748000"},{"id":"db4a337b-35be-49c1-824e-4b61f09fedce","name":"Bayanaul","ru":"Bayanaul","country":"766899b3-3227-4d13-8380-1f181115784e","countryCode":"KZ","state":"20e714bc-c5de-4589-b133-2050c9902609","stateCode":"PAV","latitude":"50.79304000","longitude":"75.70123000"},{"id":"979b31a0-ef80-4520-82e7-998d7916209f","name":"Belogor’ye","ru":"Belogor’ye","country":"766899b3-3227-4d13-8380-1f181115784e","countryCode":"KZ","state":"20e714bc-c5de-4589-b133-2050c9902609","stateCode":"PAV","latitude":"51.52983000","longitude":"77.47146000"},{"id":"a911d38e-7e41-4b91-b527-3acbb4bb6e69","name":"Ekibastuz","ru":"Ekibastuz","country":"766899b3-3227-4d13-8380-1f181115784e","countryCode":"KZ","state":"20e714bc-c5de-4589-b133-2050c9902609","stateCode":"PAV","latitude":"51.72371000","longitude":"75.32287000"},{"id":"039f205d-6ca2-41ea-a68f-2456b16505d8","name":"Irtyshsk","ru":"Irtyshsk","country":"766899b3-3227-4d13-8380-1f181115784e","countryCode":"KZ","state":"20e714bc-c5de-4589-b133-2050c9902609","stateCode":"PAV","latitude":"53.33365000","longitude":"75.45775000"},{"id":"60617d09-76dc-4067-85b4-a43ec8c68fa4","name":"Kalkaman","ru":"Kalkaman","country":"766899b3-3227-4d13-8380-1f181115784e","countryCode":"KZ","state":"20e714bc-c5de-4589-b133-2050c9902609","stateCode":"PAV","latitude":"51.95349000","longitude":"76.02723000"},{"id":"ae87c4c1-f1c0-4949-b543-1a073bdd26ac","name":"Leninskiy","ru":"Leninskiy","country":"766899b3-3227-4d13-8380-1f181115784e","countryCode":"KZ","state":"20e714bc-c5de-4589-b133-2050c9902609","stateCode":"PAV","latitude":"52.25346000","longitude":"76.78211000"},{"id":"b551da2f-8db1-454b-9026-5597668f1b88","name":"Mayqayyng","ru":"Mayqayyng","country":"766899b3-3227-4d13-8380-1f181115784e","countryCode":"KZ","state":"20e714bc-c5de-4589-b133-2050c9902609","stateCode":"PAV","latitude":"51.45981000","longitude":"75.80232000"},{"id":"aa6b95da-46ef-44f2-abc6-143f2bb12cc8","name":"Pavlodar","ru":"Pavlodar","country":"766899b3-3227-4d13-8380-1f181115784e","countryCode":"KZ","state":"20e714bc-c5de-4589-b133-2050c9902609","stateCode":"PAV","latitude":"52.28333000","longitude":"76.96667000"},{"id":"6f494b1f-fa88-4348-b642-51e262f310fd","name":"Qashyr","ru":"Qashyr","country":"766899b3-3227-4d13-8380-1f181115784e","countryCode":"KZ","state":"20e714bc-c5de-4589-b133-2050c9902609","stateCode":"PAV","latitude":"53.06649000","longitude":"76.10489000"},{"id":"adad6de2-2164-4c78-af0c-d771247f4ad5","name":"Zhelezinka","ru":"Zhelezinka","country":"766899b3-3227-4d13-8380-1f181115784e","countryCode":"KZ","state":"20e714bc-c5de-4589-b133-2050c9902609","stateCode":"PAV","latitude":"53.53880000","longitude":"75.31326000"},{"id":"6abb11a8-94f9-4106-912f-934f116823c4","name":"Arys","ru":"Arys","country":"766899b3-3227-4d13-8380-1f181115784e","countryCode":"KZ","state":"c8a0413e-1ea7-462f-9e64-c47736221a51","stateCode":"YUZ","latitude":"42.43015000","longitude":"68.80870000"},{"id":"5c23e594-dffe-435b-bf22-a0ef55182342","name":"Ashchysay","ru":"Ashchysay","country":"766899b3-3227-4d13-8380-1f181115784e","countryCode":"KZ","state":"c8a0413e-1ea7-462f-9e64-c47736221a51","stateCode":"YUZ","latitude":"43.55370000","longitude":"68.89792000"},{"id":"42f34cd7-951d-44f3-ba1a-eee68369f24f","name":"Asyqata","ru":"Asyqata","country":"766899b3-3227-4d13-8380-1f181115784e","countryCode":"KZ","state":"c8a0413e-1ea7-462f-9e64-c47736221a51","stateCode":"YUZ","latitude":"40.89460000","longitude":"68.36430000"},{"id":"e876d20c-8e29-4561-bb5b-89c0b2e29c07","name":"Atakent","ru":"Atakent","country":"766899b3-3227-4d13-8380-1f181115784e","countryCode":"KZ","state":"c8a0413e-1ea7-462f-9e64-c47736221a51","stateCode":"YUZ","latitude":"40.84782000","longitude":"68.50643000"},{"id":"47643fe4-af73-4bb4-9d69-47cb3cfdfe16","name":"Bayzhansay","ru":"Bayzhansay","country":"766899b3-3227-4d13-8380-1f181115784e","countryCode":"KZ","state":"c8a0413e-1ea7-462f-9e64-c47736221a51","stateCode":"YUZ","latitude":"43.16708000","longitude":"69.91459000"},{"id":"6f5f8e48-e01a-42c6-8fb8-087808ffdd3d","name":"Belyye Vody","ru":"Belyye Vody","country":"766899b3-3227-4d13-8380-1f181115784e","countryCode":"KZ","state":"c8a0413e-1ea7-462f-9e64-c47736221a51","stateCode":"YUZ","latitude":"42.42193000","longitude":"69.82709000"},{"id":"7764214d-f1c5-48e7-800f-5a9b00d95c76","name":"Chardara","ru":"Chardara","country":"766899b3-3227-4d13-8380-1f181115784e","countryCode":"KZ","state":"c8a0413e-1ea7-462f-9e64-c47736221a51","stateCode":"YUZ","latitude":"41.25832000","longitude":"67.96991000"},{"id":"e0d7b66d-582f-4d32-8869-bc913ac5a234","name":"Chayan","ru":"Chayan","country":"766899b3-3227-4d13-8380-1f181115784e","countryCode":"KZ","state":"c8a0413e-1ea7-462f-9e64-c47736221a51","stateCode":"YUZ","latitude":"43.03399000","longitude":"69.38048000"},{"id":"aca9a37b-94fd-41c1-ad85-0bc6a06d8489","name":"Chulakkurgan","ru":"Chulakkurgan","country":"766899b3-3227-4d13-8380-1f181115784e","countryCode":"KZ","state":"c8a0413e-1ea7-462f-9e64-c47736221a51","stateCode":"YUZ","latitude":"43.76453000","longitude":"69.17856000"},{"id":"06eb7a1c-0c42-4c99-8082-7d5b2822fdc3","name":"Kantagi","ru":"Kantagi","country":"766899b3-3227-4d13-8380-1f181115784e","countryCode":"KZ","state":"c8a0413e-1ea7-462f-9e64-c47736221a51","stateCode":"YUZ","latitude":"43.52786000","longitude":"68.58287000"},{"id":"28bd7691-db9c-46ce-ad7e-39c6cf9fcfe1","name":"Kentau","ru":"Kentau","country":"766899b3-3227-4d13-8380-1f181115784e","countryCode":"KZ","state":"c8a0413e-1ea7-462f-9e64-c47736221a51","stateCode":"YUZ","latitude":"43.51672000","longitude":"68.50463000"},{"id":"105a3fed-459d-442b-bfae-a47807b0081d","name":"Kokterek","ru":"Kokterek","country":"766899b3-3227-4d13-8380-1f181115784e","countryCode":"KZ","state":"c8a0413e-1ea7-462f-9e64-c47736221a51","stateCode":"YUZ","latitude":"42.49442000","longitude":"70.25478000"},{"id":"945e3c11-6fb5-467f-af1c-3feca0bfc36b","name":"Lenger","ru":"Lenger","country":"766899b3-3227-4d13-8380-1f181115784e","countryCode":"KZ","state":"c8a0413e-1ea7-462f-9e64-c47736221a51","stateCode":"YUZ","latitude":"42.18152000","longitude":"69.88582000"},{"id":"46cdcb84-5669-4572-a28c-908b438236dd","name":"Leninskoye","ru":"Leninskoye","country":"766899b3-3227-4d13-8380-1f181115784e","countryCode":"KZ","state":"c8a0413e-1ea7-462f-9e64-c47736221a51","stateCode":"YUZ","latitude":"41.75640000","longitude":"69.38390000"},{"id":"2db9cc80-4bed-4b66-9ee7-2d13e2453146","name":"Maqtaaral Aūdany","ru":"Maqtaaral Aūdany","country":"766899b3-3227-4d13-8380-1f181115784e","countryCode":"KZ","state":"c8a0413e-1ea7-462f-9e64-c47736221a51","stateCode":"YUZ","latitude":"40.75000000","longitude":"68.58333000"},{"id":"1b4f637c-d354-4159-9651-50ad56b7d5f1","name":"Myrzakent","ru":"Myrzakent","country":"766899b3-3227-4d13-8380-1f181115784e","countryCode":"KZ","state":"c8a0413e-1ea7-462f-9e64-c47736221a51","stateCode":"YUZ","latitude":"40.66338000","longitude":"68.54510000"},{"id":"908490cd-f4d1-424b-b668-9fc821df58ec","name":"Qogham","ru":"Qogham","country":"766899b3-3227-4d13-8380-1f181115784e","countryCode":"KZ","state":"c8a0413e-1ea7-462f-9e64-c47736221a51","stateCode":"YUZ","latitude":"42.82774000","longitude":"68.28074000"},{"id":"55615c22-0ef2-4d9f-a7d8-e3493f99214d","name":"Saryaghash","ru":"Saryaghash","country":"766899b3-3227-4d13-8380-1f181115784e","countryCode":"KZ","state":"c8a0413e-1ea7-462f-9e64-c47736221a51","stateCode":"YUZ","latitude":"41.46042000","longitude":"69.16791000"},{"id":"3ff1665f-b54f-4fa7-a3c1-6a1b5dd30a9a","name":"Saryaghash Aūdany","ru":"Saryaghash Aūdany","country":"766899b3-3227-4d13-8380-1f181115784e","countryCode":"KZ","state":"c8a0413e-1ea7-462f-9e64-c47736221a51","stateCode":"YUZ","latitude":"41.66667000","longitude":"68.83333000"},{"id":"75d17d14-ed9d-4594-abf5-0bc77fbb9062","name":"Sastobe","ru":"Sastobe","country":"766899b3-3227-4d13-8380-1f181115784e","countryCode":"KZ","state":"c8a0413e-1ea7-462f-9e64-c47736221a51","stateCode":"YUZ","latitude":"42.55330000","longitude":"69.99835000"},{"id":"de2b5d82-43fd-4844-b1bc-475982f1d336","name":"Sozaq Aūdany","ru":"Sozaq Aūdany","country":"766899b3-3227-4d13-8380-1f181115784e","countryCode":"KZ","state":"c8a0413e-1ea7-462f-9e64-c47736221a51","stateCode":"YUZ","latitude":"44.83333000","longitude":"68.50000000"},{"id":"fe1e532d-6263-4fa8-9c17-d8f2acd25daf","name":"Temirlanovka","ru":"Temirlanovka","country":"766899b3-3227-4d13-8380-1f181115784e","countryCode":"KZ","state":"c8a0413e-1ea7-462f-9e64-c47736221a51","stateCode":"YUZ","latitude":"42.59998000","longitude":"69.25836000"},{"id":"3022d3dc-1617-4bf4-8132-4adcaf142d82","name":"Turar Ryskulov","ru":"Turar Ryskulov","country":"766899b3-3227-4d13-8380-1f181115784e","countryCode":"KZ","state":"c8a0413e-1ea7-462f-9e64-c47736221a51","stateCode":"YUZ","latitude":"42.53340000","longitude":"70.34960000"},{"id":"8abab4e2-980d-418d-b56b-c32acabcd169","name":"Turkestan","ru":"Turkestan","country":"766899b3-3227-4d13-8380-1f181115784e","countryCode":"KZ","state":"c8a0413e-1ea7-462f-9e64-c47736221a51","stateCode":"YUZ","latitude":"43.29733000","longitude":"68.25175000"},{"id":"02d51f6a-92ae-4678-827d-33ea4c64eea8","name":"Tyul’kubas","ru":"Tyul’kubas","country":"766899b3-3227-4d13-8380-1f181115784e","countryCode":"KZ","state":"c8a0413e-1ea7-462f-9e64-c47736221a51","stateCode":"YUZ","latitude":"42.48578000","longitude":"70.29601000"},{"id":"4d226d66-eb59-4a37-81a8-50109984a443","name":"Zhabagly","ru":"Zhabagly","country":"766899b3-3227-4d13-8380-1f181115784e","countryCode":"KZ","state":"c8a0413e-1ea7-462f-9e64-c47736221a51","stateCode":"YUZ","latitude":"42.43781000","longitude":"70.47841000"},{"id":"d7f40c38-4656-4f5e-a24b-185d849c1905","name":"Aqsay","ru":"Aqsay","country":"766899b3-3227-4d13-8380-1f181115784e","countryCode":"KZ","state":"2cf53486-2973-4d8c-8bea-9719792c277b","stateCode":"ZAP","latitude":"51.16810000","longitude":"52.99782000"},{"id":"1dd17124-f064-4de5-b809-634c4e17b1fe","name":"Burlin","ru":"Burlin","country":"766899b3-3227-4d13-8380-1f181115784e","countryCode":"KZ","state":"2cf53486-2973-4d8c-8bea-9719792c277b","stateCode":"ZAP","latitude":"51.42724000","longitude":"52.71392000"},{"id":"ea6f1c01-20c0-4cfe-a6bd-f79b64fab8cb","name":"Chapaev","ru":"Chapaev","country":"766899b3-3227-4d13-8380-1f181115784e","countryCode":"KZ","state":"2cf53486-2973-4d8c-8bea-9719792c277b","stateCode":"ZAP","latitude":"50.20000000","longitude":"51.16667000"},{"id":"d78f513c-2213-42ef-9afa-e18d997b0e33","name":"Chingirlau","ru":"Chingirlau","country":"766899b3-3227-4d13-8380-1f181115784e","countryCode":"KZ","state":"2cf53486-2973-4d8c-8bea-9719792c277b","stateCode":"ZAP","latitude":"51.09878000","longitude":"54.08426000"},{"id":"3c6d09c2-2622-4dd3-89d0-86bfc9de644f","name":"Dzhambeyty","ru":"Dzhambeyty","country":"766899b3-3227-4d13-8380-1f181115784e","countryCode":"KZ","state":"2cf53486-2973-4d8c-8bea-9719792c277b","stateCode":"ZAP","latitude":"50.25676000","longitude":"52.59895000"},{"id":"475ac2e6-ceb5-47bb-87c9-56ac7ff859d3","name":"Fedorovka","ru":"Fedorovka","country":"766899b3-3227-4d13-8380-1f181115784e","countryCode":"KZ","state":"2cf53486-2973-4d8c-8bea-9719792c277b","stateCode":"ZAP","latitude":"51.22102000","longitude":"51.95723000"},{"id":"112256bb-f801-4e6f-8e42-2d1117488dba","name":"Kaztalovka","ru":"Kaztalovka","country":"766899b3-3227-4d13-8380-1f181115784e","countryCode":"KZ","state":"2cf53486-2973-4d8c-8bea-9719792c277b","stateCode":"ZAP","latitude":"49.76612000","longitude":"48.68903000"},{"id":"c63a03d1-796e-4248-becc-ea4ab7c97333","name":"Krūgloozernoe","ru":"Krūgloozernoe","country":"766899b3-3227-4d13-8380-1f181115784e","countryCode":"KZ","state":"2cf53486-2973-4d8c-8bea-9719792c277b","stateCode":"ZAP","latitude":"51.07854000","longitude":"51.28992000"},{"id":"66d52dc2-bc90-4181-ab56-8e65a88b0d13","name":"Oral","ru":"Oral","country":"766899b3-3227-4d13-8380-1f181115784e","countryCode":"KZ","state":"2cf53486-2973-4d8c-8bea-9719792c277b","stateCode":"ZAP","latitude":"51.23333000","longitude":"51.36667000"},{"id":"e358789b-4111-4df1-ad49-dad4caa74143","name":"Peremetnoe","ru":"Peremetnoe","country":"766899b3-3227-4d13-8380-1f181115784e","countryCode":"KZ","state":"2cf53486-2973-4d8c-8bea-9719792c277b","stateCode":"ZAP","latitude":"51.19925000","longitude":"50.85544000"},{"id":"bc3f117a-2859-4eee-b6c0-ef63ea0f587d","name":"Saykhin","ru":"Saykhin","country":"766899b3-3227-4d13-8380-1f181115784e","countryCode":"KZ","state":"2cf53486-2973-4d8c-8bea-9719792c277b","stateCode":"ZAP","latitude":"48.85611000","longitude":"46.83361000"},{"id":"cf1eb310-20ce-4c5b-83e8-14de8962ea18","name":"Tasqala","ru":"Tasqala","country":"766899b3-3227-4d13-8380-1f181115784e","countryCode":"KZ","state":"2cf53486-2973-4d8c-8bea-9719792c277b","stateCode":"ZAP","latitude":"51.11073000","longitude":"50.29454000"},{"id":"a7ed95ce-4c2f-4fea-9f1c-2e3edc2cee91","name":"Zhänibek","ru":"Zhänibek","country":"766899b3-3227-4d13-8380-1f181115784e","countryCode":"KZ","state":"2cf53486-2973-4d8c-8bea-9719792c277b","stateCode":"ZAP","latitude":"49.42207000","longitude":"46.84705000"}]