[{"id":"f2424b51-42b4-453a-9322-04c7d5bafcb6","name":"Abha","ru":"Abha","country":"30500405-2c0f-4d60-b364-df505b87e36e","countryCode":"SA","state":"3cb39026-f992-4ab5-952c-961670de8616","stateCode":"14","latitude":"18.21639000","longitude":"42.50528000"},{"id":"a7d1197d-ae79-4147-9a87-d6fd6ecfca15","name":"Al Majāridah","ru":"Al Majāridah","country":"30500405-2c0f-4d60-b364-df505b87e36e","countryCode":"SA","state":"3cb39026-f992-4ab5-952c-961670de8616","stateCode":"14","latitude":"19.12361000","longitude":"41.91111000"},{"id":"65ac9186-a5b0-465f-b2c3-c2d54db3ee07","name":"An Nimāş","ru":"An Nimāş","country":"30500405-2c0f-4d60-b364-df505b87e36e","countryCode":"SA","state":"3cb39026-f992-4ab5-952c-961670de8616","stateCode":"14","latitude":"19.14547000","longitude":"42.12009000"},{"id":"4268d160-f148-4c50-a231-c7c73c5dcab0","name":"Khamis Mushait","ru":"Khamis Mushait","country":"30500405-2c0f-4d60-b364-df505b87e36e","countryCode":"SA","state":"3cb39026-f992-4ab5-952c-961670de8616","stateCode":"14","latitude":"18.30000000","longitude":"42.73333000"},{"id":"4f5778ad-3523-4032-a6b2-c13db6eb14b2","name":"Qal‘at Bīshah","ru":"Qal‘at Bīshah","country":"30500405-2c0f-4d60-b364-df505b87e36e","countryCode":"SA","state":"3cb39026-f992-4ab5-952c-961670de8616","stateCode":"14","latitude":"20.00054000","longitude":"42.60520000"},{"id":"af3dfe39-4838-4349-8f30-c3fbead82311","name":"Sabt Al Alayah","ru":"Sabt Al Alayah","country":"30500405-2c0f-4d60-b364-df505b87e36e","countryCode":"SA","state":"3cb39026-f992-4ab5-952c-961670de8616","stateCode":"14","latitude":"19.70000000","longitude":"41.91667000"},{"id":"c8bd2002-10b4-4216-a20a-2c4da9d772ae","name":"Tabālah","ru":"Tabālah","country":"30500405-2c0f-4d60-b364-df505b87e36e","countryCode":"SA","state":"3cb39026-f992-4ab5-952c-961670de8616","stateCode":"14","latitude":"19.95000000","longitude":"42.40000000"},{"id":"88167565-205e-444e-b6aa-035e456352da","name":"Al Bahah","ru":"Al Bahah","country":"30500405-2c0f-4d60-b364-df505b87e36e","countryCode":"SA","state":"346e86f7-9d78-4188-8368-e207d3acd2f7","stateCode":"11","latitude":"20.01288000","longitude":"41.46767000"},{"id":"e871917b-48a6-4a22-8876-c61b6bb2f27a","name":"Al Mindak","ru":"Al Mindak","country":"30500405-2c0f-4d60-b364-df505b87e36e","countryCode":"SA","state":"346e86f7-9d78-4188-8368-e207d3acd2f7","stateCode":"11","latitude":"20.15880000","longitude":"41.28337000"},{"id":"adf0af6c-c95f-468c-a0b3-c3422d80a912","name":"Şuwayr","ru":"Şuwayr","country":"30500405-2c0f-4d60-b364-df505b87e36e","countryCode":"SA","state":"d2db20e2-1ee6-4269-9e09-fe383157893b","stateCode":"12","latitude":"30.11713000","longitude":"40.38925000"},{"id":"adfe7ee4-f81d-4959-a7b0-f8903b85deef","name":"Ţubarjal","ru":"Ţubarjal","country":"30500405-2c0f-4d60-b364-df505b87e36e","countryCode":"SA","state":"d2db20e2-1ee6-4269-9e09-fe383157893b","stateCode":"12","latitude":"30.49987000","longitude":"38.21603000"},{"id":"d6985813-a96e-4d07-a26a-f7e7adf1f05e","name":"Qurayyat","ru":"Qurayyat","country":"30500405-2c0f-4d60-b364-df505b87e36e","countryCode":"SA","state":"d2db20e2-1ee6-4269-9e09-fe383157893b","stateCode":"12","latitude":"31.33176000","longitude":"37.34282000"},{"id":"1f480c11-faee-4a79-84ed-3cec96cc2167","name":"Sakakah","ru":"Sakakah","country":"30500405-2c0f-4d60-b364-df505b87e36e","countryCode":"SA","state":"d2db20e2-1ee6-4269-9e09-fe383157893b","stateCode":"12","latitude":"29.96974000","longitude":"40.20641000"},{"id":"5aae9c7b-9e03-4c35-b1c1-7d708225bf15","name":"Al-`Ula","ru":"Al-`Ula","country":"30500405-2c0f-4d60-b364-df505b87e36e","countryCode":"SA","state":"aeade03b-eaaa-4f72-b755-51d49222d696","stateCode":"03","latitude":"26.60853000","longitude":"37.92316000"},{"id":"47f7d1ca-d776-48c6-8238-229c117eceef","name":"Badr Ḩunayn","ru":"Badr Ḩunayn","country":"30500405-2c0f-4d60-b364-df505b87e36e","countryCode":"SA","state":"aeade03b-eaaa-4f72-b755-51d49222d696","stateCode":"03","latitude":"23.78292000","longitude":"38.79047000"},{"id":"ad2505cb-ebc2-4820-b021-cfbb9dfe1d0d","name":"Medina","ru":"Medina","country":"30500405-2c0f-4d60-b364-df505b87e36e","countryCode":"SA","state":"aeade03b-eaaa-4f72-b755-51d49222d696","stateCode":"03","latitude":"24.46861000","longitude":"39.61417000"},{"id":"576a8e26-a57d-432a-af9c-36ca3b7429b3","name":"Sulţānah","ru":"Sulţānah","country":"30500405-2c0f-4d60-b364-df505b87e36e","countryCode":"SA","state":"aeade03b-eaaa-4f72-b755-51d49222d696","stateCode":"03","latitude":"24.49258000","longitude":"39.58572000"},{"id":"2988fc85-5f2c-4131-86ad-dc731c340f69","name":"Yanbu","ru":"Yanbu","country":"30500405-2c0f-4d60-b364-df505b87e36e","countryCode":"SA","state":"aeade03b-eaaa-4f72-b755-51d49222d696","stateCode":"03","latitude":"24.08954000","longitude":"38.06180000"},{"id":"437f7674-cf26-4dc8-a1e8-5121b1bac442","name":"Adh Dhibiyah","ru":"Adh Dhibiyah","country":"30500405-2c0f-4d60-b364-df505b87e36e","countryCode":"SA","state":"41ea2cf5-1789-4b8d-9b5d-c83915e74c23","stateCode":"05","latitude":"26.02700000","longitude":"43.15700000"},{"id":"d01e7084-ee4a-4b8f-8475-213e996cd8bb","name":"Al Bukayrīyah","ru":"Al Bukayrīyah","country":"30500405-2c0f-4d60-b364-df505b87e36e","countryCode":"SA","state":"41ea2cf5-1789-4b8d-9b5d-c83915e74c23","stateCode":"05","latitude":"26.13915000","longitude":"43.65782000"},{"id":"2ed7d9e4-d91a-4452-82b0-6e178e9c8d94","name":"Al Fuwayliq","ru":"Al Fuwayliq","country":"30500405-2c0f-4d60-b364-df505b87e36e","countryCode":"SA","state":"41ea2cf5-1789-4b8d-9b5d-c83915e74c23","stateCode":"05","latitude":"26.44360000","longitude":"43.25164000"},{"id":"eb3cc444-6084-44d5-bca3-5103d819530a","name":"Al Mithnab","ru":"Al Mithnab","country":"30500405-2c0f-4d60-b364-df505b87e36e","countryCode":"SA","state":"41ea2cf5-1789-4b8d-9b5d-c83915e74c23","stateCode":"05","latitude":"25.86012000","longitude":"44.22228000"},{"id":"306ae3a5-1938-4766-8072-b945f5ea506c","name":"Ar Rass","ru":"Ar Rass","country":"30500405-2c0f-4d60-b364-df505b87e36e","countryCode":"SA","state":"41ea2cf5-1789-4b8d-9b5d-c83915e74c23","stateCode":"05","latitude":"25.86944000","longitude":"43.49730000"},{"id":"4ce9e325-367f-4032-bdaa-8f8a313dba24","name":"Buraydah","ru":"Buraydah","country":"30500405-2c0f-4d60-b364-df505b87e36e","countryCode":"SA","state":"41ea2cf5-1789-4b8d-9b5d-c83915e74c23","stateCode":"05","latitude":"26.32599000","longitude":"43.97497000"},{"id":"1bd6893c-0c9a-4415-bc22-ffae48ccc931","name":"Tanūmah","ru":"Tanūmah","country":"30500405-2c0f-4d60-b364-df505b87e36e","countryCode":"SA","state":"41ea2cf5-1789-4b8d-9b5d-c83915e74c23","stateCode":"05","latitude":"27.10000000","longitude":"44.13333000"},{"id":"ffddb74a-d0a6-43cd-82df-f76a5863dad3","name":"Wed Alnkil","ru":"Wed Alnkil","country":"30500405-2c0f-4d60-b364-df505b87e36e","countryCode":"SA","state":"41ea2cf5-1789-4b8d-9b5d-c83915e74c23","stateCode":"05","latitude":"25.42670000","longitude":"42.83430000"},{"id":"dcfc260b-ce5d-4fc2-aaae-50aa9fe56688","name":"Aţ Ţaraf","ru":"Aţ Ţaraf","country":"30500405-2c0f-4d60-b364-df505b87e36e","countryCode":"SA","state":"baf2b989-aeb4-4151-a07a-0584b96fa1ca","stateCode":"04","latitude":"25.36232000","longitude":"49.72757000"},{"id":"7b39d55b-62d0-415f-8e2a-9e6fd063ef9a","name":"Abqaiq","ru":"Abqaiq","country":"30500405-2c0f-4d60-b364-df505b87e36e","countryCode":"SA","state":"baf2b989-aeb4-4151-a07a-0584b96fa1ca","stateCode":"04","latitude":"25.93402000","longitude":"49.66880000"},{"id":"0ed20c5b-909f-45bf-bdf0-6f5b6aacbf27","name":"Al Awjām","ru":"Al Awjām","country":"30500405-2c0f-4d60-b364-df505b87e36e","countryCode":"SA","state":"baf2b989-aeb4-4151-a07a-0584b96fa1ca","stateCode":"04","latitude":"26.56324000","longitude":"49.94331000"},{"id":"77d49635-e02b-4d5a-aa5e-c04614ee6130","name":"Al Baţţālīyah","ru":"Al Baţţālīyah","country":"30500405-2c0f-4d60-b364-df505b87e36e","countryCode":"SA","state":"baf2b989-aeb4-4151-a07a-0584b96fa1ca","stateCode":"04","latitude":"25.43333000","longitude":"49.63333000"},{"id":"9fa9fbb1-480e-4d1e-9cab-e7c8c53784ab","name":"Al Hufūf","ru":"Al Hufūf","country":"30500405-2c0f-4d60-b364-df505b87e36e","countryCode":"SA","state":"baf2b989-aeb4-4151-a07a-0584b96fa1ca","stateCode":"04","latitude":"25.36467000","longitude":"49.58764000"},{"id":"a4c12c8a-bea2-4b31-a32a-f595c36e8227","name":"Al Jafr","ru":"Al Jafr","country":"30500405-2c0f-4d60-b364-df505b87e36e","countryCode":"SA","state":"baf2b989-aeb4-4151-a07a-0584b96fa1ca","stateCode":"04","latitude":"25.37736000","longitude":"49.72154000"},{"id":"a88a2655-a620-4c70-93b1-0e5a62242084","name":"Al Jubayl","ru":"Al Jubayl","country":"30500405-2c0f-4d60-b364-df505b87e36e","countryCode":"SA","state":"baf2b989-aeb4-4151-a07a-0584b96fa1ca","stateCode":"04","latitude":"27.01740000","longitude":"49.62251000"},{"id":"401b2750-591e-47c4-b276-fba8db3627be","name":"Al Khafjī","ru":"Al Khafjī","country":"30500405-2c0f-4d60-b364-df505b87e36e","countryCode":"SA","state":"baf2b989-aeb4-4151-a07a-0584b96fa1ca","stateCode":"04","latitude":"28.43905000","longitude":"48.49132000"},{"id":"69f1985d-827b-4309-b399-ea91946ebbd6","name":"Al Markaz","ru":"Al Markaz","country":"30500405-2c0f-4d60-b364-df505b87e36e","countryCode":"SA","state":"baf2b989-aeb4-4151-a07a-0584b96fa1ca","stateCode":"04","latitude":"25.40000000","longitude":"49.73333000"},{"id":"2de4ac1a-a906-4240-b756-24669781abfb","name":"Al Muţayrifī","ru":"Al Muţayrifī","country":"30500405-2c0f-4d60-b364-df505b87e36e","countryCode":"SA","state":"baf2b989-aeb4-4151-a07a-0584b96fa1ca","stateCode":"04","latitude":"25.47878000","longitude":"49.55824000"},{"id":"9890ab6c-28e2-4573-ad2f-cbf00213e9f2","name":"Al Mubarraz","ru":"Al Mubarraz","country":"30500405-2c0f-4d60-b364-df505b87e36e","countryCode":"SA","state":"baf2b989-aeb4-4151-a07a-0584b96fa1ca","stateCode":"04","latitude":"25.40768000","longitude":"49.59028000"},{"id":"37911f93-0e1e-4c6d-917c-05f3323b8dfe","name":"Al Munayzilah","ru":"Al Munayzilah","country":"30500405-2c0f-4d60-b364-df505b87e36e","countryCode":"SA","state":"baf2b989-aeb4-4151-a07a-0584b96fa1ca","stateCode":"04","latitude":"25.38333000","longitude":"49.66667000"},{"id":"1c67e320-c215-496e-aa27-a1db36fb52b1","name":"Al Qaţīf","ru":"Al Qaţīf","country":"30500405-2c0f-4d60-b364-df505b87e36e","countryCode":"SA","state":"baf2b989-aeb4-4151-a07a-0584b96fa1ca","stateCode":"04","latitude":"26.56542000","longitude":"50.00890000"},{"id":"52dd5a45-0e4c-42de-a32b-f5c88ea84a2b","name":"Al Qārah","ru":"Al Qārah","country":"30500405-2c0f-4d60-b364-df505b87e36e","countryCode":"SA","state":"baf2b989-aeb4-4151-a07a-0584b96fa1ca","stateCode":"04","latitude":"25.41667000","longitude":"49.66667000"},{"id":"9a3d6237-9d0b-4171-9a1a-064c8cb92a90","name":"Al Qurayn","ru":"Al Qurayn","country":"30500405-2c0f-4d60-b364-df505b87e36e","countryCode":"SA","state":"baf2b989-aeb4-4151-a07a-0584b96fa1ca","stateCode":"04","latitude":"25.48333000","longitude":"49.60000000"},{"id":"8619c28e-8125-4913-8f89-59fac637c911","name":"As Saffānīyah","ru":"As Saffānīyah","country":"30500405-2c0f-4d60-b364-df505b87e36e","countryCode":"SA","state":"baf2b989-aeb4-4151-a07a-0584b96fa1ca","stateCode":"04","latitude":"27.97083000","longitude":"48.73000000"},{"id":"1c4f0549-3019-4fc4-b83c-ffa91eb0cfef","name":"At Tūbī","ru":"At Tūbī","country":"30500405-2c0f-4d60-b364-df505b87e36e","countryCode":"SA","state":"baf2b989-aeb4-4151-a07a-0584b96fa1ca","stateCode":"04","latitude":"26.55778000","longitude":"49.99167000"},{"id":"51e25906-de37-4134-9997-1e84a582fc88","name":"Şafwá","ru":"Şafwá","country":"30500405-2c0f-4d60-b364-df505b87e36e","countryCode":"SA","state":"baf2b989-aeb4-4151-a07a-0584b96fa1ca","stateCode":"04","latitude":"26.64970000","longitude":"49.95522000"},{"id":"c4b0e336-3074-468d-9060-8e7778b056d6","name":"Dammam","ru":"Dammam","country":"30500405-2c0f-4d60-b364-df505b87e36e","countryCode":"SA","state":"baf2b989-aeb4-4151-a07a-0584b96fa1ca","stateCode":"04","latitude":"26.43442000","longitude":"50.10326000"},{"id":"68249ffc-bc1a-4cbd-9eb3-f3e81d255c7b","name":"Dhahran","ru":"Dhahran","country":"30500405-2c0f-4d60-b364-df505b87e36e","countryCode":"SA","state":"baf2b989-aeb4-4151-a07a-0584b96fa1ca","stateCode":"04","latitude":"26.28864000","longitude":"50.11396000"},{"id":"8f5af47c-abfd-4628-bd61-9d3b854ae878","name":"Hafar Al-Batin","ru":"Hafar Al-Batin","country":"30500405-2c0f-4d60-b364-df505b87e36e","countryCode":"SA","state":"baf2b989-aeb4-4151-a07a-0584b96fa1ca","stateCode":"04","latitude":"28.43279000","longitude":"45.97077000"},{"id":"d6a0959c-cb7e-4ea9-a96a-f4e0ef83dc13","name":"Julayjilah","ru":"Julayjilah","country":"30500405-2c0f-4d60-b364-df505b87e36e","countryCode":"SA","state":"baf2b989-aeb4-4151-a07a-0584b96fa1ca","stateCode":"04","latitude":"25.50000000","longitude":"49.60000000"},{"id":"ddd7df38-9a5a-44b1-be44-649d4ec18c5c","name":"Khobar","ru":"Khobar","country":"30500405-2c0f-4d60-b364-df505b87e36e","countryCode":"SA","state":"baf2b989-aeb4-4151-a07a-0584b96fa1ca","stateCode":"04","latitude":"26.27944000","longitude":"50.20833000"},{"id":"2b7d6c26-f175-47ae-ac0f-f3ca5fe34167","name":"Mulayjah","ru":"Mulayjah","country":"30500405-2c0f-4d60-b364-df505b87e36e","countryCode":"SA","state":"baf2b989-aeb4-4151-a07a-0584b96fa1ca","stateCode":"04","latitude":"27.27103000","longitude":"48.42419000"},{"id":"16cfc415-1f60-4502-bd03-0d46c6dd5e9f","name":"Qaisumah","ru":"Qaisumah","country":"30500405-2c0f-4d60-b364-df505b87e36e","countryCode":"SA","state":"baf2b989-aeb4-4151-a07a-0584b96fa1ca","stateCode":"04","latitude":"28.31117000","longitude":"46.12729000"},{"id":"b80c92a9-5cd6-4a04-8f62-4399b8e504e1","name":"Raḩīmah","ru":"Raḩīmah","country":"30500405-2c0f-4d60-b364-df505b87e36e","countryCode":"SA","state":"baf2b989-aeb4-4151-a07a-0584b96fa1ca","stateCode":"04","latitude":"26.70791000","longitude":"50.06194000"},{"id":"002d3332-4c33-4735-acd9-25b68f6746fc","name":"Sayhāt","ru":"Sayhāt","country":"30500405-2c0f-4d60-b364-df505b87e36e","countryCode":"SA","state":"baf2b989-aeb4-4151-a07a-0584b96fa1ca","stateCode":"04","latitude":"26.48345000","longitude":"50.04849000"},{"id":"e494e9d3-4bd1-48da-9d48-8bb60d984757","name":"Tārūt","ru":"Tārūt","country":"30500405-2c0f-4d60-b364-df505b87e36e","countryCode":"SA","state":"baf2b989-aeb4-4151-a07a-0584b96fa1ca","stateCode":"04","latitude":"26.57330000","longitude":"50.04028000"},{"id":"1f403148-dd64-4667-8715-80480683468d","name":"Umm as Sāhik","ru":"Umm as Sāhik","country":"30500405-2c0f-4d60-b364-df505b87e36e","countryCode":"SA","state":"baf2b989-aeb4-4151-a07a-0584b96fa1ca","stateCode":"04","latitude":"26.65361000","longitude":"49.91639000"},{"id":"a0ab41f6-0c67-4cce-9fca-485ee266bd58","name":"Ha'il","ru":"Ha'il","country":"30500405-2c0f-4d60-b364-df505b87e36e","countryCode":"SA","state":"7ac31f1c-7b3c-4468-aaa0-f05c55b214a9","stateCode":"06","latitude":"27.52188000","longitude":"41.69073000"},{"id":"2a9d4fe0-da66-430f-950a-e5c4495a68ba","name":"Abū ‘Arīsh","ru":"Abū ‘Arīsh","country":"30500405-2c0f-4d60-b364-df505b87e36e","countryCode":"SA","state":"d8f1c606-50b4-433c-9a89-3eb8a0d40e40","stateCode":"09","latitude":"16.96887000","longitude":"42.83251000"},{"id":"a1120e59-0769-49fb-a904-fd6e0521681b","name":"Ad Darb","ru":"Ad Darb","country":"30500405-2c0f-4d60-b364-df505b87e36e","countryCode":"SA","state":"d8f1c606-50b4-433c-9a89-3eb8a0d40e40","stateCode":"09","latitude":"17.72285000","longitude":"42.25261000"},{"id":"20cb6433-3842-42f0-9f5d-08f08e3fa377","name":"Al Jarādīyah","ru":"Al Jarādīyah","country":"30500405-2c0f-4d60-b364-df505b87e36e","countryCode":"SA","state":"d8f1c606-50b4-433c-9a89-3eb8a0d40e40","stateCode":"09","latitude":"16.57946000","longitude":"42.91240000"},{"id":"9b877af5-8f08-44a3-92ab-ca5f063390c5","name":"Şabyā","ru":"Şabyā","country":"30500405-2c0f-4d60-b364-df505b87e36e","countryCode":"SA","state":"d8f1c606-50b4-433c-9a89-3eb8a0d40e40","stateCode":"09","latitude":"17.14950000","longitude":"42.62537000"},{"id":"33fcbbb3-f14d-466f-a07d-f6383e6e8fff","name":"Şāmitah","ru":"Şāmitah","country":"30500405-2c0f-4d60-b364-df505b87e36e","countryCode":"SA","state":"d8f1c606-50b4-433c-9a89-3eb8a0d40e40","stateCode":"09","latitude":"16.59601000","longitude":"42.94435000"},{"id":"90d28a55-4fdd-4d0c-8e9b-4287e8a87df1","name":"Farasān","ru":"Farasān","country":"30500405-2c0f-4d60-b364-df505b87e36e","countryCode":"SA","state":"d8f1c606-50b4-433c-9a89-3eb8a0d40e40","stateCode":"09","latitude":"16.70222000","longitude":"42.11833000"},{"id":"492dbf37-6b62-422c-b5c6-92a4a23b92bb","name":"Jizan","ru":"Jizan","country":"30500405-2c0f-4d60-b364-df505b87e36e","countryCode":"SA","state":"d8f1c606-50b4-433c-9a89-3eb8a0d40e40","stateCode":"09","latitude":"16.88917000","longitude":"42.55111000"},{"id":"c804a24d-c6b0-42d6-86ea-1c00db9d7d36","name":"Mislīyah","ru":"Mislīyah","country":"30500405-2c0f-4d60-b364-df505b87e36e","countryCode":"SA","state":"d8f1c606-50b4-433c-9a89-3eb8a0d40e40","stateCode":"09","latitude":"17.45988000","longitude":"42.55720000"},{"id":"d4e509cf-e813-42b1-9684-7eec632ff31a","name":"Mizhirah","ru":"Mizhirah","country":"30500405-2c0f-4d60-b364-df505b87e36e","countryCode":"SA","state":"d8f1c606-50b4-433c-9a89-3eb8a0d40e40","stateCode":"09","latitude":"16.82611000","longitude":"42.73333000"},{"id":"3ace1773-b7cf-48ee-aaa2-5af96c388974","name":"Al Hadā","ru":"Al Hadā","country":"30500405-2c0f-4d60-b364-df505b87e36e","countryCode":"SA","state":"ff6f6d6c-5307-4db3-ba4b-a0453d4c5e69","stateCode":"02","latitude":"21.36753000","longitude":"40.28694000"},{"id":"c718f425-5ab1-4103-96de-785fff7d6b09","name":"Al Jumūm","ru":"Al Jumūm","country":"30500405-2c0f-4d60-b364-df505b87e36e","countryCode":"SA","state":"ff6f6d6c-5307-4db3-ba4b-a0453d4c5e69","stateCode":"02","latitude":"21.61694000","longitude":"39.69806000"},{"id":"ef65e640-cc6a-4f21-9048-e90fabd41aad","name":"Al Muwayh","ru":"Al Muwayh","country":"30500405-2c0f-4d60-b364-df505b87e36e","countryCode":"SA","state":"ff6f6d6c-5307-4db3-ba4b-a0453d4c5e69","stateCode":"02","latitude":"22.43333000","longitude":"41.75829000"},{"id":"779e1515-f898-4220-ade7-6218caa894fc","name":"Ash Shafā","ru":"Ash Shafā","country":"30500405-2c0f-4d60-b364-df505b87e36e","countryCode":"SA","state":"ff6f6d6c-5307-4db3-ba4b-a0453d4c5e69","stateCode":"02","latitude":"21.07210000","longitude":"40.31185000"},{"id":"0655abd4-11d6-4a7e-95d0-152980c882d8","name":"Ghran","ru":"Ghran","country":"30500405-2c0f-4d60-b364-df505b87e36e","countryCode":"SA","state":"ff6f6d6c-5307-4db3-ba4b-a0453d4c5e69","stateCode":"02","latitude":"21.98027000","longitude":"39.36521000"},{"id":"0132cee2-1efe-4cae-a0ed-56804d515bb7","name":"Jeddah","ru":"Jeddah","country":"30500405-2c0f-4d60-b364-df505b87e36e","countryCode":"SA","state":"ff6f6d6c-5307-4db3-ba4b-a0453d4c5e69","stateCode":"02","latitude":"21.54238000","longitude":"39.19797000"},{"id":"e2dc6274-0891-43b5-820a-241c3a080eea","name":"Mecca","ru":"Mecca","country":"30500405-2c0f-4d60-b364-df505b87e36e","countryCode":"SA","state":"ff6f6d6c-5307-4db3-ba4b-a0453d4c5e69","stateCode":"02","latitude":"21.42664000","longitude":"39.82563000"},{"id":"0f5f4865-c821-472f-81e7-4e2ba64e3ce8","name":"Rābigh","ru":"Rābigh","country":"30500405-2c0f-4d60-b364-df505b87e36e","countryCode":"SA","state":"ff6f6d6c-5307-4db3-ba4b-a0453d4c5e69","stateCode":"02","latitude":"22.79856000","longitude":"39.03493000"},{"id":"f199a956-3c5c-4486-bece-f923edf5b2db","name":"Ta’if","ru":"Ta’if","country":"30500405-2c0f-4d60-b364-df505b87e36e","countryCode":"SA","state":"ff6f6d6c-5307-4db3-ba4b-a0453d4c5e69","stateCode":"02","latitude":"21.27028000","longitude":"40.41583000"},{"id":"62d116d2-170f-48c0-bffb-cff281935e5b","name":"Turabah","ru":"Turabah","country":"30500405-2c0f-4d60-b364-df505b87e36e","countryCode":"SA","state":"ff6f6d6c-5307-4db3-ba4b-a0453d4c5e69","stateCode":"02","latitude":"21.21406000","longitude":"41.63310000"},{"id":"d77a849a-bb64-4e05-9be6-d8abb8a54700","name":"Najrān","ru":"Najrān","country":"30500405-2c0f-4d60-b364-df505b87e36e","countryCode":"SA","state":"7a1ddba3-50bd-491d-ace8-904517f75ddd","stateCode":"10","latitude":"17.49326000","longitude":"44.12766000"},{"id":"f11a046d-56ca-44b0-9bf6-ea332499df1c","name":"Arar","ru":"Arar","country":"30500405-2c0f-4d60-b364-df505b87e36e","countryCode":"SA","state":"23d6d16f-fcb1-4d11-a537-f70c283833d2","stateCode":"08","latitude":"30.97531000","longitude":"41.03808000"},{"id":"c3d00e1a-3914-4637-9a71-47e939226160","name":"Turaif","ru":"Turaif","country":"30500405-2c0f-4d60-b364-df505b87e36e","countryCode":"SA","state":"23d6d16f-fcb1-4d11-a537-f70c283833d2","stateCode":"08","latitude":"31.67252000","longitude":"38.66374000"},{"id":"5d2ac201-5dd0-483e-99e8-7a81305fbf1c","name":"Ad Dawādimī","ru":"Ad Dawādimī","country":"30500405-2c0f-4d60-b364-df505b87e36e","countryCode":"SA","state":"883988b2-dfa0-41ba-a3a4-b3d7e33c83f9","stateCode":"01","latitude":"24.50772000","longitude":"44.39237000"},{"id":"7e806e94-236b-4357-aac9-f3b7aa1d90cc","name":"Ad Dilam","ru":"Ad Dilam","country":"30500405-2c0f-4d60-b364-df505b87e36e","countryCode":"SA","state":"883988b2-dfa0-41ba-a3a4-b3d7e33c83f9","stateCode":"01","latitude":"23.99104000","longitude":"47.16181000"},{"id":"f2fb5c34-1da5-4be9-b2ad-e8921ed3cefa","name":"Afif","ru":"Afif","country":"30500405-2c0f-4d60-b364-df505b87e36e","countryCode":"SA","state":"883988b2-dfa0-41ba-a3a4-b3d7e33c83f9","stateCode":"01","latitude":"23.90650000","longitude":"42.91724000"},{"id":"bd6a5265-f750-4390-bb1f-b4ee55b275ee","name":"Ain AlBaraha","ru":"Ain AlBaraha","country":"30500405-2c0f-4d60-b364-df505b87e36e","countryCode":"SA","state":"883988b2-dfa0-41ba-a3a4-b3d7e33c83f9","stateCode":"01","latitude":"24.75806000","longitude":"43.77389000"},{"id":"01a5fa4a-662e-4da9-8825-178e99de7364","name":"Al Arţāwīyah","ru":"Al Arţāwīyah","country":"30500405-2c0f-4d60-b364-df505b87e36e","countryCode":"SA","state":"883988b2-dfa0-41ba-a3a4-b3d7e33c83f9","stateCode":"01","latitude":"26.50387000","longitude":"45.34813000"},{"id":"00e33c58-4d1d-47a8-964f-2498bb166d9b","name":"Al Kharj","ru":"Al Kharj","country":"30500405-2c0f-4d60-b364-df505b87e36e","countryCode":"SA","state":"883988b2-dfa0-41ba-a3a4-b3d7e33c83f9","stateCode":"01","latitude":"24.15541000","longitude":"47.33457000"},{"id":"17230681-d85f-4921-ad08-133125ca87d0","name":"As Sulayyil","ru":"As Sulayyil","country":"30500405-2c0f-4d60-b364-df505b87e36e","countryCode":"SA","state":"883988b2-dfa0-41ba-a3a4-b3d7e33c83f9","stateCode":"01","latitude":"20.46067000","longitude":"45.57792000"},{"id":"f68b3a31-bbbd-4817-a669-a9263dfeb0e5","name":"Az Zulfī","ru":"Az Zulfī","country":"30500405-2c0f-4d60-b364-df505b87e36e","countryCode":"SA","state":"883988b2-dfa0-41ba-a3a4-b3d7e33c83f9","stateCode":"01","latitude":"26.29945000","longitude":"44.81542000"},{"id":"589dd72a-244d-4724-94ce-b1afed4d1152","name":"Marāt","ru":"Marāt","country":"30500405-2c0f-4d60-b364-df505b87e36e","countryCode":"SA","state":"883988b2-dfa0-41ba-a3a4-b3d7e33c83f9","stateCode":"01","latitude":"25.07064000","longitude":"45.45775000"},{"id":"76ec7aa9-e4f6-4d30-966e-24b670a788ef","name":"Riyadh","ru":"Riyadh","country":"30500405-2c0f-4d60-b364-df505b87e36e","countryCode":"SA","state":"883988b2-dfa0-41ba-a3a4-b3d7e33c83f9","stateCode":"01","latitude":"24.68773000","longitude":"46.72185000"},{"id":"fcb7e750-a7d0-4d79-98a0-fb1575669a55","name":"Sājir","ru":"Sājir","country":"30500405-2c0f-4d60-b364-df505b87e36e","countryCode":"SA","state":"883988b2-dfa0-41ba-a3a4-b3d7e33c83f9","stateCode":"01","latitude":"25.18251000","longitude":"44.59964000"},{"id":"ef76a0f0-3b2f-48d1-ab11-6d0159cb3336","name":"shokhaibٍ","ru":"shokhaibٍ","country":"30500405-2c0f-4d60-b364-df505b87e36e","countryCode":"SA","state":"883988b2-dfa0-41ba-a3a4-b3d7e33c83f9","stateCode":"01","latitude":"24.49023000","longitude":"46.26871000"},{"id":"0d7df242-41d1-4ba7-a853-1403182930ca","name":"Tumayr","ru":"Tumayr","country":"30500405-2c0f-4d60-b364-df505b87e36e","countryCode":"SA","state":"883988b2-dfa0-41ba-a3a4-b3d7e33c83f9","stateCode":"01","latitude":"25.70347000","longitude":"45.86835000"},{"id":"b094817c-8f6c-4a01-9695-8da99b26aa2d","name":"Al Wajh","ru":"Al Wajh","country":"30500405-2c0f-4d60-b364-df505b87e36e","countryCode":"SA","state":"c745970e-4e8e-40e4-812c-576cd08660a0","stateCode":"07","latitude":"26.24551000","longitude":"36.45249000"},{"id":"f8d1c3e7-d3fd-4f37-898a-196371d6879d","name":"Duba","ru":"Duba","country":"30500405-2c0f-4d60-b364-df505b87e36e","countryCode":"SA","state":"c745970e-4e8e-40e4-812c-576cd08660a0","stateCode":"07","latitude":"27.35134000","longitude":"35.69014000"},{"id":"ba35bd4d-db91-477e-b955-d99e3f03375b","name":"Tabuk","ru":"Tabuk","country":"30500405-2c0f-4d60-b364-df505b87e36e","countryCode":"SA","state":"c745970e-4e8e-40e4-812c-576cd08660a0","stateCode":"07","latitude":"28.39980000","longitude":"36.57151000"},{"id":"1642da28-ed14-4ee4-9336-7dd3fc8ad966","name":"Umm Lajj","ru":"Umm Lajj","country":"30500405-2c0f-4d60-b364-df505b87e36e","countryCode":"SA","state":"c745970e-4e8e-40e4-812c-576cd08660a0","stateCode":"07","latitude":"25.02126000","longitude":"37.26850000"}]