[{"id":"71bff9fc-debc-48e6-af07-17ab4c0984da","name":"Arawa","ru":"Arawa","country":"e9e868f9-fa2b-4927-91d1-67f5d51a0b14","countryCode":"PG","state":"382a7dc7-f3fd-4f3b-8999-3a935b87b2ab","stateCode":"NSB","latitude":"-6.22977000","longitude":"155.56598000"},{"id":"4219abaf-b598-4514-855f-e411f164746a","name":"Central Bougainville","ru":"Central Bougainville","country":"e9e868f9-fa2b-4927-91d1-67f5d51a0b14","countryCode":"PG","state":"382a7dc7-f3fd-4f3b-8999-3a935b87b2ab","stateCode":"NSB","latitude":"-6.22806000","longitude":"155.56583000"},{"id":"d2d0c2b8-7d79-4190-849f-753dc0a3cb25","name":"Kieta","ru":"Kieta","country":"e9e868f9-fa2b-4927-91d1-67f5d51a0b14","countryCode":"PG","state":"382a7dc7-f3fd-4f3b-8999-3a935b87b2ab","stateCode":"NSB","latitude":"-6.21462000","longitude":"155.63251000"},{"id":"02e9ec7f-d797-4f00-bc8f-bd4a283ac317","name":"North Bougainville","ru":"North Bougainville","country":"e9e868f9-fa2b-4927-91d1-67f5d51a0b14","countryCode":"PG","state":"382a7dc7-f3fd-4f3b-8999-3a935b87b2ab","stateCode":"NSB","latitude":"-5.42194000","longitude":"154.67278000"},{"id":"351e6145-b5ec-4d9e-93eb-922daad41930","name":"Panguna","ru":"Panguna","country":"e9e868f9-fa2b-4927-91d1-67f5d51a0b14","countryCode":"PG","state":"382a7dc7-f3fd-4f3b-8999-3a935b87b2ab","stateCode":"NSB","latitude":"-6.31639000","longitude":"155.48483000"},{"id":"f975fa33-a41e-4796-bc9e-7c95fb484ff5","name":"South Bougainville","ru":"South Bougainville","country":"e9e868f9-fa2b-4927-91d1-67f5d51a0b14","countryCode":"PG","state":"382a7dc7-f3fd-4f3b-8999-3a935b87b2ab","stateCode":"NSB","latitude":"-6.74593000","longitude":"155.69640000"},{"id":"35c33dda-9ec2-4a06-8aa2-cdcdadd40d8c","name":"Abau","ru":"Abau","country":"e9e868f9-fa2b-4927-91d1-67f5d51a0b14","countryCode":"PG","state":"10d96655-cdb7-47e8-8ec9-06c0909fbcfb","stateCode":"CPM","latitude":"-10.08333000","longitude":"148.91667000"},{"id":"f57efb01-e585-4a6d-af27-70d6c07e5250","name":"Goilala","ru":"Goilala","country":"e9e868f9-fa2b-4927-91d1-67f5d51a0b14","countryCode":"PG","state":"10d96655-cdb7-47e8-8ec9-06c0909fbcfb","stateCode":"CPM","latitude":"-8.33333000","longitude":"147.00000000"},{"id":"276e5948-33b2-4689-bf3f-b88a8285af67","name":"Kairuku-Hiri","ru":"Kairuku-Hiri","country":"e9e868f9-fa2b-4927-91d1-67f5d51a0b14","countryCode":"PG","state":"10d96655-cdb7-47e8-8ec9-06c0909fbcfb","stateCode":"CPM","latitude":"-9.13648000","longitude":"147.27905000"},{"id":"f34ffa53-a5b1-4f36-9f38-adcee9c73014","name":"Rigo","ru":"Rigo","country":"e9e868f9-fa2b-4927-91d1-67f5d51a0b14","countryCode":"PG","state":"10d96655-cdb7-47e8-8ec9-06c0909fbcfb","stateCode":"CPM","latitude":"-9.75000000","longitude":"147.83333000"},{"id":"1d64647e-6322-44c5-a5d8-52647fc69509","name":"Chuave","ru":"Chuave","country":"e9e868f9-fa2b-4927-91d1-67f5d51a0b14","countryCode":"PG","state":"99dff4b1-39b6-47c0-917e-d110b1d24d0f","stateCode":"CPK","latitude":"-6.16667000","longitude":"145.08333000"},{"id":"5809fd3f-77ce-4c53-ae87-2e7acbdf8014","name":"Gumine","ru":"Gumine","country":"e9e868f9-fa2b-4927-91d1-67f5d51a0b14","countryCode":"PG","state":"99dff4b1-39b6-47c0-917e-d110b1d24d0f","stateCode":"CPK","latitude":"-6.25000000","longitude":"144.88333000"},{"id":"0e1fe7f7-b1ab-429d-b281-245c5f86d5d4","name":"Karimui Nomane","ru":"Karimui Nomane","country":"e9e868f9-fa2b-4927-91d1-67f5d51a0b14","countryCode":"PG","state":"99dff4b1-39b6-47c0-917e-d110b1d24d0f","stateCode":"CPK","latitude":"-6.58333000","longitude":"144.83333000"},{"id":"8d5a9bd6-8e00-4ad5-b3ec-5a4053884ab8","name":"Kerowagi","ru":"Kerowagi","country":"e9e868f9-fa2b-4927-91d1-67f5d51a0b14","countryCode":"PG","state":"99dff4b1-39b6-47c0-917e-d110b1d24d0f","stateCode":"CPK","latitude":"-5.93333000","longitude":"144.88333000"},{"id":"fc9cdf02-0008-460b-b0b8-a4a50870b549","name":"Kundiawa","ru":"Kundiawa","country":"e9e868f9-fa2b-4927-91d1-67f5d51a0b14","countryCode":"PG","state":"99dff4b1-39b6-47c0-917e-d110b1d24d0f","stateCode":"CPK","latitude":"-5.91667000","longitude":"145.05000000"},{"id":"74506e80-000e-44bd-89e1-7679db48d993","name":"Sinasina Yonggamugl","ru":"Sinasina Yonggamugl","country":"e9e868f9-fa2b-4927-91d1-67f5d51a0b14","countryCode":"PG","state":"99dff4b1-39b6-47c0-917e-d110b1d24d0f","stateCode":"CPK","latitude":"-6.08333000","longitude":"145.01667000"},{"id":"87c8babb-1cb5-4af7-9451-c6ce282a74e8","name":"Gazelle","ru":"Gazelle","country":"e9e868f9-fa2b-4927-91d1-67f5d51a0b14","countryCode":"PG","state":"0c50abef-feeb-4186-99c6-d5bd7e41c1f1","stateCode":"EBR","latitude":"-4.48333000","longitude":"151.86667000"},{"id":"45012913-1a86-4512-b00a-a421fab159b2","name":"Kokopo","ru":"Kokopo","country":"e9e868f9-fa2b-4927-91d1-67f5d51a0b14","countryCode":"PG","state":"0c50abef-feeb-4186-99c6-d5bd7e41c1f1","stateCode":"EBR","latitude":"-4.40000000","longitude":"152.28333000"},{"id":"52b73d8c-8a79-4cae-964b-1d0a26162433","name":"Pomio","ru":"Pomio","country":"e9e868f9-fa2b-4927-91d1-67f5d51a0b14","countryCode":"PG","state":"0c50abef-feeb-4186-99c6-d5bd7e41c1f1","stateCode":"EBR","latitude":"-5.50000000","longitude":"151.33333000"},{"id":"5560523e-e0da-435e-a6bb-a44b3398eeb5","name":"Rabaul","ru":"Rabaul","country":"e9e868f9-fa2b-4927-91d1-67f5d51a0b14","countryCode":"PG","state":"0c50abef-feeb-4186-99c6-d5bd7e41c1f1","stateCode":"EBR","latitude":"-4.18333000","longitude":"152.16667000"},{"id":"3b2e2cd9-d355-4c71-8156-8b429b389947","name":"Daulo","ru":"Daulo","country":"e9e868f9-fa2b-4927-91d1-67f5d51a0b14","countryCode":"PG","state":"b85a0fee-93aa-453b-885a-1e90e71beb98","stateCode":"EHG","latitude":"-5.98333000","longitude":"145.23333000"},{"id":"e27aa07a-121f-4f13-9ffa-dd0e7240af25","name":"Goroka","ru":"Goroka","country":"e9e868f9-fa2b-4927-91d1-67f5d51a0b14","countryCode":"PG","state":"b85a0fee-93aa-453b-885a-1e90e71beb98","stateCode":"EHG","latitude":"-6.05000000","longitude":"145.38333000"},{"id":"2de1701b-7a6b-45a9-ab47-baf06040f4cd","name":"Henganofi","ru":"Henganofi","country":"e9e868f9-fa2b-4927-91d1-67f5d51a0b14","countryCode":"PG","state":"b85a0fee-93aa-453b-885a-1e90e71beb98","stateCode":"EHG","latitude":"-6.21667000","longitude":"145.66667000"},{"id":"3cc4dac1-c4f0-477a-aa1c-2dde9e562423","name":"Kainantu","ru":"Kainantu","country":"e9e868f9-fa2b-4927-91d1-67f5d51a0b14","countryCode":"PG","state":"b85a0fee-93aa-453b-885a-1e90e71beb98","stateCode":"EHG","latitude":"-6.41667000","longitude":"145.91667000"},{"id":"9dc685bd-1f0c-425a-bf92-3cff5e1c166f","name":"Lufa","ru":"Lufa","country":"e9e868f9-fa2b-4927-91d1-67f5d51a0b14","countryCode":"PG","state":"b85a0fee-93aa-453b-885a-1e90e71beb98","stateCode":"EHG","latitude":"-6.45000000","longitude":"145.25000000"},{"id":"b32196b6-df9a-46b1-a3a0-693549c00f9d","name":"Obura Wonenara","ru":"Obura Wonenara","country":"e9e868f9-fa2b-4927-91d1-67f5d51a0b14","countryCode":"PG","state":"b85a0fee-93aa-453b-885a-1e90e71beb98","stateCode":"EHG","latitude":"-6.55434000","longitude":"145.97328000"},{"id":"d9e27415-927c-4bbd-ab7d-0f435f9c5294","name":"Okapa","ru":"Okapa","country":"e9e868f9-fa2b-4927-91d1-67f5d51a0b14","countryCode":"PG","state":"b85a0fee-93aa-453b-885a-1e90e71beb98","stateCode":"EHG","latitude":"-6.63333000","longitude":"145.50000000"},{"id":"910819a3-d5d5-4999-bf14-4737004af221","name":"Unggai Bena","ru":"Unggai Bena","country":"e9e868f9-fa2b-4927-91d1-67f5d51a0b14","countryCode":"PG","state":"b85a0fee-93aa-453b-885a-1e90e71beb98","stateCode":"EHG","latitude":"-6.11667000","longitude":"145.51667000"},{"id":"65560e9f-3710-4917-929a-22f14488a5fc","name":"Kandep","ru":"Kandep","country":"e9e868f9-fa2b-4927-91d1-67f5d51a0b14","countryCode":"PG","state":"04b5a0bd-a8f1-4181-a778-79f09bf45828","stateCode":"EPW","latitude":"-5.83333000","longitude":"143.55000000"},{"id":"bab66beb-348d-4549-8c61-6e2e4a4c718e","name":"Kompiam Ambum","ru":"Kompiam Ambum","country":"e9e868f9-fa2b-4927-91d1-67f5d51a0b14","countryCode":"PG","state":"04b5a0bd-a8f1-4181-a778-79f09bf45828","stateCode":"EPW","latitude":"-5.25000000","longitude":"144.00000000"},{"id":"53e133f9-17bf-4e08-834f-09c2a0f623bb","name":"Lagaip Porgera","ru":"Lagaip Porgera","country":"e9e868f9-fa2b-4927-91d1-67f5d51a0b14","countryCode":"PG","state":"04b5a0bd-a8f1-4181-a778-79f09bf45828","stateCode":"EPW","latitude":"-5.38333000","longitude":"143.16667000"},{"id":"24de1a08-643c-4484-8eac-3ad16db5617e","name":"Porgera","ru":"Porgera","country":"e9e868f9-fa2b-4927-91d1-67f5d51a0b14","countryCode":"PG","state":"04b5a0bd-a8f1-4181-a778-79f09bf45828","stateCode":"EPW","latitude":"-5.46300000","longitude":"143.14800000"},{"id":"02d23c07-9b0c-4890-be4a-5b00279ab990","name":"Wabag","ru":"Wabag","country":"e9e868f9-fa2b-4927-91d1-67f5d51a0b14","countryCode":"PG","state":"04b5a0bd-a8f1-4181-a778-79f09bf45828","stateCode":"EPW","latitude":"-5.33333000","longitude":"143.65000000"},{"id":"e46bb39d-257a-4578-92f7-c442da0fb244","name":"Wapenamanda","ru":"Wapenamanda","country":"e9e868f9-fa2b-4927-91d1-67f5d51a0b14","countryCode":"PG","state":"04b5a0bd-a8f1-4181-a778-79f09bf45828","stateCode":"EPW","latitude":"-5.66667000","longitude":"143.91667000"},{"id":"8a86a0d2-4022-44a8-a176-2b29344f935c","name":"Kerema","ru":"Kerema","country":"e9e868f9-fa2b-4927-91d1-67f5d51a0b14","countryCode":"PG","state":"c7e13636-bcc6-4587-b51e-e74748a0496d","stateCode":"GPK","latitude":"-7.79600000","longitude":"146.09300000"},{"id":"70778fe7-8bf0-4223-98ab-af4cbbe981fb","name":"Kikori","ru":"Kikori","country":"e9e868f9-fa2b-4927-91d1-67f5d51a0b14","countryCode":"PG","state":"c7e13636-bcc6-4587-b51e-e74748a0496d","stateCode":"GPK","latitude":"-7.25000000","longitude":"144.33333000"},{"id":"fc1c58d4-622d-4f46-a38a-3760e3b23636","name":"Komo Margarima","ru":"Komo Margarima","country":"e9e868f9-fa2b-4927-91d1-67f5d51a0b14","countryCode":"PG","state":"4e9dfd70-2558-4bed-9b7a-fa0ce89ec68c","stateCode":"HLA","latitude":"-6.11667000","longitude":"143.00000000"},{"id":"7737ea09-b908-4d9a-b18d-fd56cfca4185","name":"Koroba-Lake Kopiago","ru":"Koroba-Lake Kopiago","country":"e9e868f9-fa2b-4927-91d1-67f5d51a0b14","countryCode":"PG","state":"4e9dfd70-2558-4bed-9b7a-fa0ce89ec68c","stateCode":"HLA","latitude":"-5.41667000","longitude":"142.50000000"},{"id":"f41c92fb-996e-4743-9d35-b56f2754e6f6","name":"Tari","ru":"Tari","country":"e9e868f9-fa2b-4927-91d1-67f5d51a0b14","countryCode":"PG","state":"4e9dfd70-2558-4bed-9b7a-fa0ce89ec68c","stateCode":"HLA","latitude":"-5.84500000","longitude":"142.94667000"},{"id":"83e34b90-41ec-47a0-b65f-e7415139f5cc","name":"Tari Pori","ru":"Tari Pori","country":"e9e868f9-fa2b-4927-91d1-67f5d51a0b14","countryCode":"PG","state":"4e9dfd70-2558-4bed-9b7a-fa0ce89ec68c","stateCode":"HLA","latitude":"-6.28333000","longitude":"142.83333000"},{"id":"de5f320f-d228-4462-ad45-9bcd8a763a75","name":"Angalimp South Wahgi","ru":"Angalimp South Wahgi","country":"e9e868f9-fa2b-4927-91d1-67f5d51a0b14","countryCode":"PG","state":"1146d93c-23ef-46a2-9736-d1e5a02cd71c","stateCode":"JWK","latitude":"-6.05000000","longitude":"144.56667000"},{"id":"7405e3ec-6ed2-42a6-8265-2148d6474824","name":"Jimi","ru":"Jimi","country":"e9e868f9-fa2b-4927-91d1-67f5d51a0b14","countryCode":"PG","state":"1146d93c-23ef-46a2-9736-d1e5a02cd71c","stateCode":"JWK","latitude":"-5.53333000","longitude":"144.56667000"},{"id":"55e56055-12ab-43d0-a2f9-8f9c0a26c523","name":"North Wahgi","ru":"North Wahgi","country":"e9e868f9-fa2b-4927-91d1-67f5d51a0b14","countryCode":"PG","state":"1146d93c-23ef-46a2-9736-d1e5a02cd71c","stateCode":"JWK","latitude":"-5.80000000","longitude":"144.68333000"},{"id":"9bdb83dc-26f9-4462-aa79-a2e26692ccbb","name":"Bogia","ru":"Bogia","country":"e9e868f9-fa2b-4927-91d1-67f5d51a0b14","countryCode":"PG","state":"41cf9ca7-33db-4148-aab1-c56a5b3c47e4","stateCode":"MPM","latitude":"-4.50000000","longitude":"145.00000000"},{"id":"0bebbcc3-1898-42e6-9e3e-860833ac32f2","name":"Madang","ru":"Madang","country":"e9e868f9-fa2b-4927-91d1-67f5d51a0b14","countryCode":"PG","state":"41cf9ca7-33db-4148-aab1-c56a5b3c47e4","stateCode":"MPM","latitude":"-5.22152000","longitude":"145.78695000"},{"id":"4dcaef4b-0abc-4151-9e6d-d39f6f2ba525","name":"Middle Ramu","ru":"Middle Ramu","country":"e9e868f9-fa2b-4927-91d1-67f5d51a0b14","countryCode":"PG","state":"41cf9ca7-33db-4148-aab1-c56a5b3c47e4","stateCode":"MPM","latitude":"-4.91667000","longitude":"144.75000000"},{"id":"20b97999-6324-4641-ae40-f3ba049c4951","name":"Rai Coast","ru":"Rai Coast","country":"e9e868f9-fa2b-4927-91d1-67f5d51a0b14","countryCode":"PG","state":"41cf9ca7-33db-4148-aab1-c56a5b3c47e4","stateCode":"MPM","latitude":"-5.72303000","longitude":"146.46149000"},{"id":"d22b0009-a072-4fc6-9f4a-b2764a3e3a9c","name":"Sumkar","ru":"Sumkar","country":"e9e868f9-fa2b-4927-91d1-67f5d51a0b14","countryCode":"PG","state":"41cf9ca7-33db-4148-aab1-c56a5b3c47e4","stateCode":"MPM","latitude":"-4.80000000","longitude":"145.55000000"},{"id":"8a97f3e9-495c-4bd8-89e4-3b048e299ed2","name":"Usino Bundi","ru":"Usino Bundi","country":"e9e868f9-fa2b-4927-91d1-67f5d51a0b14","countryCode":"PG","state":"41cf9ca7-33db-4148-aab1-c56a5b3c47e4","stateCode":"MPM","latitude":"-5.53333000","longitude":"145.16667000"},{"id":"091c623a-c3b2-46d2-a64f-842eb4d3a0d6","name":"Lorengau","ru":"Lorengau","country":"e9e868f9-fa2b-4927-91d1-67f5d51a0b14","countryCode":"PG","state":"38565817-6702-4c1c-bfc5-aa00b9fa22ae","stateCode":"MRL","latitude":"-2.03410000","longitude":"147.27173000"},{"id":"da6299fb-46d2-45e5-93ff-64ad54a5c199","name":"Manus","ru":"Manus","country":"e9e868f9-fa2b-4927-91d1-67f5d51a0b14","countryCode":"PG","state":"38565817-6702-4c1c-bfc5-aa00b9fa22ae","stateCode":"MRL","latitude":"-2.09626000","longitude":"146.96612000"},{"id":"b59966a6-6ee5-44d3-8989-69f47a51037b","name":"Alotau","ru":"Alotau","country":"e9e868f9-fa2b-4927-91d1-67f5d51a0b14","countryCode":"PG","state":"553f2a82-8a43-4676-846f-05a1b8ff3810","stateCode":"MBA","latitude":"-10.25000000","longitude":"150.08333000"},{"id":"7bd850b8-d312-449b-84cb-2098208ae106","name":"Esa’ala","ru":"Esa’ala","country":"e9e868f9-fa2b-4927-91d1-67f5d51a0b14","countryCode":"PG","state":"553f2a82-8a43-4676-846f-05a1b8ff3810","stateCode":"MBA","latitude":"-9.58333000","longitude":"150.75000000"},{"id":"2de3b4fa-3997-4d7d-a339-14f5f467679e","name":"Kiriwina Goodenough","ru":"Kiriwina Goodenough","country":"e9e868f9-fa2b-4927-91d1-67f5d51a0b14","countryCode":"PG","state":"553f2a82-8a43-4676-846f-05a1b8ff3810","stateCode":"MBA","latitude":"-8.48333000","longitude":"151.06667000"},{"id":"375363d1-0df4-424d-88ec-df277f5d8309","name":"Samarai","ru":"Samarai","country":"e9e868f9-fa2b-4927-91d1-67f5d51a0b14","countryCode":"PG","state":"553f2a82-8a43-4676-846f-05a1b8ff3810","stateCode":"MBA","latitude":"-10.61038000","longitude":"150.66207000"},{"id":"b2d0452b-e683-42d4-814e-2c8fa1ac0ea4","name":"Samarai Murua","ru":"Samarai Murua","country":"e9e868f9-fa2b-4927-91d1-67f5d51a0b14","countryCode":"PG","state":"553f2a82-8a43-4676-846f-05a1b8ff3810","stateCode":"MBA","latitude":"-10.49636000","longitude":"150.54703000"},{"id":"3089a798-e5ac-40d0-a1b9-a66f01f5c647","name":"Bulolo","ru":"Bulolo","country":"e9e868f9-fa2b-4927-91d1-67f5d51a0b14","countryCode":"PG","state":"6de2a7e5-9aef-4e64-8aeb-9d593bbd984a","stateCode":"MPL","latitude":"-7.41667000","longitude":"146.75000000"},{"id":"e6c1b4cc-7a7c-434f-8c75-ef537ff0f11e","name":"Finschhafen","ru":"Finschhafen","country":"e9e868f9-fa2b-4927-91d1-67f5d51a0b14","countryCode":"PG","state":"6de2a7e5-9aef-4e64-8aeb-9d593bbd984a","stateCode":"MPL","latitude":"-6.41667000","longitude":"147.50000000"},{"id":"149730bf-fe12-4ae6-a5c4-1e90ac651986","name":"Huon Gulf","ru":"Huon Gulf","country":"e9e868f9-fa2b-4927-91d1-67f5d51a0b14","countryCode":"PG","state":"6de2a7e5-9aef-4e64-8aeb-9d593bbd984a","stateCode":"MPL","latitude":"-7.18333000","longitude":"146.95000000"},{"id":"2eeab48e-a5af-4e0f-98f8-3cba7c1ab0da","name":"Kabwum","ru":"Kabwum","country":"e9e868f9-fa2b-4927-91d1-67f5d51a0b14","countryCode":"PG","state":"6de2a7e5-9aef-4e64-8aeb-9d593bbd984a","stateCode":"MPL","latitude":"-6.08333000","longitude":"147.00000000"},{"id":"cb923baf-3c6e-4cca-8df7-9a079ee28194","name":"Lae","ru":"Lae","country":"e9e868f9-fa2b-4927-91d1-67f5d51a0b14","countryCode":"PG","state":"6de2a7e5-9aef-4e64-8aeb-9d593bbd984a","stateCode":"MPL","latitude":"-6.50000000","longitude":"146.83333000"},{"id":"445bfea5-04eb-4165-b5bf-41e3c0c25c8a","name":"Markham","ru":"Markham","country":"e9e868f9-fa2b-4927-91d1-67f5d51a0b14","countryCode":"PG","state":"6de2a7e5-9aef-4e64-8aeb-9d593bbd984a","stateCode":"MPL","latitude":"-6.64153000","longitude":"146.86043000"},{"id":"50030bb8-719d-40a2-8099-aa2e222d507c","name":"Menyamya","ru":"Menyamya","country":"e9e868f9-fa2b-4927-91d1-67f5d51a0b14","countryCode":"PG","state":"6de2a7e5-9aef-4e64-8aeb-9d593bbd984a","stateCode":"MPL","latitude":"-7.25000000","longitude":"146.16667000"},{"id":"ed2f46bf-6f2b-4f57-b2d7-730709ea8269","name":"Nawae","ru":"Nawae","country":"e9e868f9-fa2b-4927-91d1-67f5d51a0b14","countryCode":"PG","state":"6de2a7e5-9aef-4e64-8aeb-9d593bbd984a","stateCode":"MPL","latitude":"-6.46667000","longitude":"146.96667000"},{"id":"b94f8525-ff1f-4325-aaa8-e71f1fa8509d","name":"Tewai Siassi","ru":"Tewai Siassi","country":"e9e868f9-fa2b-4927-91d1-67f5d51a0b14","countryCode":"PG","state":"6de2a7e5-9aef-4e64-8aeb-9d593bbd984a","stateCode":"MPL","latitude":"-6.15000000","longitude":"147.53333000"},{"id":"50f79caa-bedf-450b-b92c-8d112ae70025","name":"Wau","ru":"Wau","country":"e9e868f9-fa2b-4927-91d1-67f5d51a0b14","countryCode":"PG","state":"6de2a7e5-9aef-4e64-8aeb-9d593bbd984a","stateCode":"MPL","latitude":"-7.33778000","longitude":"146.71649000"},{"id":"49a8b1ca-4934-47f6-919f-7188ce892e35","name":"Kavieng","ru":"Kavieng","country":"e9e868f9-fa2b-4927-91d1-67f5d51a0b14","countryCode":"PG","state":"30c798f7-1351-4011-b650-8de2fb75f13d","stateCode":"NIK","latitude":"-3.00000000","longitude":"151.41667000"},{"id":"681c697a-1701-438b-b592-0eb1ca78ccb4","name":"Namatanai","ru":"Namatanai","country":"e9e868f9-fa2b-4927-91d1-67f5d51a0b14","countryCode":"PG","state":"30c798f7-1351-4011-b650-8de2fb75f13d","stateCode":"NIK","latitude":"-4.33333000","longitude":"152.83333000"},{"id":"02645ad5-b27f-40a1-acec-015042195a0b","name":"Ijivitari","ru":"Ijivitari","country":"e9e868f9-fa2b-4927-91d1-67f5d51a0b14","countryCode":"PG","state":"4e0c80bd-e1da-4618-abd5-f857bd6d6802","stateCode":"NPP","latitude":"-9.33333000","longitude":"148.58333000"},{"id":"972312f1-0ad0-4fb9-96c9-5c8ca7f19806","name":"Kokoda","ru":"Kokoda","country":"e9e868f9-fa2b-4927-91d1-67f5d51a0b14","countryCode":"PG","state":"4e0c80bd-e1da-4618-abd5-f857bd6d6802","stateCode":"NPP","latitude":"-8.87778000","longitude":"147.73642000"},{"id":"78104624-2e15-48f5-91b3-ca4bb409aaaa","name":"Popondetta","ru":"Popondetta","country":"e9e868f9-fa2b-4927-91d1-67f5d51a0b14","countryCode":"PG","state":"4e0c80bd-e1da-4618-abd5-f857bd6d6802","stateCode":"NPP","latitude":"-8.76536000","longitude":"148.23252000"},{"id":"3e2cae14-e529-44c8-bed3-81552a1bc76d","name":"Sohe","ru":"Sohe","country":"e9e868f9-fa2b-4927-91d1-67f5d51a0b14","countryCode":"PG","state":"4e0c80bd-e1da-4618-abd5-f857bd6d6802","stateCode":"NPP","latitude":"-9.00000000","longitude":"147.91667000"},{"id":"064dbbdf-cbbd-4814-b308-8f8433940aa2","name":"National Capital District","ru":"National Capital District","country":"e9e868f9-fa2b-4927-91d1-67f5d51a0b14","countryCode":"PG","state":"23b046b1-25f7-4d09-bd1c-02e5f240d3a3","stateCode":"NCD","latitude":"-9.42257000","longitude":"147.16641000"},{"id":"e3fcf64a-3cbf-4a9f-9cac-368a10f40192","name":"Port Moresby","ru":"Port Moresby","country":"e9e868f9-fa2b-4927-91d1-67f5d51a0b14","countryCode":"PG","state":"23b046b1-25f7-4d09-bd1c-02e5f240d3a3","stateCode":"NCD","latitude":"-9.47723000","longitude":"147.15089000"},{"id":"f9f5539f-f108-4e8b-9dcf-ac6f95d7dae6","name":"Aitape","ru":"Aitape","country":"e9e868f9-fa2b-4927-91d1-67f5d51a0b14","countryCode":"PG","state":"f83f9650-349c-47d5-bf8b-7c4552171a83","stateCode":"SAN","latitude":"-3.13697000","longitude":"142.34913000"},{"id":"c0c17b6c-0631-4572-a56f-82542e9b9021","name":"Aitape Lumi","ru":"Aitape Lumi","country":"e9e868f9-fa2b-4927-91d1-67f5d51a0b14","countryCode":"PG","state":"f83f9650-349c-47d5-bf8b-7c4552171a83","stateCode":"SAN","latitude":"-3.25000000","longitude":"142.08333000"},{"id":"9d41ba94-8b52-4810-a25d-3ea58f0cf869","name":"Nuku","ru":"Nuku","country":"e9e868f9-fa2b-4927-91d1-67f5d51a0b14","countryCode":"PG","state":"f83f9650-349c-47d5-bf8b-7c4552171a83","stateCode":"SAN","latitude":"-3.66667000","longitude":"142.41667000"},{"id":"897a7e7e-ccfe-4f56-af94-aedc72a9e1d7","name":"Telefomin","ru":"Telefomin","country":"e9e868f9-fa2b-4927-91d1-67f5d51a0b14","countryCode":"PG","state":"f83f9650-349c-47d5-bf8b-7c4552171a83","stateCode":"SAN","latitude":"-4.91667000","longitude":"141.66667000"},{"id":"81296801-e60b-4f15-9401-3e49703d028f","name":"Vanimo","ru":"Vanimo","country":"e9e868f9-fa2b-4927-91d1-67f5d51a0b14","countryCode":"PG","state":"f83f9650-349c-47d5-bf8b-7c4552171a83","stateCode":"SAN","latitude":"-2.68372000","longitude":"141.30195000"},{"id":"a2f83a18-65a5-4446-82a0-39af0a6d94b7","name":"Vanimo Green","ru":"Vanimo Green","country":"e9e868f9-fa2b-4927-91d1-67f5d51a0b14","countryCode":"PG","state":"f83f9650-349c-47d5-bf8b-7c4552171a83","stateCode":"SAN","latitude":"-3.36667000","longitude":"141.35000000"},{"id":"b7b7db23-f894-42cb-afdb-cd183dc8ae56","name":"Ialibu","ru":"Ialibu","country":"e9e868f9-fa2b-4927-91d1-67f5d51a0b14","countryCode":"PG","state":"08bed67f-a6aa-4a11-8bf0-7a9012d6cedb","stateCode":"SHM","latitude":"-6.28208000","longitude":"143.99354000"},{"id":"c9b41a72-d3f7-400e-86db-1df0d8034dcf","name":"Ialibu Pangia","ru":"Ialibu Pangia","country":"e9e868f9-fa2b-4927-91d1-67f5d51a0b14","countryCode":"PG","state":"08bed67f-a6aa-4a11-8bf0-7a9012d6cedb","stateCode":"SHM","latitude":"-6.16667000","longitude":"144.00000000"},{"id":"4ceb30f9-933b-496f-b0de-a37635b22581","name":"Imbonggu","ru":"Imbonggu","country":"e9e868f9-fa2b-4927-91d1-67f5d51a0b14","countryCode":"PG","state":"08bed67f-a6aa-4a11-8bf0-7a9012d6cedb","stateCode":"SHM","latitude":"-6.16667000","longitude":"144.00000000"},{"id":"a6edc872-465b-4dda-91e7-6867f7e0a022","name":"Kagua Erave","ru":"Kagua Erave","country":"e9e868f9-fa2b-4927-91d1-67f5d51a0b14","countryCode":"PG","state":"08bed67f-a6aa-4a11-8bf0-7a9012d6cedb","stateCode":"SHM","latitude":"-6.66667000","longitude":"144.00000000"},{"id":"5256c97c-2a24-4011-abbd-e00d52ee3918","name":"Mendi","ru":"Mendi","country":"e9e868f9-fa2b-4927-91d1-67f5d51a0b14","countryCode":"PG","state":"08bed67f-a6aa-4a11-8bf0-7a9012d6cedb","stateCode":"SHM","latitude":"-6.14755000","longitude":"143.65633000"},{"id":"50f18668-aa1b-4273-98ff-b52b9b1b50f7","name":"Nipa Kutubu","ru":"Nipa Kutubu","country":"e9e868f9-fa2b-4927-91d1-67f5d51a0b14","countryCode":"PG","state":"08bed67f-a6aa-4a11-8bf0-7a9012d6cedb","stateCode":"SHM","latitude":"-6.33333000","longitude":"143.33333000"},{"id":"ae0a07e1-9e4f-4f9f-b626-27a0dd3aafb1","name":"Kandrian","ru":"Kandrian","country":"e9e868f9-fa2b-4927-91d1-67f5d51a0b14","countryCode":"PG","state":"619325ec-a1ed-4d83-ba9a-31488ee28335","stateCode":"WBK","latitude":"-6.20655000","longitude":"149.54744000"},{"id":"e91e919e-7f61-4580-b005-922508988bf1","name":"Kandrian Gloucester","ru":"Kandrian Gloucester","country":"e9e868f9-fa2b-4927-91d1-67f5d51a0b14","countryCode":"PG","state":"619325ec-a1ed-4d83-ba9a-31488ee28335","stateCode":"WBK","latitude":"-6.08333000","longitude":"149.91667000"},{"id":"8f43871a-ed83-43ef-8aaf-6b3a1373abf7","name":"Kimbe","ru":"Kimbe","country":"e9e868f9-fa2b-4927-91d1-67f5d51a0b14","countryCode":"PG","state":"619325ec-a1ed-4d83-ba9a-31488ee28335","stateCode":"WBK","latitude":"-5.55085000","longitude":"150.13766000"},{"id":"8c240137-3d4b-427d-9261-405c50f57678","name":"Talasea","ru":"Talasea","country":"e9e868f9-fa2b-4927-91d1-67f5d51a0b14","countryCode":"PG","state":"619325ec-a1ed-4d83-ba9a-31488ee28335","stateCode":"WBK","latitude":"-5.66667000","longitude":"149.58333000"},{"id":"00776073-9fde-4cc7-9b8f-14dd89296186","name":"Baiyer Mul","ru":"Baiyer Mul","country":"e9e868f9-fa2b-4927-91d1-67f5d51a0b14","countryCode":"PG","state":"81202a13-45b4-4b9b-b62d-4b19c7be49c7","stateCode":"WHM","latitude":"-5.53333000","longitude":"144.15000000"},{"id":"1a2ac5bc-ba89-4f6b-abf8-374b13340838","name":"Dei","ru":"Dei","country":"e9e868f9-fa2b-4927-91d1-67f5d51a0b14","countryCode":"PG","state":"81202a13-45b4-4b9b-b62d-4b19c7be49c7","stateCode":"WHM","latitude":"-5.68333000","longitude":"144.36667000"},{"id":"31b00b40-4de1-4f07-b992-7ff437d98b44","name":"Hagen","ru":"Hagen","country":"e9e868f9-fa2b-4927-91d1-67f5d51a0b14","countryCode":"PG","state":"81202a13-45b4-4b9b-b62d-4b19c7be49c7","stateCode":"WHM","latitude":"-5.83333000","longitude":"144.28333000"},{"id":"a963797b-ca6a-44b4-a489-0fdea2ed7e9f","name":"Mount Hagen","ru":"Mount Hagen","country":"e9e868f9-fa2b-4927-91d1-67f5d51a0b14","countryCode":"PG","state":"81202a13-45b4-4b9b-b62d-4b19c7be49c7","stateCode":"WHM","latitude":"-5.85746000","longitude":"144.23058000"},{"id":"e4b55863-e28d-4ec3-b6bf-24dfc2c95827","name":"Tambul Nebilyer","ru":"Tambul Nebilyer","country":"e9e868f9-fa2b-4927-91d1-67f5d51a0b14","countryCode":"PG","state":"81202a13-45b4-4b9b-b62d-4b19c7be49c7","stateCode":"WHM","latitude":"-5.98333000","longitude":"144.15000000"},{"id":"1173f5f6-a66c-491e-a7bb-12142ebe0bb6","name":"Daru","ru":"Daru","country":"e9e868f9-fa2b-4927-91d1-67f5d51a0b14","countryCode":"PG","state":"19bf3b28-113e-43dc-9536-59167c108a2d","stateCode":"WPD","latitude":"-9.07786000","longitude":"143.20893000"},{"id":"c6713ca2-8349-4358-b954-bd0f214ec61b","name":"Kiunga","ru":"Kiunga","country":"e9e868f9-fa2b-4927-91d1-67f5d51a0b14","countryCode":"PG","state":"19bf3b28-113e-43dc-9536-59167c108a2d","stateCode":"WPD","latitude":"-6.12193000","longitude":"141.29061000"},{"id":"a26b6b46-a74a-4799-8acb-bcb3ad085d5e","name":"Middle Fly","ru":"Middle Fly","country":"e9e868f9-fa2b-4927-91d1-67f5d51a0b14","countryCode":"PG","state":"19bf3b28-113e-43dc-9536-59167c108a2d","stateCode":"WPD","latitude":"-7.16667000","longitude":"142.03333000"},{"id":"4e5c8348-2845-46d1-8f66-40669606bcee","name":"Morehead","ru":"Morehead","country":"e9e868f9-fa2b-4927-91d1-67f5d51a0b14","countryCode":"PG","state":"19bf3b28-113e-43dc-9536-59167c108a2d","stateCode":"WPD","latitude":"-8.71065000","longitude":"141.63668000"},{"id":"c84c7c42-ac5c-43dc-8bf3-cca883fefb5b","name":"North Fly","ru":"North Fly","country":"e9e868f9-fa2b-4927-91d1-67f5d51a0b14","countryCode":"PG","state":"19bf3b28-113e-43dc-9536-59167c108a2d","stateCode":"WPD","latitude":"-5.72896000","longitude":"141.37482000"},{"id":"632fc5bd-7b9f-4adf-a7fd-b9bc91d7bfff","name":"South Fly","ru":"South Fly","country":"e9e868f9-fa2b-4927-91d1-67f5d51a0b14","countryCode":"PG","state":"19bf3b28-113e-43dc-9536-59167c108a2d","stateCode":"WPD","latitude":"-8.61667000","longitude":"142.11667000"}]