[{"id":"1b91cb49-8508-4423-ab36-ece431af7499","name":"Ağrı","ru":"Ağrı","country":"49d34f2f-2f8f-4b8e-91b1-3611a271846d","countryCode":"TR","state":"61e00610-39dd-4fd3-8b95-24f29b9eb89e","stateCode":"04","latitude":"39.71944000","longitude":"43.05139000"},{"id":"f219fc0e-38de-459a-9fd1-5390b8adb3aa","name":"Diyadin","ru":"Diyadin","country":"49d34f2f-2f8f-4b8e-91b1-3611a271846d","countryCode":"TR","state":"61e00610-39dd-4fd3-8b95-24f29b9eb89e","stateCode":"04","latitude":"39.54056000","longitude":"43.67135000"},{"id":"5381ecc0-2e5c-4432-8f23-5b947f5ebefc","name":"Diyadin İlçesi","ru":"Diyadin İlçesi","country":"49d34f2f-2f8f-4b8e-91b1-3611a271846d","countryCode":"TR","state":"61e00610-39dd-4fd3-8b95-24f29b9eb89e","stateCode":"04","latitude":"39.54880000","longitude":"43.67490000"},{"id":"12e67814-99af-49ee-9223-5cfb20c7a231","name":"Doğubayazıt","ru":"Doğubayazıt","country":"49d34f2f-2f8f-4b8e-91b1-3611a271846d","countryCode":"TR","state":"61e00610-39dd-4fd3-8b95-24f29b9eb89e","stateCode":"04","latitude":"39.54694000","longitude":"44.08417000"},{"id":"7472b881-f9b6-443e-b588-129d0bbcbf17","name":"Doğubayazıt İlçesi","ru":"Doğubayazıt İlçesi","country":"49d34f2f-2f8f-4b8e-91b1-3611a271846d","countryCode":"TR","state":"61e00610-39dd-4fd3-8b95-24f29b9eb89e","stateCode":"04","latitude":"39.55601000","longitude":"44.08912000"},{"id":"c4c2511f-4c18-4da9-b372-e4070c5991c1","name":"Eleşkirt","ru":"Eleşkirt","country":"49d34f2f-2f8f-4b8e-91b1-3611a271846d","countryCode":"TR","state":"61e00610-39dd-4fd3-8b95-24f29b9eb89e","stateCode":"04","latitude":"39.79803000","longitude":"42.67574000"},{"id":"57529492-e62f-41af-981e-49483e211c9c","name":"Eleşkirt İlçesi","ru":"Eleşkirt İlçesi","country":"49d34f2f-2f8f-4b8e-91b1-3611a271846d","countryCode":"TR","state":"61e00610-39dd-4fd3-8b95-24f29b9eb89e","stateCode":"04","latitude":"39.81242000","longitude":"42.67955000"},{"id":"78797ed6-3144-41e7-aaca-fd9f066bd6f4","name":"Hamur","ru":"Hamur","country":"49d34f2f-2f8f-4b8e-91b1-3611a271846d","countryCode":"TR","state":"61e00610-39dd-4fd3-8b95-24f29b9eb89e","stateCode":"04","latitude":"39.60561000","longitude":"42.98500000"},{"id":"ed7582be-5edf-454f-864d-5c1e1715151f","name":"Hamur İlçesi","ru":"Hamur İlçesi","country":"49d34f2f-2f8f-4b8e-91b1-3611a271846d","countryCode":"TR","state":"61e00610-39dd-4fd3-8b95-24f29b9eb89e","stateCode":"04","latitude":"39.61917000","longitude":"42.99280000"},{"id":"00735b9a-112f-4544-bb94-89a2e743c7fb","name":"Patnos","ru":"Patnos","country":"49d34f2f-2f8f-4b8e-91b1-3611a271846d","countryCode":"TR","state":"61e00610-39dd-4fd3-8b95-24f29b9eb89e","stateCode":"04","latitude":"39.22493000","longitude":"42.85693000"},{"id":"84ae0ec3-6064-45f9-835f-f2e68767bacd","name":"Patnos İlçesi","ru":"Patnos İlçesi","country":"49d34f2f-2f8f-4b8e-91b1-3611a271846d","countryCode":"TR","state":"61e00610-39dd-4fd3-8b95-24f29b9eb89e","stateCode":"04","latitude":"39.24297000","longitude":"42.86736000"},{"id":"f6797f9a-faf2-417b-873f-3c5d955e2549","name":"Taşlıçay","ru":"Taşlıçay","country":"49d34f2f-2f8f-4b8e-91b1-3611a271846d","countryCode":"TR","state":"61e00610-39dd-4fd3-8b95-24f29b9eb89e","stateCode":"04","latitude":"39.62966000","longitude":"43.36878000"},{"id":"b29ffe70-0aad-44b5-9c9b-f5491de7c9df","name":"Taşlıçay İlçesi","ru":"Taşlıçay İlçesi","country":"49d34f2f-2f8f-4b8e-91b1-3611a271846d","countryCode":"TR","state":"61e00610-39dd-4fd3-8b95-24f29b9eb89e","stateCode":"04","latitude":"39.64294000","longitude":"43.37683000"},{"id":"67baf0c0-7acd-410b-812d-38f282d8f7a4","name":"Tutak İlçesi","ru":"Tutak İlçesi","country":"49d34f2f-2f8f-4b8e-91b1-3611a271846d","countryCode":"TR","state":"61e00610-39dd-4fd3-8b95-24f29b9eb89e","stateCode":"04","latitude":"39.55042000","longitude":"42.77572000"},{"id":"4fee358e-69b2-4f4e-8d33-83b69b3a04a8","name":"Adana","ru":"Adana","country":"49d34f2f-2f8f-4b8e-91b1-3611a271846d","countryCode":"TR","state":"9bc17dd4-e9aa-4658-8747-81e4aa204809","stateCode":"01","latitude":"37.00167000","longitude":"35.32889000"},{"id":"78034acb-2f49-4485-91c2-6509b0348c84","name":"Aladağ","ru":"Aladağ","country":"49d34f2f-2f8f-4b8e-91b1-3611a271846d","countryCode":"TR","state":"9bc17dd4-e9aa-4658-8747-81e4aa204809","stateCode":"01","latitude":"37.55854000","longitude":"35.40196000"},{"id":"95166637-fc13-483f-b472-9c51a49721a2","name":"İmamoğlu","ru":"İmamoğlu","country":"49d34f2f-2f8f-4b8e-91b1-3611a271846d","countryCode":"TR","state":"9bc17dd4-e9aa-4658-8747-81e4aa204809","stateCode":"01","latitude":"37.27500000","longitude":"35.66649000"},{"id":"62d60168-19c1-425b-8056-5e005c106ada","name":"Çukurova","ru":"Çukurova","country":"49d34f2f-2f8f-4b8e-91b1-3611a271846d","countryCode":"TR","state":"9bc17dd4-e9aa-4658-8747-81e4aa204809","stateCode":"01","latitude":"37.05627000","longitude":"35.13119000"},{"id":"990f7469-c000-4402-98c8-2f03f932bbfd","name":"Bahçe","ru":"Bahçe","country":"49d34f2f-2f8f-4b8e-91b1-3611a271846d","countryCode":"TR","state":"9bc17dd4-e9aa-4658-8747-81e4aa204809","stateCode":"01","latitude":"37.19724000","longitude":"36.57658000"},{"id":"fcffb482-fd0b-4437-a982-d5d5b8cf4ce9","name":"Ceyhan","ru":"Ceyhan","country":"49d34f2f-2f8f-4b8e-91b1-3611a271846d","countryCode":"TR","state":"9bc17dd4-e9aa-4658-8747-81e4aa204809","stateCode":"01","latitude":"37.02472000","longitude":"35.81750000"},{"id":"e7e3fb7d-fd42-4cfe-ac9e-947347fbea01","name":"Feke","ru":"Feke","country":"49d34f2f-2f8f-4b8e-91b1-3611a271846d","countryCode":"TR","state":"9bc17dd4-e9aa-4658-8747-81e4aa204809","stateCode":"01","latitude":"37.82405000","longitude":"35.91826000"},{"id":"09c26788-c870-4ac5-bc0f-12a9a151c0a5","name":"Karaisalı","ru":"Karaisalı","country":"49d34f2f-2f8f-4b8e-91b1-3611a271846d","countryCode":"TR","state":"9bc17dd4-e9aa-4658-8747-81e4aa204809","stateCode":"01","latitude":"37.26655000","longitude":"35.05033000"},{"id":"fc420ea4-a3bd-4e07-bc05-2e0fb8737231","name":"Karataş","ru":"Karataş","country":"49d34f2f-2f8f-4b8e-91b1-3611a271846d","countryCode":"TR","state":"9bc17dd4-e9aa-4658-8747-81e4aa204809","stateCode":"01","latitude":"36.57186000","longitude":"35.36784000"},{"id":"b01cec09-bc72-4887-8c03-a9acf2d56263","name":"Kozan","ru":"Kozan","country":"49d34f2f-2f8f-4b8e-91b1-3611a271846d","countryCode":"TR","state":"9bc17dd4-e9aa-4658-8747-81e4aa204809","stateCode":"01","latitude":"37.50000000","longitude":"35.75000000"},{"id":"0a20e41a-f7f4-4e94-83b1-907035ead144","name":"Pozantı","ru":"Pozantı","country":"49d34f2f-2f8f-4b8e-91b1-3611a271846d","countryCode":"TR","state":"9bc17dd4-e9aa-4658-8747-81e4aa204809","stateCode":"01","latitude":"37.43671000","longitude":"34.88057000"},{"id":"e8a46983-fe78-42de-86ea-da2af0129d84","name":"Saimbeyli","ru":"Saimbeyli","country":"49d34f2f-2f8f-4b8e-91b1-3611a271846d","countryCode":"TR","state":"9bc17dd4-e9aa-4658-8747-81e4aa204809","stateCode":"01","latitude":"37.99615000","longitude":"36.09909000"},{"id":"5a03c98f-6744-4acd-bc5f-29f086c88efb","name":"Sarıçam","ru":"Sarıçam","country":"49d34f2f-2f8f-4b8e-91b1-3611a271846d","countryCode":"TR","state":"9bc17dd4-e9aa-4658-8747-81e4aa204809","stateCode":"01","latitude":"37.14971000","longitude":"35.50949000"},{"id":"7a7a5d2b-7c3d-45ab-9aa0-3a89d2f2e6d5","name":"Seyhan","ru":"Seyhan","country":"49d34f2f-2f8f-4b8e-91b1-3611a271846d","countryCode":"TR","state":"9bc17dd4-e9aa-4658-8747-81e4aa204809","stateCode":"01","latitude":"36.95540000","longitude":"35.21637000"},{"id":"738c2d50-8185-45ad-9d11-0178f1d41554","name":"Tufanbeyli","ru":"Tufanbeyli","country":"49d34f2f-2f8f-4b8e-91b1-3611a271846d","countryCode":"TR","state":"9bc17dd4-e9aa-4658-8747-81e4aa204809","stateCode":"01","latitude":"38.27343000","longitude":"36.22731000"},{"id":"cdb00db2-ed46-4e6c-9b4a-bef660683ee9","name":"Yüreğir","ru":"Yüreğir","country":"49d34f2f-2f8f-4b8e-91b1-3611a271846d","countryCode":"TR","state":"9bc17dd4-e9aa-4658-8747-81e4aa204809","stateCode":"01","latitude":"36.99205000","longitude":"35.45402000"},{"id":"13df3b16-5dae-43c9-80bd-88c5fbb6fedf","name":"Yumurtalık","ru":"Yumurtalık","country":"49d34f2f-2f8f-4b8e-91b1-3611a271846d","countryCode":"TR","state":"9bc17dd4-e9aa-4658-8747-81e4aa204809","stateCode":"01","latitude":"36.78245000","longitude":"35.79949000"},{"id":"9aa76796-1923-45c8-8238-9880ccf8b517","name":"Adıyaman","ru":"Adıyaman","country":"49d34f2f-2f8f-4b8e-91b1-3611a271846d","countryCode":"TR","state":"ad294108-b777-45ce-aef6-24b11526e63d","stateCode":"02","latitude":"37.76441000","longitude":"38.27629000"},{"id":"a563f6ee-1a23-4aca-9bf4-0f6968660747","name":"Aralık İlçesi","ru":"Aralık İlçesi","country":"49d34f2f-2f8f-4b8e-91b1-3611a271846d","countryCode":"TR","state":"ad294108-b777-45ce-aef6-24b11526e63d","stateCode":"02","latitude":"39.88314000","longitude":"44.52330000"},{"id":"80bdff95-f304-4094-9931-ba51dc338b0d","name":"Çelikhan","ru":"Çelikhan","country":"49d34f2f-2f8f-4b8e-91b1-3611a271846d","countryCode":"TR","state":"ad294108-b777-45ce-aef6-24b11526e63d","stateCode":"02","latitude":"38.02560000","longitude":"38.23665000"},{"id":"ac579362-42f9-4b88-bd97-2a26de41bc59","name":"Çelikhan İlçesi","ru":"Çelikhan İlçesi","country":"49d34f2f-2f8f-4b8e-91b1-3611a271846d","countryCode":"TR","state":"ad294108-b777-45ce-aef6-24b11526e63d","stateCode":"02","latitude":"38.03275000","longitude":"38.23705000"},{"id":"aec0de28-516a-41c8-95d2-03221de219f1","name":"Besni","ru":"Besni","country":"49d34f2f-2f8f-4b8e-91b1-3611a271846d","countryCode":"TR","state":"ad294108-b777-45ce-aef6-24b11526e63d","stateCode":"02","latitude":"37.69278000","longitude":"37.86111000"},{"id":"efefa5f4-3480-40f5-b674-3d910e53ad10","name":"Besni İlçesi","ru":"Besni İlçesi","country":"49d34f2f-2f8f-4b8e-91b1-3611a271846d","countryCode":"TR","state":"ad294108-b777-45ce-aef6-24b11526e63d","stateCode":"02","latitude":"37.70142000","longitude":"37.87086000"},{"id":"09b96a9c-e647-413b-955d-dbba11cd2d48","name":"Gölbaşı","ru":"Gölbaşı","country":"49d34f2f-2f8f-4b8e-91b1-3611a271846d","countryCode":"TR","state":"ad294108-b777-45ce-aef6-24b11526e63d","stateCode":"02","latitude":"37.78361000","longitude":"37.63667000"},{"id":"a1023b9c-72cc-4833-8650-742e50274e9f","name":"Gölbaşı İlçesi","ru":"Gölbaşı İlçesi","country":"49d34f2f-2f8f-4b8e-91b1-3611a271846d","countryCode":"TR","state":"ad294108-b777-45ce-aef6-24b11526e63d","stateCode":"02","latitude":"37.79000000","longitude":"37.64989000"},{"id":"93e7f000-f26c-4ae4-8677-8f8a05b6b0a7","name":"Gerger","ru":"Gerger","country":"49d34f2f-2f8f-4b8e-91b1-3611a271846d","countryCode":"TR","state":"ad294108-b777-45ce-aef6-24b11526e63d","stateCode":"02","latitude":"37.95000000","longitude":"39.01667000"},{"id":"628a028c-0ebb-4d94-b73f-ed5ea2f3eabb","name":"Gerger İlçesi","ru":"Gerger İlçesi","country":"49d34f2f-2f8f-4b8e-91b1-3611a271846d","countryCode":"TR","state":"ad294108-b777-45ce-aef6-24b11526e63d","stateCode":"02","latitude":"38.02856000","longitude":"39.03281000"},{"id":"f7f3fdef-2157-4424-a2cc-b6393386d826","name":"Kâhta","ru":"Kâhta","country":"49d34f2f-2f8f-4b8e-91b1-3611a271846d","countryCode":"TR","state":"ad294108-b777-45ce-aef6-24b11526e63d","stateCode":"02","latitude":"37.78552000","longitude":"38.62370000"},{"id":"47c76cde-e3bf-4ef3-8c19-1088dd880330","name":"Kâhta İlçesi","ru":"Kâhta İlçesi","country":"49d34f2f-2f8f-4b8e-91b1-3611a271846d","countryCode":"TR","state":"ad294108-b777-45ce-aef6-24b11526e63d","stateCode":"02","latitude":"37.79477000","longitude":"38.63119000"},{"id":"e571868f-6dd0-4209-a09b-2a32ab9d2595","name":"Merkez","ru":"Merkez","country":"49d34f2f-2f8f-4b8e-91b1-3611a271846d","countryCode":"TR","state":"ad294108-b777-45ce-aef6-24b11526e63d","stateCode":"02","latitude":"37.74454000","longitude":"38.26801000"},{"id":"fda70da4-ed58-47ba-a5ab-ec5cd34081cc","name":"Samsat","ru":"Samsat","country":"49d34f2f-2f8f-4b8e-91b1-3611a271846d","countryCode":"TR","state":"ad294108-b777-45ce-aef6-24b11526e63d","stateCode":"02","latitude":"37.58194000","longitude":"38.47417000"},{"id":"c642de16-cbc5-4322-b6cf-a82bbafe2805","name":"Samsat İlçesi","ru":"Samsat İlçesi","country":"49d34f2f-2f8f-4b8e-91b1-3611a271846d","countryCode":"TR","state":"ad294108-b777-45ce-aef6-24b11526e63d","stateCode":"02","latitude":"37.58565000","longitude":"38.48946000"},{"id":"c9dd1ded-661e-4921-b20c-19acad136cc9","name":"Sincik","ru":"Sincik","country":"49d34f2f-2f8f-4b8e-91b1-3611a271846d","countryCode":"TR","state":"ad294108-b777-45ce-aef6-24b11526e63d","stateCode":"02","latitude":"38.03645000","longitude":"38.61257000"},{"id":"1395cff6-14a8-4dad-b30b-769ad13f5278","name":"Sincik İlçesi","ru":"Sincik İlçesi","country":"49d34f2f-2f8f-4b8e-91b1-3611a271846d","countryCode":"TR","state":"ad294108-b777-45ce-aef6-24b11526e63d","stateCode":"02","latitude":"38.03373000","longitude":"38.61319000"},{"id":"e3687069-c9ae-4b3f-8186-b0e6f4166cbc","name":"Tut","ru":"Tut","country":"49d34f2f-2f8f-4b8e-91b1-3611a271846d","countryCode":"TR","state":"ad294108-b777-45ce-aef6-24b11526e63d","stateCode":"02","latitude":"37.79529000","longitude":"37.91610000"},{"id":"be16ff62-e408-4e28-9d0b-c8cfc9dd2db5","name":"Tut İlçesi","ru":"Tut İlçesi","country":"49d34f2f-2f8f-4b8e-91b1-3611a271846d","countryCode":"TR","state":"ad294108-b777-45ce-aef6-24b11526e63d","stateCode":"02","latitude":"37.80528000","longitude":"37.92296000"},{"id":"27144c08-caa2-4db7-9e31-54dfa31d4aff","name":"Afyonkarahisar","ru":"Afyonkarahisar","country":"49d34f2f-2f8f-4b8e-91b1-3611a271846d","countryCode":"TR","state":"76d74153-2dd4-45f1-99b6-775213956349","stateCode":"03","latitude":"38.75667000","longitude":"30.54333000"},{"id":"d2f6fc7c-2cd5-4ffe-9979-60cfdda236fd","name":"Şuhut","ru":"Şuhut","country":"49d34f2f-2f8f-4b8e-91b1-3611a271846d","countryCode":"TR","state":"76d74153-2dd4-45f1-99b6-775213956349","stateCode":"03","latitude":"38.53111000","longitude":"30.54583000"},{"id":"b45ea104-3c29-48bc-ad6e-60cd1795cc96","name":"Şuhut İlçesi","ru":"Şuhut İlçesi","country":"49d34f2f-2f8f-4b8e-91b1-3611a271846d","countryCode":"TR","state":"76d74153-2dd4-45f1-99b6-775213956349","stateCode":"03","latitude":"38.54081000","longitude":"30.55474000"},{"id":"cd8862f8-974d-4a18-948d-bffeabb688fd","name":"İhsaniye","ru":"İhsaniye","country":"49d34f2f-2f8f-4b8e-91b1-3611a271846d","countryCode":"TR","state":"76d74153-2dd4-45f1-99b6-775213956349","stateCode":"03","latitude":"39.02916000","longitude":"30.41639000"},{"id":"910670b7-8a85-4ff2-9156-ad98307911c0","name":"İhsaniye İlçesi","ru":"İhsaniye İlçesi","country":"49d34f2f-2f8f-4b8e-91b1-3611a271846d","countryCode":"TR","state":"76d74153-2dd4-45f1-99b6-775213956349","stateCode":"03","latitude":"39.03876000","longitude":"30.42211000"},{"id":"cfc4abdc-0e08-4c40-ae5f-39735f9e9bf6","name":"İscehisar","ru":"İscehisar","country":"49d34f2f-2f8f-4b8e-91b1-3611a271846d","countryCode":"TR","state":"76d74153-2dd4-45f1-99b6-775213956349","stateCode":"03","latitude":"38.93900000","longitude":"30.75002000"},{"id":"8d38ddfc-b638-4f87-ba4c-1c2238a73d41","name":"Çay","ru":"Çay","country":"49d34f2f-2f8f-4b8e-91b1-3611a271846d","countryCode":"TR","state":"76d74153-2dd4-45f1-99b6-775213956349","stateCode":"03","latitude":"38.59167000","longitude":"31.02861000"},{"id":"f3d4a96f-699b-4572-8ec7-1346b970aa06","name":"Çay İlçesi","ru":"Çay İlçesi","country":"49d34f2f-2f8f-4b8e-91b1-3611a271846d","countryCode":"TR","state":"76d74153-2dd4-45f1-99b6-775213956349","stateCode":"03","latitude":"38.60078000","longitude":"31.03547000"},{"id":"8339df35-8aec-4669-b3aa-3e0f821647f3","name":"Çobanlar İlçesi","ru":"Çobanlar İlçesi","country":"49d34f2f-2f8f-4b8e-91b1-3611a271846d","countryCode":"TR","state":"76d74153-2dd4-45f1-99b6-775213956349","stateCode":"03","latitude":"38.71085000","longitude":"30.78874000"},{"id":"e9c579e9-ef55-4ba4-ad38-7028676d605a","name":"Başmakçı","ru":"Başmakçı","country":"49d34f2f-2f8f-4b8e-91b1-3611a271846d","countryCode":"TR","state":"76d74153-2dd4-45f1-99b6-775213956349","stateCode":"03","latitude":"37.89722000","longitude":"30.01167000"},{"id":"eb9fa7dd-4987-4f5e-a75f-819bb6478640","name":"Başmakçı İlçesi","ru":"Başmakçı İlçesi","country":"49d34f2f-2f8f-4b8e-91b1-3611a271846d","countryCode":"TR","state":"76d74153-2dd4-45f1-99b6-775213956349","stateCode":"03","latitude":"37.90713000","longitude":"30.01617000"},{"id":"9dfb3dc7-e78f-4006-bf5f-8621aaf7d770","name":"Bayat","ru":"Bayat","country":"49d34f2f-2f8f-4b8e-91b1-3611a271846d","countryCode":"TR","state":"76d74153-2dd4-45f1-99b6-775213956349","stateCode":"03","latitude":"38.98306000","longitude":"30.92472000"},{"id":"e4f399cc-8966-4270-a262-fb14c5f75a23","name":"Bayat İlçesi","ru":"Bayat İlçesi","country":"49d34f2f-2f8f-4b8e-91b1-3611a271846d","countryCode":"TR","state":"76d74153-2dd4-45f1-99b6-775213956349","stateCode":"03","latitude":"38.99183000","longitude":"30.93098000"},{"id":"2d331e5b-e5eb-4903-ae64-c377783d5dac","name":"Bolvadin","ru":"Bolvadin","country":"49d34f2f-2f8f-4b8e-91b1-3611a271846d","countryCode":"TR","state":"76d74153-2dd4-45f1-99b6-775213956349","stateCode":"03","latitude":"38.71111000","longitude":"31.04861000"},{"id":"2914c0a0-9671-4e1e-bceb-bfcd188fff01","name":"Bolvadin İlçesi","ru":"Bolvadin İlçesi","country":"49d34f2f-2f8f-4b8e-91b1-3611a271846d","countryCode":"TR","state":"76d74153-2dd4-45f1-99b6-775213956349","stateCode":"03","latitude":"38.72062000","longitude":"31.05433000"},{"id":"c2803fbf-0f7b-49a5-bdce-7847aa3f5b4e","name":"Dazkırı","ru":"Dazkırı","country":"49d34f2f-2f8f-4b8e-91b1-3611a271846d","countryCode":"TR","state":"76d74153-2dd4-45f1-99b6-775213956349","stateCode":"03","latitude":"37.91861000","longitude":"29.86056000"},{"id":"f9231cb4-51d3-4a2b-a2b8-7f1abcfa137b","name":"Dazkırı İlçesi","ru":"Dazkırı İlçesi","country":"49d34f2f-2f8f-4b8e-91b1-3611a271846d","countryCode":"TR","state":"76d74153-2dd4-45f1-99b6-775213956349","stateCode":"03","latitude":"37.92682000","longitude":"29.86699000"},{"id":"17bf3547-f92a-4543-9ef9-946f1c5dd7a5","name":"Dinar","ru":"Dinar","country":"49d34f2f-2f8f-4b8e-91b1-3611a271846d","countryCode":"TR","state":"76d74153-2dd4-45f1-99b6-775213956349","stateCode":"03","latitude":"38.06500000","longitude":"30.16557000"},{"id":"f982215c-1b44-4857-9704-d3ee43877fcb","name":"Dinar İlçesi","ru":"Dinar İlçesi","country":"49d34f2f-2f8f-4b8e-91b1-3611a271846d","countryCode":"TR","state":"76d74153-2dd4-45f1-99b6-775213956349","stateCode":"03","latitude":"38.07475000","longitude":"30.17113000"},{"id":"3ed118eb-9111-43d0-8a20-3b91c032a733","name":"Emirdağ","ru":"Emirdağ","country":"49d34f2f-2f8f-4b8e-91b1-3611a271846d","countryCode":"TR","state":"76d74153-2dd4-45f1-99b6-775213956349","stateCode":"03","latitude":"39.01972000","longitude":"31.15000000"},{"id":"a84b90c4-c844-4f44-8408-c82f149b3464","name":"Emirdağ İlçesi","ru":"Emirdağ İlçesi","country":"49d34f2f-2f8f-4b8e-91b1-3611a271846d","countryCode":"TR","state":"76d74153-2dd4-45f1-99b6-775213956349","stateCode":"03","latitude":"39.02810000","longitude":"31.15461000"},{"id":"7ef907ba-2d59-4209-9f61-5e75443116ef","name":"Evciler","ru":"Evciler","country":"49d34f2f-2f8f-4b8e-91b1-3611a271846d","countryCode":"TR","state":"76d74153-2dd4-45f1-99b6-775213956349","stateCode":"03","latitude":"38.04139000","longitude":"29.88667000"},{"id":"97706922-e62f-4be5-b67b-b7a70866696f","name":"Evciler İlçesi","ru":"Evciler İlçesi","country":"49d34f2f-2f8f-4b8e-91b1-3611a271846d","countryCode":"TR","state":"76d74153-2dd4-45f1-99b6-775213956349","stateCode":"03","latitude":"38.05207000","longitude":"29.89366000"},{"id":"4d1c77e6-5cfb-426d-9696-aff66e46508f","name":"Hocalar","ru":"Hocalar","country":"49d34f2f-2f8f-4b8e-91b1-3611a271846d","countryCode":"TR","state":"76d74153-2dd4-45f1-99b6-775213956349","stateCode":"03","latitude":"38.57824000","longitude":"29.96768000"},{"id":"0c5e51ef-6dc7-4492-a24c-80bd3591d371","name":"Hocalar İlçesi","ru":"Hocalar İlçesi","country":"49d34f2f-2f8f-4b8e-91b1-3611a271846d","countryCode":"TR","state":"76d74153-2dd4-45f1-99b6-775213956349","stateCode":"03","latitude":"38.58783000","longitude":"29.97162000"},{"id":"22e39f40-2ccc-4780-8ae0-50f84c2670ad","name":"Işıklar","ru":"Işıklar","country":"49d34f2f-2f8f-4b8e-91b1-3611a271846d","countryCode":"TR","state":"76d74153-2dd4-45f1-99b6-775213956349","stateCode":"03","latitude":"38.67101000","longitude":"30.74098000"},{"id":"19dc0a12-07c6-4932-9342-1058e2efb944","name":"Kızılören","ru":"Kızılören","country":"49d34f2f-2f8f-4b8e-91b1-3611a271846d","countryCode":"TR","state":"76d74153-2dd4-45f1-99b6-775213956349","stateCode":"03","latitude":"38.25806000","longitude":"30.15167000"},{"id":"a8d3d490-ee65-452b-9b61-c176c2522ad4","name":"Kızılören İlçesi","ru":"Kızılören İlçesi","country":"49d34f2f-2f8f-4b8e-91b1-3611a271846d","countryCode":"TR","state":"76d74153-2dd4-45f1-99b6-775213956349","stateCode":"03","latitude":"38.26794000","longitude":"30.15750000"},{"id":"86cb296b-d66a-4101-998d-63176b61c9b3","name":"Merkez","ru":"Merkez","country":"49d34f2f-2f8f-4b8e-91b1-3611a271846d","countryCode":"TR","state":"76d74153-2dd4-45f1-99b6-775213956349","stateCode":"03","latitude":"38.79698000","longitude":"30.51951000"},{"id":"f1a58ca4-2119-46ac-8035-c2906f43198d","name":"Sandıklı","ru":"Sandıklı","country":"49d34f2f-2f8f-4b8e-91b1-3611a271846d","countryCode":"TR","state":"76d74153-2dd4-45f1-99b6-775213956349","stateCode":"03","latitude":"38.46472000","longitude":"30.26946000"},{"id":"7105ef34-8fea-4d2c-b999-3264d639b872","name":"Sandıklı İlçesi","ru":"Sandıklı İlçesi","country":"49d34f2f-2f8f-4b8e-91b1-3611a271846d","countryCode":"TR","state":"76d74153-2dd4-45f1-99b6-775213956349","stateCode":"03","latitude":"38.47344000","longitude":"30.27781000"},{"id":"0993869d-4eb3-4056-8905-9b423e2e962f","name":"Sinanpaşa","ru":"Sinanpaşa","country":"49d34f2f-2f8f-4b8e-91b1-3611a271846d","countryCode":"TR","state":"76d74153-2dd4-45f1-99b6-775213956349","stateCode":"03","latitude":"38.74444000","longitude":"30.24278000"},{"id":"2ae2d05e-0949-4c08-8b89-1125d17f9941","name":"Sinanpaşa İlçesi","ru":"Sinanpaşa İlçesi","country":"49d34f2f-2f8f-4b8e-91b1-3611a271846d","countryCode":"TR","state":"76d74153-2dd4-45f1-99b6-775213956349","stateCode":"03","latitude":"38.75385000","longitude":"30.24662000"},{"id":"c03d212e-abfe-4a85-be72-cf8e8841b5a7","name":"Sultandağı","ru":"Sultandağı","country":"49d34f2f-2f8f-4b8e-91b1-3611a271846d","countryCode":"TR","state":"76d74153-2dd4-45f1-99b6-775213956349","stateCode":"03","latitude":"38.53111000","longitude":"31.22806000"},{"id":"9db41a57-025a-4096-bd52-b46d13a81f88","name":"Sultandağı İlçesi","ru":"Sultandağı İlçesi","country":"49d34f2f-2f8f-4b8e-91b1-3611a271846d","countryCode":"TR","state":"76d74153-2dd4-45f1-99b6-775213956349","stateCode":"03","latitude":"38.54060000","longitude":"31.23508000"},{"id":"3c668e8f-36eb-4a74-8ef0-4a7c0a6f5ae4","name":"Ağaçören","ru":"Ağaçören","country":"49d34f2f-2f8f-4b8e-91b1-3611a271846d","countryCode":"TR","state":"fb871468-e6c9-4f66-add3-7fbbd0cd2808","stateCode":"68","latitude":"38.87484000","longitude":"33.91674000"},{"id":"fec31ad6-2ea7-41d6-a8c6-91501a959280","name":"Ağaçören İlçesi","ru":"Ağaçören İlçesi","country":"49d34f2f-2f8f-4b8e-91b1-3611a271846d","countryCode":"TR","state":"fb871468-e6c9-4f66-add3-7fbbd0cd2808","stateCode":"68","latitude":"38.88454000","longitude":"33.92421000"},{"id":"65b8c589-1176-4d83-a4df-747d7c2164d6","name":"Aksaray","ru":"Aksaray","country":"49d34f2f-2f8f-4b8e-91b1-3611a271846d","countryCode":"TR","state":"fb871468-e6c9-4f66-add3-7fbbd0cd2808","stateCode":"68","latitude":"38.37255000","longitude":"34.02537000"},{"id":"00f9a8d7-0170-48f6-a159-3d7e0c579f44","name":"Eskil İlçesi","ru":"Eskil İlçesi","country":"49d34f2f-2f8f-4b8e-91b1-3611a271846d","countryCode":"TR","state":"fb871468-e6c9-4f66-add3-7fbbd0cd2808","stateCode":"68","latitude":"38.41158000","longitude":"33.41994000"},{"id":"130532e2-8ae6-4cfc-b23f-c68ea1d36769","name":"Gülağaç İlçesi","ru":"Gülağaç İlçesi","country":"49d34f2f-2f8f-4b8e-91b1-3611a271846d","countryCode":"TR","state":"fb871468-e6c9-4f66-add3-7fbbd0cd2808","stateCode":"68","latitude":"38.40641000","longitude":"34.35071000"},{"id":"a0144d70-d6ad-4dc7-949c-1bd9d15a700e","name":"Güzelyurt","ru":"Güzelyurt","country":"49d34f2f-2f8f-4b8e-91b1-3611a271846d","countryCode":"TR","state":"fb871468-e6c9-4f66-add3-7fbbd0cd2808","stateCode":"68","latitude":"38.27722000","longitude":"34.37194000"},{"id":"4b2642b3-2a76-422a-a334-5fc80d0fd4be","name":"Güzelyurt İlçesi","ru":"Güzelyurt İlçesi","country":"49d34f2f-2f8f-4b8e-91b1-3611a271846d","countryCode":"TR","state":"fb871468-e6c9-4f66-add3-7fbbd0cd2808","stateCode":"68","latitude":"38.28628000","longitude":"34.36190000"},{"id":"ba2fd7e6-3e23-4013-b809-8f34c6f0d683","name":"Merkez","ru":"Merkez","country":"49d34f2f-2f8f-4b8e-91b1-3611a271846d","countryCode":"TR","state":"fb871468-e6c9-4f66-add3-7fbbd0cd2808","stateCode":"68","latitude":"38.37060000","longitude":"34.02843000"},{"id":"dbe516ff-b77f-42fd-b8a9-3d6e6de6eed3","name":"Ortaköy","ru":"Ortaköy","country":"49d34f2f-2f8f-4b8e-91b1-3611a271846d","countryCode":"TR","state":"fb871468-e6c9-4f66-add3-7fbbd0cd2808","stateCode":"68","latitude":"38.73728000","longitude":"34.03866000"},{"id":"11f57d3a-b02e-4d34-aa41-c7be6af3ee4c","name":"Ortaköy İlçesi","ru":"Ortaköy İlçesi","country":"49d34f2f-2f8f-4b8e-91b1-3611a271846d","countryCode":"TR","state":"fb871468-e6c9-4f66-add3-7fbbd0cd2808","stateCode":"68","latitude":"38.74770000","longitude":"34.04351000"},{"id":"1ee4b825-96fb-4c9b-a244-6f245e9cd7ee","name":"Sarıyahşi","ru":"Sarıyahşi","country":"49d34f2f-2f8f-4b8e-91b1-3611a271846d","countryCode":"TR","state":"fb871468-e6c9-4f66-add3-7fbbd0cd2808","stateCode":"68","latitude":"38.98349000","longitude":"33.84136000"},{"id":"f6b1a692-fc03-45f8-a0f3-bcf94283c13e","name":"Sarıyahşi İlçesi","ru":"Sarıyahşi İlçesi","country":"49d34f2f-2f8f-4b8e-91b1-3611a271846d","countryCode":"TR","state":"fb871468-e6c9-4f66-add3-7fbbd0cd2808","stateCode":"68","latitude":"38.99292000","longitude":"33.84676000"},{"id":"1f5ffc85-1716-4195-ab2c-bde76f2b9a57","name":"Sultanhanı","ru":"Sultanhanı","country":"49d34f2f-2f8f-4b8e-91b1-3611a271846d","countryCode":"TR","state":"fb871468-e6c9-4f66-add3-7fbbd0cd2808","stateCode":"68","latitude":"38.24710000","longitude":"33.54961000"},{"id":"4ee3b7a8-f49b-4078-9cd6-81627fe5ab30","name":"Amasya","ru":"Amasya","country":"49d34f2f-2f8f-4b8e-91b1-3611a271846d","countryCode":"TR","state":"050aa232-2691-493f-ab07-314faf2931ae","stateCode":"05","latitude":"40.65333000","longitude":"35.83306000"},{"id":"1ce344e0-0f44-4494-9dc5-cb84e86954e1","name":"Dedeköy","ru":"Dedeköy","country":"49d34f2f-2f8f-4b8e-91b1-3611a271846d","countryCode":"TR","state":"050aa232-2691-493f-ab07-314faf2931ae","stateCode":"05","latitude":"40.74752000","longitude":"35.04249000"},{"id":"386e027c-0673-4d96-af0c-41ed088ede75","name":"Göynücek","ru":"Göynücek","country":"49d34f2f-2f8f-4b8e-91b1-3611a271846d","countryCode":"TR","state":"050aa232-2691-493f-ab07-314faf2931ae","stateCode":"05","latitude":"40.39917000","longitude":"35.52500000"},{"id":"8d41bf4c-a7b2-436b-8c30-2e6df4a0d4fe","name":"Göynücek İlçesi","ru":"Göynücek İlçesi","country":"49d34f2f-2f8f-4b8e-91b1-3611a271846d","countryCode":"TR","state":"050aa232-2691-493f-ab07-314faf2931ae","stateCode":"05","latitude":"40.41008000","longitude":"35.53104000"},{"id":"eb20485c-0c03-4eda-8826-adafe88adb58","name":"Gümüşhacıköy","ru":"Gümüşhacıköy","country":"49d34f2f-2f8f-4b8e-91b1-3611a271846d","countryCode":"TR","state":"050aa232-2691-493f-ab07-314faf2931ae","stateCode":"05","latitude":"40.87306000","longitude":"35.21472000"},{"id":"9e597f8c-1f8a-4dae-8078-11d5c01ca15a","name":"Gümüşhacıköy İlçesi","ru":"Gümüşhacıköy İlçesi","country":"49d34f2f-2f8f-4b8e-91b1-3611a271846d","countryCode":"TR","state":"050aa232-2691-493f-ab07-314faf2931ae","stateCode":"05","latitude":"40.88365000","longitude":"35.22111000"},{"id":"9312e646-8de0-4de2-9d1d-255556d669bf","name":"Hamamözü İlçesi","ru":"Hamamözü İlçesi","country":"49d34f2f-2f8f-4b8e-91b1-3611a271846d","countryCode":"TR","state":"050aa232-2691-493f-ab07-314faf2931ae","stateCode":"05","latitude":"40.79539000","longitude":"35.03367000"},{"id":"0c8be554-bc2e-42b7-b53d-c1888c830329","name":"Merkez","ru":"Merkez","country":"49d34f2f-2f8f-4b8e-91b1-3611a271846d","countryCode":"TR","state":"050aa232-2691-493f-ab07-314faf2931ae","stateCode":"05","latitude":"40.61939000","longitude":"35.87016000"},{"id":"0b7f5234-7611-4a4f-abc0-e19bfc1ff72b","name":"Merzifon İlçesi","ru":"Merzifon İlçesi","country":"49d34f2f-2f8f-4b8e-91b1-3611a271846d","countryCode":"TR","state":"050aa232-2691-493f-ab07-314faf2931ae","stateCode":"05","latitude":"40.88348000","longitude":"35.47116000"},{"id":"197e8cf8-ea3a-48b3-87e8-7fc04487f66b","name":"Suluova","ru":"Suluova","country":"49d34f2f-2f8f-4b8e-91b1-3611a271846d","countryCode":"TR","state":"050aa232-2691-493f-ab07-314faf2931ae","stateCode":"05","latitude":"40.83129000","longitude":"35.64788000"},{"id":"d1f76008-7229-4990-a8c3-c1fbd482d339","name":"Suluova İlçesi","ru":"Suluova İlçesi","country":"49d34f2f-2f8f-4b8e-91b1-3611a271846d","countryCode":"TR","state":"050aa232-2691-493f-ab07-314faf2931ae","stateCode":"05","latitude":"40.84202000","longitude":"35.65922000"},{"id":"7f940e93-1d7c-4271-9913-3e4345f51761","name":"Taşova","ru":"Taşova","country":"49d34f2f-2f8f-4b8e-91b1-3611a271846d","countryCode":"TR","state":"050aa232-2691-493f-ab07-314faf2931ae","stateCode":"05","latitude":"40.75972000","longitude":"36.32250000"},{"id":"45a4a3ac-5322-430f-94e8-ccd04e950521","name":"Taşova İlçesi","ru":"Taşova İlçesi","country":"49d34f2f-2f8f-4b8e-91b1-3611a271846d","countryCode":"TR","state":"050aa232-2691-493f-ab07-314faf2931ae","stateCode":"05","latitude":"40.76998000","longitude":"36.33092000"},{"id":"d7260aa3-3192-48ac-8134-aa61175d2904","name":"Akyurt","ru":"Akyurt","country":"49d34f2f-2f8f-4b8e-91b1-3611a271846d","countryCode":"TR","state":"ca253860-f589-44c0-907b-45de7c082d6f","stateCode":"06","latitude":"40.13512000","longitude":"33.08614000"},{"id":"d6ae1043-05f1-4433-a0a5-7b88c50afb43","name":"Akyurt İlçesi","ru":"Akyurt İlçesi","country":"49d34f2f-2f8f-4b8e-91b1-3611a271846d","countryCode":"TR","state":"ca253860-f589-44c0-907b-45de7c082d6f","stateCode":"06","latitude":"40.14140000","longitude":"33.09743000"},{"id":"b36f3676-9221-4c5a-bb7b-d3c88af7b1fb","name":"Altındağ","ru":"Altındağ","country":"49d34f2f-2f8f-4b8e-91b1-3611a271846d","countryCode":"TR","state":"ca253860-f589-44c0-907b-45de7c082d6f","stateCode":"06","latitude":"40.00110000","longitude":"32.97022000"},{"id":"3c02eeb5-1de9-46d7-a327-8e7ae42c2bbd","name":"Altpınar","ru":"Altpınar","country":"49d34f2f-2f8f-4b8e-91b1-3611a271846d","countryCode":"TR","state":"ca253860-f589-44c0-907b-45de7c082d6f","stateCode":"06","latitude":"39.20417000","longitude":"32.74778000"},{"id":"683278a4-21a8-4d50-878e-c25d0cc9fdfa","name":"Ankara","ru":"Ankara","country":"49d34f2f-2f8f-4b8e-91b1-3611a271846d","countryCode":"TR","state":"ca253860-f589-44c0-907b-45de7c082d6f","stateCode":"06","latitude":"39.91987000","longitude":"32.85427000"},{"id":"751fb71b-3bfc-4f1d-a22a-3024cf86a3aa","name":"Ayaş","ru":"Ayaş","country":"49d34f2f-2f8f-4b8e-91b1-3611a271846d","countryCode":"TR","state":"ca253860-f589-44c0-907b-45de7c082d6f","stateCode":"06","latitude":"40.01933000","longitude":"32.33221000"},{"id":"0b76062f-3887-49da-a3fc-bdf5d179621a","name":"Ayaş İlçesi","ru":"Ayaş İlçesi","country":"49d34f2f-2f8f-4b8e-91b1-3611a271846d","countryCode":"TR","state":"ca253860-f589-44c0-907b-45de7c082d6f","stateCode":"06","latitude":"40.02484000","longitude":"32.34089000"},{"id":"aa2fdbc2-ceaa-4116-88dd-d7d3e9d71a8e","name":"Şereflikoçhisar","ru":"Şereflikoçhisar","country":"49d34f2f-2f8f-4b8e-91b1-3611a271846d","countryCode":"TR","state":"ca253860-f589-44c0-907b-45de7c082d6f","stateCode":"06","latitude":"38.93925000","longitude":"33.53860000"},{"id":"90456506-9fd0-4c27-ac84-03cf2f5a41b8","name":"Şereflikoçhisar İlçesi","ru":"Şereflikoçhisar İlçesi","country":"49d34f2f-2f8f-4b8e-91b1-3611a271846d","countryCode":"TR","state":"ca253860-f589-44c0-907b-45de7c082d6f","stateCode":"06","latitude":"38.95450000","longitude":"33.54801000"},{"id":"dd7b1912-af74-4770-804f-75a2637577f7","name":"Çamlıdere","ru":"Çamlıdere","country":"49d34f2f-2f8f-4b8e-91b1-3611a271846d","countryCode":"TR","state":"ca253860-f589-44c0-907b-45de7c082d6f","stateCode":"06","latitude":"40.48958000","longitude":"32.47499000"},{"id":"22f559e3-2d74-4682-9e30-3581b0117fd4","name":"Çamlıdere İlçesi","ru":"Çamlıdere İlçesi","country":"49d34f2f-2f8f-4b8e-91b1-3611a271846d","countryCode":"TR","state":"ca253860-f589-44c0-907b-45de7c082d6f","stateCode":"06","latitude":"40.49994000","longitude":"32.47986000"},{"id":"92f5b09e-9eea-4875-a1cd-97709cab72e6","name":"Çankaya","ru":"Çankaya","country":"49d34f2f-2f8f-4b8e-91b1-3611a271846d","countryCode":"TR","state":"ca253860-f589-44c0-907b-45de7c082d6f","stateCode":"06","latitude":"39.91790000","longitude":"32.86268000"},{"id":"e64e2b88-0bbf-4da6-a36f-affde55e77c7","name":"Çubuk","ru":"Çubuk","country":"49d34f2f-2f8f-4b8e-91b1-3611a271846d","countryCode":"TR","state":"ca253860-f589-44c0-907b-45de7c082d6f","stateCode":"06","latitude":"40.23861000","longitude":"33.03222000"},{"id":"3a0d788a-a82c-4574-8a31-c712abf9035f","name":"Çubuk İlçesi","ru":"Çubuk İlçesi","country":"49d34f2f-2f8f-4b8e-91b1-3611a271846d","countryCode":"TR","state":"ca253860-f589-44c0-907b-45de7c082d6f","stateCode":"06","latitude":"40.23985000","longitude":"33.04706000"},{"id":"fde64de4-5116-4f83-ae28-c86a20ff5fbc","name":"Bala İlçesi","ru":"Bala İlçesi","country":"49d34f2f-2f8f-4b8e-91b1-3611a271846d","countryCode":"TR","state":"ca253860-f589-44c0-907b-45de7c082d6f","stateCode":"06","latitude":"39.56374000","longitude":"33.12962000"},{"id":"09050d7b-e113-468d-8df3-7f06272cde51","name":"Batikent","ru":"Batikent","country":"49d34f2f-2f8f-4b8e-91b1-3611a271846d","countryCode":"TR","state":"ca253860-f589-44c0-907b-45de7c082d6f","stateCode":"06","latitude":"39.96833000","longitude":"32.73083000"},{"id":"80233406-728f-4f55-9379-ac5ed779ca89","name":"Beypazarı","ru":"Beypazarı","country":"49d34f2f-2f8f-4b8e-91b1-3611a271846d","countryCode":"TR","state":"ca253860-f589-44c0-907b-45de7c082d6f","stateCode":"06","latitude":"40.16750000","longitude":"31.92111000"},{"id":"be2e9f8c-70f8-49d0-a2b5-53ee81bf9740","name":"Beypazari","ru":"Beypazari","country":"49d34f2f-2f8f-4b8e-91b1-3611a271846d","countryCode":"TR","state":"ca253860-f589-44c0-907b-45de7c082d6f","stateCode":"06","latitude":"40.14695000","longitude":"31.91911000"},{"id":"a22b159a-0d6e-45fa-9de1-6b09915e398a","name":"Elmadağ","ru":"Elmadağ","country":"49d34f2f-2f8f-4b8e-91b1-3611a271846d","countryCode":"TR","state":"ca253860-f589-44c0-907b-45de7c082d6f","stateCode":"06","latitude":"39.92083000","longitude":"33.23083000"},{"id":"03668873-eeb4-47cd-8b0e-92bcb87031ae","name":"Elmadağ İlçesi","ru":"Elmadağ İlçesi","country":"49d34f2f-2f8f-4b8e-91b1-3611a271846d","countryCode":"TR","state":"ca253860-f589-44c0-907b-45de7c082d6f","stateCode":"06","latitude":"39.93117000","longitude":"33.23812000"},{"id":"814fa977-b162-4a65-a2bc-03fcf545fd34","name":"Etimesgut İlçesi","ru":"Etimesgut İlçesi","country":"49d34f2f-2f8f-4b8e-91b1-3611a271846d","countryCode":"TR","state":"ca253860-f589-44c0-907b-45de7c082d6f","stateCode":"06","latitude":"39.96335000","longitude":"32.63744000"},{"id":"868b9320-7912-4e14-884f-01135ac2aed1","name":"Evren","ru":"Evren","country":"49d34f2f-2f8f-4b8e-91b1-3611a271846d","countryCode":"TR","state":"ca253860-f589-44c0-907b-45de7c082d6f","stateCode":"06","latitude":"39.02402000","longitude":"33.80626000"},{"id":"eaccc507-b864-4b8a-ac02-8268d9f0420c","name":"Evren İlçesi","ru":"Evren İlçesi","country":"49d34f2f-2f8f-4b8e-91b1-3611a271846d","countryCode":"TR","state":"ca253860-f589-44c0-907b-45de7c082d6f","stateCode":"06","latitude":"39.03001000","longitude":"33.79767000"},{"id":"6f8ab6ce-7464-4309-a779-31c9f1660172","name":"Gölbaşı","ru":"Gölbaşı","country":"49d34f2f-2f8f-4b8e-91b1-3611a271846d","countryCode":"TR","state":"ca253860-f589-44c0-907b-45de7c082d6f","stateCode":"06","latitude":"39.79043000","longitude":"32.80903000"},{"id":"6cfc7c18-c87b-48f5-8392-53e62543cea8","name":"Güdül","ru":"Güdül","country":"49d34f2f-2f8f-4b8e-91b1-3611a271846d","countryCode":"TR","state":"ca253860-f589-44c0-907b-45de7c082d6f","stateCode":"06","latitude":"40.21051000","longitude":"32.24552000"},{"id":"33e84f76-c349-49eb-9210-47978ce94953","name":"Güdül İlçesi","ru":"Güdül İlçesi","country":"49d34f2f-2f8f-4b8e-91b1-3611a271846d","countryCode":"TR","state":"ca253860-f589-44c0-907b-45de7c082d6f","stateCode":"06","latitude":"40.21954000","longitude":"32.24885000"},{"id":"2bc3b41e-ccb7-43ef-a779-7dd12e126c03","name":"Haymana","ru":"Haymana","country":"49d34f2f-2f8f-4b8e-91b1-3611a271846d","countryCode":"TR","state":"ca253860-f589-44c0-907b-45de7c082d6f","stateCode":"06","latitude":"39.43212000","longitude":"32.49732000"},{"id":"a06d2c7c-a6b4-4a88-bc3b-21858eb6f1bf","name":"Haymana İlçesi","ru":"Haymana İlçesi","country":"49d34f2f-2f8f-4b8e-91b1-3611a271846d","countryCode":"TR","state":"ca253860-f589-44c0-907b-45de7c082d6f","stateCode":"06","latitude":"39.44015000","longitude":"32.48852000"},{"id":"a468fd0c-ff0f-49fe-86ad-cbffaa51bb05","name":"Kahramankazan","ru":"Kahramankazan","country":"49d34f2f-2f8f-4b8e-91b1-3611a271846d","countryCode":"TR","state":"ca253860-f589-44c0-907b-45de7c082d6f","stateCode":"06","latitude":"40.16502000","longitude":"32.63904000"},{"id":"bb2e243b-113d-479c-b1a8-66f3f3d0ea01","name":"Kalecik","ru":"Kalecik","country":"49d34f2f-2f8f-4b8e-91b1-3611a271846d","countryCode":"TR","state":"ca253860-f589-44c0-907b-45de7c082d6f","stateCode":"06","latitude":"40.09722000","longitude":"33.40833000"},{"id":"2fcc44bf-2e7d-4863-91a8-58411903a3f0","name":"Kalecik İlçesi","ru":"Kalecik İlçesi","country":"49d34f2f-2f8f-4b8e-91b1-3611a271846d","countryCode":"TR","state":"ca253860-f589-44c0-907b-45de7c082d6f","stateCode":"06","latitude":"40.10634000","longitude":"33.41973000"},{"id":"4db2c9f3-c99d-4cd2-ba71-727c55c12766","name":"Kazan","ru":"Kazan","country":"49d34f2f-2f8f-4b8e-91b1-3611a271846d","countryCode":"TR","state":"ca253860-f589-44c0-907b-45de7c082d6f","stateCode":"06","latitude":"40.23167000","longitude":"32.68389000"},{"id":"09a0e510-f5b8-455a-a83f-4bb454bcb5d8","name":"Kızılcahamam","ru":"Kızılcahamam","country":"49d34f2f-2f8f-4b8e-91b1-3611a271846d","countryCode":"TR","state":"ca253860-f589-44c0-907b-45de7c082d6f","stateCode":"06","latitude":"40.46972000","longitude":"32.65056000"},{"id":"c4253086-017d-499d-80c8-0750ce8eb91d","name":"Kızılcahamam İlçesi","ru":"Kızılcahamam İlçesi","country":"49d34f2f-2f8f-4b8e-91b1-3611a271846d","countryCode":"TR","state":"ca253860-f589-44c0-907b-45de7c082d6f","stateCode":"06","latitude":"40.48011000","longitude":"32.65546000"},{"id":"c0647a2f-ac6b-4c06-9f7b-008b7f4ca7cb","name":"Keçiören","ru":"Keçiören","country":"49d34f2f-2f8f-4b8e-91b1-3611a271846d","countryCode":"TR","state":"ca253860-f589-44c0-907b-45de7c082d6f","stateCode":"06","latitude":"40.02106000","longitude":"32.83102000"},{"id":"365b8c60-4df0-4c1d-923a-65aad5698dc7","name":"Mamak İlçesi","ru":"Mamak İlçesi","country":"49d34f2f-2f8f-4b8e-91b1-3611a271846d","countryCode":"TR","state":"ca253860-f589-44c0-907b-45de7c082d6f","stateCode":"06","latitude":"39.94587000","longitude":"32.90811000"},{"id":"d31a98ca-466d-4fdc-90de-26d5595c1675","name":"Nallıhan","ru":"Nallıhan","country":"49d34f2f-2f8f-4b8e-91b1-3611a271846d","countryCode":"TR","state":"ca253860-f589-44c0-907b-45de7c082d6f","stateCode":"06","latitude":"40.18593000","longitude":"31.35179000"},{"id":"91af6f5f-5276-48b6-83d1-f58b71705a9a","name":"Nallıhan İlçesi","ru":"Nallıhan İlçesi","country":"49d34f2f-2f8f-4b8e-91b1-3611a271846d","countryCode":"TR","state":"ca253860-f589-44c0-907b-45de7c082d6f","stateCode":"06","latitude":"40.19436000","longitude":"31.36316000"},{"id":"018d338f-fa52-4e2f-8389-9f0f9d6556b0","name":"Polatlı","ru":"Polatlı","country":"49d34f2f-2f8f-4b8e-91b1-3611a271846d","countryCode":"TR","state":"ca253860-f589-44c0-907b-45de7c082d6f","stateCode":"06","latitude":"39.57715000","longitude":"32.14132000"},{"id":"e0a377c5-4764-4838-a04b-a8c6dbf4607a","name":"Pursaklar","ru":"Pursaklar","country":"49d34f2f-2f8f-4b8e-91b1-3611a271846d","countryCode":"TR","state":"ca253860-f589-44c0-907b-45de7c082d6f","stateCode":"06","latitude":"40.03961000","longitude":"32.90139000"},{"id":"5b2fcaa9-4e1d-42e3-94d1-39b8d732e681","name":"Sincan İlçesi","ru":"Sincan İlçesi","country":"49d34f2f-2f8f-4b8e-91b1-3611a271846d","countryCode":"TR","state":"ca253860-f589-44c0-907b-45de7c082d6f","stateCode":"06","latitude":"39.95943000","longitude":"32.49567000"},{"id":"f86eaf9a-bb10-4a10-bc08-9e2c058fecf2","name":"Yenimahalle","ru":"Yenimahalle","country":"49d34f2f-2f8f-4b8e-91b1-3611a271846d","countryCode":"TR","state":"ca253860-f589-44c0-907b-45de7c082d6f","stateCode":"06","latitude":"39.99043000","longitude":"32.69555000"},{"id":"d5de5624-043a-4596-9753-361db25d08fc","name":"Akseki","ru":"Akseki","country":"49d34f2f-2f8f-4b8e-91b1-3611a271846d","countryCode":"TR","state":"8be01a4d-fdce-4b03-8c99-f5f7d484236a","stateCode":"07","latitude":"37.04861000","longitude":"31.79000000"},{"id":"e18f6f31-75ea-43f3-a787-bd155e067d66","name":"Akseki İlçesi","ru":"Akseki İlçesi","country":"49d34f2f-2f8f-4b8e-91b1-3611a271846d","countryCode":"TR","state":"8be01a4d-fdce-4b03-8c99-f5f7d484236a","stateCode":"07","latitude":"37.05820000","longitude":"31.80153000"},{"id":"b903fc13-a0c8-4270-a9b9-f973d0126e7d","name":"Aksu","ru":"Aksu","country":"49d34f2f-2f8f-4b8e-91b1-3611a271846d","countryCode":"TR","state":"8be01a4d-fdce-4b03-8c99-f5f7d484236a","stateCode":"07","latitude":"36.95389000","longitude":"30.84778000"},{"id":"857fb182-8aa9-4265-84eb-4fb554c724c8","name":"Alanya","ru":"Alanya","country":"49d34f2f-2f8f-4b8e-91b1-3611a271846d","countryCode":"TR","state":"8be01a4d-fdce-4b03-8c99-f5f7d484236a","stateCode":"07","latitude":"36.54375000","longitude":"31.99982000"},{"id":"0852d415-9f80-4cce-9288-70746afe9fa8","name":"Antalya","ru":"Antalya","country":"49d34f2f-2f8f-4b8e-91b1-3611a271846d","countryCode":"TR","state":"8be01a4d-fdce-4b03-8c99-f5f7d484236a","stateCode":"07","latitude":"36.90812000","longitude":"30.69556000"},{"id":"dc774b3c-e79e-4a6c-b26a-77d8bcd3161e","name":"Avsallar","ru":"Avsallar","country":"49d34f2f-2f8f-4b8e-91b1-3611a271846d","countryCode":"TR","state":"8be01a4d-fdce-4b03-8c99-f5f7d484236a","stateCode":"07","latitude":"36.62448000","longitude":"31.76941000"},{"id":"5f920050-c893-46fd-87a1-186ba58478cf","name":"İbradı","ru":"İbradı","country":"49d34f2f-2f8f-4b8e-91b1-3611a271846d","countryCode":"TR","state":"8be01a4d-fdce-4b03-8c99-f5f7d484236a","stateCode":"07","latitude":"37.09694000","longitude":"31.59917000"},{"id":"c3f841a6-716d-4305-96f6-97b21076f150","name":"İbradı İlçesi","ru":"İbradı İlçesi","country":"49d34f2f-2f8f-4b8e-91b1-3611a271846d","countryCode":"TR","state":"8be01a4d-fdce-4b03-8c99-f5f7d484236a","stateCode":"07","latitude":"37.10757000","longitude":"31.60969000"},{"id":"5e63d59b-f437-413a-afea-5e9ad6a31d89","name":"Belek","ru":"Belek","country":"49d34f2f-2f8f-4b8e-91b1-3611a271846d","countryCode":"TR","state":"8be01a4d-fdce-4b03-8c99-f5f7d484236a","stateCode":"07","latitude":"36.86278000","longitude":"31.05556000"},{"id":"137b62c2-d508-47dc-9676-1d4c276e6de9","name":"Beykonak","ru":"Beykonak","country":"49d34f2f-2f8f-4b8e-91b1-3611a271846d","countryCode":"TR","state":"8be01a4d-fdce-4b03-8c99-f5f7d484236a","stateCode":"07","latitude":"36.32573000","longitude":"30.30302000"},{"id":"4857c873-b897-4d1a-97ab-3ba0527a565d","name":"Boğazkent","ru":"Boğazkent","country":"49d34f2f-2f8f-4b8e-91b1-3611a271846d","countryCode":"TR","state":"8be01a4d-fdce-4b03-8c99-f5f7d484236a","stateCode":"07","latitude":"36.85319000","longitude":"31.16388000"},{"id":"cd62b4f6-4ae7-4a01-8a4b-e34371599756","name":"Döşemealtı İlçesi","ru":"Döşemealtı İlçesi","country":"49d34f2f-2f8f-4b8e-91b1-3611a271846d","countryCode":"TR","state":"8be01a4d-fdce-4b03-8c99-f5f7d484236a","stateCode":"07","latitude":"37.02366000","longitude":"30.59040000"},{"id":"7fbdf2ef-eb48-438d-8e23-9a911752fc9d","name":"Demre","ru":"Demre","country":"49d34f2f-2f8f-4b8e-91b1-3611a271846d","countryCode":"TR","state":"8be01a4d-fdce-4b03-8c99-f5f7d484236a","stateCode":"07","latitude":"36.24444000","longitude":"29.98500000"},{"id":"3d36c9b4-773b-4177-8a88-f0114ccf9c2d","name":"Demre İlçesi","ru":"Demre İlçesi","country":"49d34f2f-2f8f-4b8e-91b1-3611a271846d","countryCode":"TR","state":"8be01a4d-fdce-4b03-8c99-f5f7d484236a","stateCode":"07","latitude":"36.25510000","longitude":"29.99788000"},{"id":"c0534045-db5a-4b94-9d7b-8008ab0e6439","name":"Eksere","ru":"Eksere","country":"49d34f2f-2f8f-4b8e-91b1-3611a271846d","countryCode":"TR","state":"8be01a4d-fdce-4b03-8c99-f5f7d484236a","stateCode":"07","latitude":"36.81339000","longitude":"31.99971000"},{"id":"3c6deea2-3a41-4c84-8eef-a9f1216562b2","name":"Elmalı","ru":"Elmalı","country":"49d34f2f-2f8f-4b8e-91b1-3611a271846d","countryCode":"TR","state":"8be01a4d-fdce-4b03-8c99-f5f7d484236a","stateCode":"07","latitude":"36.73583000","longitude":"29.91775000"},{"id":"004a4890-e7e5-4bd2-9c79-16baeb09bf6d","name":"Elmalı İlçesi","ru":"Elmalı İlçesi","country":"49d34f2f-2f8f-4b8e-91b1-3611a271846d","countryCode":"TR","state":"8be01a4d-fdce-4b03-8c99-f5f7d484236a","stateCode":"07","latitude":"36.74641000","longitude":"29.92324000"},{"id":"cd1e94e4-836d-4cd3-9a72-fab8240e3f03","name":"Evrenseki","ru":"Evrenseki","country":"49d34f2f-2f8f-4b8e-91b1-3611a271846d","countryCode":"TR","state":"8be01a4d-fdce-4b03-8c99-f5f7d484236a","stateCode":"07","latitude":"36.83868000","longitude":"31.35559000"},{"id":"3bf88e0b-d0fe-4a13-a58c-5b7699bc0bb1","name":"Finike","ru":"Finike","country":"49d34f2f-2f8f-4b8e-91b1-3611a271846d","countryCode":"TR","state":"8be01a4d-fdce-4b03-8c99-f5f7d484236a","stateCode":"07","latitude":"36.42355000","longitude":"30.06645000"},{"id":"abccb1a7-e588-4094-ab85-cbe5924528b0","name":"Gazipaşa","ru":"Gazipaşa","country":"49d34f2f-2f8f-4b8e-91b1-3611a271846d","countryCode":"TR","state":"8be01a4d-fdce-4b03-8c99-f5f7d484236a","stateCode":"07","latitude":"36.26942000","longitude":"32.31792000"},{"id":"74f9a767-1bc9-4fab-958e-f9fc2ae3d183","name":"Gazipaşa İlçesi","ru":"Gazipaşa İlçesi","country":"49d34f2f-2f8f-4b8e-91b1-3611a271846d","countryCode":"TR","state":"8be01a4d-fdce-4b03-8c99-f5f7d484236a","stateCode":"07","latitude":"36.28012000","longitude":"32.30570000"},{"id":"7c17895e-ac8e-4996-94a2-ea0ae27c78da","name":"Göynük","ru":"Göynük","country":"49d34f2f-2f8f-4b8e-91b1-3611a271846d","countryCode":"TR","state":"8be01a4d-fdce-4b03-8c99-f5f7d484236a","stateCode":"07","latitude":"36.66000000","longitude":"30.55000000"},{"id":"a59c4e97-346a-4ab0-8f64-c12ef38d5060","name":"Gündoğmuş İlçesi","ru":"Gündoğmuş İlçesi","country":"49d34f2f-2f8f-4b8e-91b1-3611a271846d","countryCode":"TR","state":"8be01a4d-fdce-4b03-8c99-f5f7d484236a","stateCode":"07","latitude":"36.82446000","longitude":"32.00679000"},{"id":"491ca314-16e8-4919-a2d9-ebeb32b958d7","name":"Kaş","ru":"Kaş","country":"49d34f2f-2f8f-4b8e-91b1-3611a271846d","countryCode":"TR","state":"8be01a4d-fdce-4b03-8c99-f5f7d484236a","stateCode":"07","latitude":"36.20176000","longitude":"29.63766000"},{"id":"0f587b39-3ac3-4e8c-b989-692b168aa6b6","name":"Kaş İlçesi","ru":"Kaş İlçesi","country":"49d34f2f-2f8f-4b8e-91b1-3611a271846d","countryCode":"TR","state":"8be01a4d-fdce-4b03-8c99-f5f7d484236a","stateCode":"07","latitude":"36.21207000","longitude":"29.65605000"},{"id":"80173164-357f-4198-a3bf-996a58125309","name":"Kalkan","ru":"Kalkan","country":"49d34f2f-2f8f-4b8e-91b1-3611a271846d","countryCode":"TR","state":"8be01a4d-fdce-4b03-8c99-f5f7d484236a","stateCode":"07","latitude":"36.26510000","longitude":"29.41369000"},{"id":"a91ddd31-3123-43fe-9919-5d857efa6f25","name":"Kızılağaç","ru":"Kızılağaç","country":"49d34f2f-2f8f-4b8e-91b1-3611a271846d","countryCode":"TR","state":"8be01a4d-fdce-4b03-8c99-f5f7d484236a","stateCode":"07","latitude":"36.73055000","longitude":"31.53517000"},{"id":"a2854df7-8990-4678-8562-bc9f1c5d6c0d","name":"Kemer","ru":"Kemer","country":"49d34f2f-2f8f-4b8e-91b1-3611a271846d","countryCode":"TR","state":"8be01a4d-fdce-4b03-8c99-f5f7d484236a","stateCode":"07","latitude":"36.59778000","longitude":"30.56056000"},{"id":"be4a6035-2523-4b93-ac8a-f13e64f9c8df","name":"Kemer İlçesi","ru":"Kemer İlçesi","country":"49d34f2f-2f8f-4b8e-91b1-3611a271846d","countryCode":"TR","state":"8be01a4d-fdce-4b03-8c99-f5f7d484236a","stateCode":"07","latitude":"36.60249000","longitude":"30.48039000"},{"id":"00d7a169-fa2f-4d09-8e61-62735ac5376a","name":"Kepez İlçesi","ru":"Kepez İlçesi","country":"49d34f2f-2f8f-4b8e-91b1-3611a271846d","countryCode":"TR","state":"8be01a4d-fdce-4b03-8c99-f5f7d484236a","stateCode":"07","latitude":"37.01187000","longitude":"30.75966000"},{"id":"40244567-3039-414d-aaf9-33829a178a3d","name":"Konyaaltı","ru":"Konyaaltı","country":"49d34f2f-2f8f-4b8e-91b1-3611a271846d","countryCode":"TR","state":"8be01a4d-fdce-4b03-8c99-f5f7d484236a","stateCode":"07","latitude":"36.86424000","longitude":"30.62714000"},{"id":"48f4924d-5d96-4803-b14c-bc235b720264","name":"Korkuteli","ru":"Korkuteli","country":"49d34f2f-2f8f-4b8e-91b1-3611a271846d","countryCode":"TR","state":"8be01a4d-fdce-4b03-8c99-f5f7d484236a","stateCode":"07","latitude":"37.06498000","longitude":"30.19565000"},{"id":"82d737c9-1f98-4e04-b2cb-cd54b51fb58b","name":"Korkuteli İlçesi","ru":"Korkuteli İlçesi","country":"49d34f2f-2f8f-4b8e-91b1-3611a271846d","countryCode":"TR","state":"8be01a4d-fdce-4b03-8c99-f5f7d484236a","stateCode":"07","latitude":"37.07581000","longitude":"30.20293000"},{"id":"ad58dcf4-0a85-4e08-8696-f920cff546e9","name":"Kumköy","ru":"Kumköy","country":"49d34f2f-2f8f-4b8e-91b1-3611a271846d","countryCode":"TR","state":"8be01a4d-fdce-4b03-8c99-f5f7d484236a","stateCode":"07","latitude":"36.88286000","longitude":"30.95178000"},{"id":"9e959453-8f50-435d-8f28-97ed4b8599b7","name":"Kumluca","ru":"Kumluca","country":"49d34f2f-2f8f-4b8e-91b1-3611a271846d","countryCode":"TR","state":"8be01a4d-fdce-4b03-8c99-f5f7d484236a","stateCode":"07","latitude":"36.58000000","longitude":"30.30000000"},{"id":"a066c2fd-162a-465e-88de-ffa4a454888b","name":"Mahmutlar","ru":"Mahmutlar","country":"49d34f2f-2f8f-4b8e-91b1-3611a271846d","countryCode":"TR","state":"8be01a4d-fdce-4b03-8c99-f5f7d484236a","stateCode":"07","latitude":"36.49463000","longitude":"32.09085000"},{"id":"c3e8bb48-e3b0-4594-9661-236059416c35","name":"Manavgat","ru":"Manavgat","country":"49d34f2f-2f8f-4b8e-91b1-3611a271846d","countryCode":"TR","state":"8be01a4d-fdce-4b03-8c99-f5f7d484236a","stateCode":"07","latitude":"36.78667000","longitude":"31.44306000"},{"id":"d2e26d55-1cae-4847-8049-a5b1b98c41b7","name":"Manavgat İlçesi","ru":"Manavgat İlçesi","country":"49d34f2f-2f8f-4b8e-91b1-3611a271846d","countryCode":"TR","state":"8be01a4d-fdce-4b03-8c99-f5f7d484236a","stateCode":"07","latitude":"36.79008000","longitude":"31.46286000"},{"id":"7659e5ee-e975-4f1d-8ecf-641d8abe4bf6","name":"Muratpaşa","ru":"Muratpaşa","country":"49d34f2f-2f8f-4b8e-91b1-3611a271846d","countryCode":"TR","state":"8be01a4d-fdce-4b03-8c99-f5f7d484236a","stateCode":"07","latitude":"36.89157000","longitude":"30.76498000"},{"id":"f9adc615-c2a1-42fe-8652-6c4496c86bb1","name":"Muratpaşa İlçesi","ru":"Muratpaşa İlçesi","country":"49d34f2f-2f8f-4b8e-91b1-3611a271846d","countryCode":"TR","state":"8be01a4d-fdce-4b03-8c99-f5f7d484236a","stateCode":"07","latitude":"36.87907000","longitude":"30.76859000"},{"id":"28aeeeda-180e-4556-a512-02b2f41c0469","name":"Okurcalar","ru":"Okurcalar","country":"49d34f2f-2f8f-4b8e-91b1-3611a271846d","countryCode":"TR","state":"8be01a4d-fdce-4b03-8c99-f5f7d484236a","stateCode":"07","latitude":"36.64876000","longitude":"31.70387000"},{"id":"820e1ece-2b11-4cab-ab8a-35723449fe23","name":"Payallar","ru":"Payallar","country":"49d34f2f-2f8f-4b8e-91b1-3611a271846d","countryCode":"TR","state":"8be01a4d-fdce-4b03-8c99-f5f7d484236a","stateCode":"07","latitude":"36.60160000","longitude":"31.85057000"},{"id":"19442f47-7407-4ab1-a3ca-886e46c12ef4","name":"Serik","ru":"Serik","country":"49d34f2f-2f8f-4b8e-91b1-3611a271846d","countryCode":"TR","state":"8be01a4d-fdce-4b03-8c99-f5f7d484236a","stateCode":"07","latitude":"37.07743000","longitude":"31.00677000"},{"id":"1ab15d91-4ab2-435b-88eb-d38518714209","name":"Side","ru":"Side","country":"49d34f2f-2f8f-4b8e-91b1-3611a271846d","countryCode":"TR","state":"8be01a4d-fdce-4b03-8c99-f5f7d484236a","stateCode":"07","latitude":"36.76667000","longitude":"31.38889000"},{"id":"ccbaa75f-db55-4055-94c0-f93f12cb4ea1","name":"Türkler","ru":"Türkler","country":"49d34f2f-2f8f-4b8e-91b1-3611a271846d","countryCode":"TR","state":"8be01a4d-fdce-4b03-8c99-f5f7d484236a","stateCode":"07","latitude":"36.60198000","longitude":"31.82067000"},{"id":"0ad1d20b-2ca5-4b3c-bbe0-606f3eb0be73","name":"Tekirova","ru":"Tekirova","country":"49d34f2f-2f8f-4b8e-91b1-3611a271846d","countryCode":"TR","state":"8be01a4d-fdce-4b03-8c99-f5f7d484236a","stateCode":"07","latitude":"36.50170000","longitude":"30.52723000"},{"id":"aec751b1-4738-41cd-99bf-e2f95f16d747","name":"Turunçova","ru":"Turunçova","country":"49d34f2f-2f8f-4b8e-91b1-3611a271846d","countryCode":"TR","state":"8be01a4d-fdce-4b03-8c99-f5f7d484236a","stateCode":"07","latitude":"36.36889000","longitude":"30.13750000"},{"id":"48ee5953-31e3-4621-bc0e-93e9896dc455","name":"Ardahan","ru":"Ardahan","country":"49d34f2f-2f8f-4b8e-91b1-3611a271846d","countryCode":"TR","state":"51e6ad33-72b6-4af9-9b99-1f6a68a00d62","stateCode":"75","latitude":"41.10871000","longitude":"42.70222000"},{"id":"f3b14689-2be4-4e17-af4f-5dc9be0ad832","name":"Çıldır İlçesi","ru":"Çıldır İlçesi","country":"49d34f2f-2f8f-4b8e-91b1-3611a271846d","countryCode":"TR","state":"51e6ad33-72b6-4af9-9b99-1f6a68a00d62","stateCode":"75","latitude":"41.13783000","longitude":"43.14169000"},{"id":"bff9eac1-2217-44ac-b078-177f3ee489fd","name":"Damal","ru":"Damal","country":"49d34f2f-2f8f-4b8e-91b1-3611a271846d","countryCode":"TR","state":"51e6ad33-72b6-4af9-9b99-1f6a68a00d62","stateCode":"75","latitude":"41.34145000","longitude":"42.83680000"},{"id":"4d59c91c-9c25-472b-9142-33f345ca0087","name":"Damal İlçesi","ru":"Damal İlçesi","country":"49d34f2f-2f8f-4b8e-91b1-3611a271846d","countryCode":"TR","state":"51e6ad33-72b6-4af9-9b99-1f6a68a00d62","stateCode":"75","latitude":"41.35010000","longitude":"42.84582000"},{"id":"09dee815-6336-4156-aab7-b89adb7005ae","name":"Göle","ru":"Göle","country":"49d34f2f-2f8f-4b8e-91b1-3611a271846d","countryCode":"TR","state":"51e6ad33-72b6-4af9-9b99-1f6a68a00d62","stateCode":"75","latitude":"40.78746000","longitude":"42.60603000"},{"id":"dda6725b-acc8-4bba-9a7a-0fc60b274865","name":"Göle İlçesi","ru":"Göle İlçesi","country":"49d34f2f-2f8f-4b8e-91b1-3611a271846d","countryCode":"TR","state":"51e6ad33-72b6-4af9-9b99-1f6a68a00d62","stateCode":"75","latitude":"40.79404000","longitude":"42.60993000"},{"id":"0789df7a-3457-40da-bbb4-26a7a223f982","name":"Hanak","ru":"Hanak","country":"49d34f2f-2f8f-4b8e-91b1-3611a271846d","countryCode":"TR","state":"51e6ad33-72b6-4af9-9b99-1f6a68a00d62","stateCode":"75","latitude":"41.23344000","longitude":"42.84037000"},{"id":"c8b7306f-6f6e-4307-b7b0-ff9424e8d803","name":"Hanak İlçesi","ru":"Hanak İlçesi","country":"49d34f2f-2f8f-4b8e-91b1-3611a271846d","countryCode":"TR","state":"51e6ad33-72b6-4af9-9b99-1f6a68a00d62","stateCode":"75","latitude":"41.24365000","longitude":"42.85189000"},{"id":"ba498199-fd27-4204-91af-a82762c9a783","name":"Posof","ru":"Posof","country":"49d34f2f-2f8f-4b8e-91b1-3611a271846d","countryCode":"TR","state":"51e6ad33-72b6-4af9-9b99-1f6a68a00d62","stateCode":"75","latitude":"41.51111000","longitude":"42.72917000"},{"id":"6e008042-9c6f-408c-a808-c6d8bbcedc92","name":"Posof İlçesi","ru":"Posof İlçesi","country":"49d34f2f-2f8f-4b8e-91b1-3611a271846d","countryCode":"TR","state":"51e6ad33-72b6-4af9-9b99-1f6a68a00d62","stateCode":"75","latitude":"41.52131000","longitude":"42.73126000"},{"id":"87a965a0-6349-426d-af9c-bb0352e75e9a","name":"Ardanuç","ru":"Ardanuç","country":"49d34f2f-2f8f-4b8e-91b1-3611a271846d","countryCode":"TR","state":"b36fabc4-cdec-4d4b-b0ba-1a6df496f09c","stateCode":"08","latitude":"41.12738000","longitude":"42.06292000"},{"id":"dab609d4-3b11-4285-925f-773c6d065509","name":"Ardanuç İlçesi","ru":"Ardanuç İlçesi","country":"49d34f2f-2f8f-4b8e-91b1-3611a271846d","countryCode":"TR","state":"b36fabc4-cdec-4d4b-b0ba-1a6df496f09c","stateCode":"08","latitude":"41.13782000","longitude":"42.06668000"},{"id":"7d8b6c9b-8c0c-4826-889d-ba066e51a86e","name":"Arhavi","ru":"Arhavi","country":"49d34f2f-2f8f-4b8e-91b1-3611a271846d","countryCode":"TR","state":"b36fabc4-cdec-4d4b-b0ba-1a6df496f09c","stateCode":"08","latitude":"41.35121000","longitude":"41.30456000"},{"id":"fdb6c437-8478-4431-aca9-0abd18a521e0","name":"Arhavi İlçesi","ru":"Arhavi İlçesi","country":"49d34f2f-2f8f-4b8e-91b1-3611a271846d","countryCode":"TR","state":"b36fabc4-cdec-4d4b-b0ba-1a6df496f09c","stateCode":"08","latitude":"41.34829000","longitude":"41.31950000"},{"id":"7d10d123-1754-4b10-9884-44fa28431a18","name":"Artvin","ru":"Artvin","country":"49d34f2f-2f8f-4b8e-91b1-3611a271846d","countryCode":"TR","state":"b36fabc4-cdec-4d4b-b0ba-1a6df496f09c","stateCode":"08","latitude":"41.18161000","longitude":"41.82172000"},{"id":"ac5ee045-4764-447d-a936-24486fc3dbe7","name":"Şavşat","ru":"Şavşat","country":"49d34f2f-2f8f-4b8e-91b1-3611a271846d","countryCode":"TR","state":"b36fabc4-cdec-4d4b-b0ba-1a6df496f09c","stateCode":"08","latitude":"41.24027000","longitude":"42.36109000"},{"id":"ecf88bd1-4792-4d37-86ca-c4a5db09715d","name":"Şavşat İlçesi","ru":"Şavşat İlçesi","country":"49d34f2f-2f8f-4b8e-91b1-3611a271846d","countryCode":"TR","state":"b36fabc4-cdec-4d4b-b0ba-1a6df496f09c","stateCode":"08","latitude":"41.24941000","longitude":"42.36936000"},{"id":"337e9fb4-edd4-4765-8249-0cef17ca9d06","name":"Borçka","ru":"Borçka","country":"49d34f2f-2f8f-4b8e-91b1-3611a271846d","countryCode":"TR","state":"b36fabc4-cdec-4d4b-b0ba-1a6df496f09c","stateCode":"08","latitude":"41.35792000","longitude":"41.66579000"},{"id":"b3b61a08-4d83-40ba-9bae-4bbb88a186e1","name":"Borçka İlçesi","ru":"Borçka İlçesi","country":"49d34f2f-2f8f-4b8e-91b1-3611a271846d","countryCode":"TR","state":"b36fabc4-cdec-4d4b-b0ba-1a6df496f09c","stateCode":"08","latitude":"41.35940000","longitude":"41.67631000"},{"id":"29436b3e-fbbe-4bb6-bd82-698705bfe795","name":"Hopa","ru":"Hopa","country":"49d34f2f-2f8f-4b8e-91b1-3611a271846d","countryCode":"TR","state":"b36fabc4-cdec-4d4b-b0ba-1a6df496f09c","stateCode":"08","latitude":"41.39046000","longitude":"41.41966000"},{"id":"fea3f5d2-db57-4c45-81a2-1e8ac415f92e","name":"Hopa İlçesi","ru":"Hopa İlçesi","country":"49d34f2f-2f8f-4b8e-91b1-3611a271846d","countryCode":"TR","state":"b36fabc4-cdec-4d4b-b0ba-1a6df496f09c","stateCode":"08","latitude":"41.40128000","longitude":"41.44798000"},{"id":"403bba15-4f7a-44cf-bb29-4bf5b7a564ba","name":"Kemalpaşa","ru":"Kemalpaşa","country":"49d34f2f-2f8f-4b8e-91b1-3611a271846d","countryCode":"TR","state":"b36fabc4-cdec-4d4b-b0ba-1a6df496f09c","stateCode":"08","latitude":"41.48336000","longitude":"41.52750000"},{"id":"4f5e2a61-65f5-41dc-b006-bfe5f39e1832","name":"Murgul","ru":"Murgul","country":"49d34f2f-2f8f-4b8e-91b1-3611a271846d","countryCode":"TR","state":"b36fabc4-cdec-4d4b-b0ba-1a6df496f09c","stateCode":"08","latitude":"41.27937000","longitude":"41.55514000"},{"id":"6a1bed17-05a5-4acf-9c9b-cea5ad8a3891","name":"Murgul İlçesi","ru":"Murgul İlçesi","country":"49d34f2f-2f8f-4b8e-91b1-3611a271846d","countryCode":"TR","state":"b36fabc4-cdec-4d4b-b0ba-1a6df496f09c","stateCode":"08","latitude":"41.27934000","longitude":"41.56288000"},{"id":"2a653e59-e847-4a21-bd2a-889d5aa04fd6","name":"Seyitler","ru":"Seyitler","country":"49d34f2f-2f8f-4b8e-91b1-3611a271846d","countryCode":"TR","state":"b36fabc4-cdec-4d4b-b0ba-1a6df496f09c","stateCode":"08","latitude":"41.19484000","longitude":"41.83696000"},{"id":"1196a0aa-4eaf-4f0b-9dab-c3165236f34b","name":"Yusufeli","ru":"Yusufeli","country":"49d34f2f-2f8f-4b8e-91b1-3611a271846d","countryCode":"TR","state":"b36fabc4-cdec-4d4b-b0ba-1a6df496f09c","stateCode":"08","latitude":"40.82042000","longitude":"41.53743000"},{"id":"d7301bb9-0314-473c-ba04-aaf0bffc2282","name":"Yusufeli İlçesi","ru":"Yusufeli İlçesi","country":"49d34f2f-2f8f-4b8e-91b1-3611a271846d","countryCode":"TR","state":"b36fabc4-cdec-4d4b-b0ba-1a6df496f09c","stateCode":"08","latitude":"40.82024000","longitude":"41.54234000"},{"id":"b8d60697-4e21-48d1-bae2-b2909dfd4a27","name":"Acarlar","ru":"Acarlar","country":"49d34f2f-2f8f-4b8e-91b1-3611a271846d","countryCode":"TR","state":"8e53efbc-f63f-4c77-abd7-b186c785364a","stateCode":"09","latitude":"37.82444000","longitude":"27.74667000"},{"id":"b00d8ce6-105c-452c-807f-94ba08340ccd","name":"Atça","ru":"Atça","country":"49d34f2f-2f8f-4b8e-91b1-3611a271846d","countryCode":"TR","state":"8e53efbc-f63f-4c77-abd7-b186c785364a","stateCode":"09","latitude":"37.88859000","longitude":"28.21528000"},{"id":"6d4a2da1-4606-4393-8bdd-030b3e867eb4","name":"Aydın","ru":"Aydın","country":"49d34f2f-2f8f-4b8e-91b1-3611a271846d","countryCode":"TR","state":"8e53efbc-f63f-4c77-abd7-b186c785364a","stateCode":"09","latitude":"37.84501000","longitude":"27.83963000"},{"id":"6f203d7a-cedc-47f5-b180-81118a68814c","name":"İncirliova","ru":"İncirliova","country":"49d34f2f-2f8f-4b8e-91b1-3611a271846d","countryCode":"TR","state":"8e53efbc-f63f-4c77-abd7-b186c785364a","stateCode":"09","latitude":"37.85222000","longitude":"27.72361000"},{"id":"0002384d-4057-4714-8ac2-d8a23c9349c8","name":"İncirliova İlçesi","ru":"İncirliova İlçesi","country":"49d34f2f-2f8f-4b8e-91b1-3611a271846d","countryCode":"TR","state":"8e53efbc-f63f-4c77-abd7-b186c785364a","stateCode":"09","latitude":"37.86237000","longitude":"27.72976000"},{"id":"9c592df6-b4e6-4083-a7ad-b2e42cc057ad","name":"İsabeyli","ru":"İsabeyli","country":"49d34f2f-2f8f-4b8e-91b1-3611a271846d","countryCode":"TR","state":"8e53efbc-f63f-4c77-abd7-b186c785364a","stateCode":"09","latitude":"37.90147000","longitude":"28.26475000"},{"id":"82d9dffb-72d4-4d48-a21d-d28007b3e8e9","name":"Çine","ru":"Çine","country":"49d34f2f-2f8f-4b8e-91b1-3611a271846d","countryCode":"TR","state":"8e53efbc-f63f-4c77-abd7-b186c785364a","stateCode":"09","latitude":"37.61266000","longitude":"28.05912000"},{"id":"a6b6bae9-2545-495e-b06a-96474930b559","name":"Çine İlçesi","ru":"Çine İlçesi","country":"49d34f2f-2f8f-4b8e-91b1-3611a271846d","countryCode":"TR","state":"8e53efbc-f63f-4c77-abd7-b186c785364a","stateCode":"09","latitude":"37.62269000","longitude":"28.06786000"},{"id":"3879dcf2-0e52-4789-8194-8bec04f9f587","name":"Bozdoğan","ru":"Bozdoğan","country":"49d34f2f-2f8f-4b8e-91b1-3611a271846d","countryCode":"TR","state":"8e53efbc-f63f-4c77-abd7-b186c785364a","stateCode":"09","latitude":"37.67134000","longitude":"28.31395000"},{"id":"11b55d21-806d-43a6-bb23-fa33c7eee5d9","name":"Bozdoğan İlçesi","ru":"Bozdoğan İlçesi","country":"49d34f2f-2f8f-4b8e-91b1-3611a271846d","countryCode":"TR","state":"8e53efbc-f63f-4c77-abd7-b186c785364a","stateCode":"09","latitude":"37.68064000","longitude":"28.33051000"},{"id":"be339905-ce4f-40ac-bc20-c0a99d14d8b8","name":"Buharkent","ru":"Buharkent","country":"49d34f2f-2f8f-4b8e-91b1-3611a271846d","countryCode":"TR","state":"8e53efbc-f63f-4c77-abd7-b186c785364a","stateCode":"09","latitude":"37.96397000","longitude":"28.74270000"},{"id":"3f2daa59-2cff-43de-90e4-1a3d6eca6967","name":"Buharkent İlçesi","ru":"Buharkent İlçesi","country":"49d34f2f-2f8f-4b8e-91b1-3611a271846d","countryCode":"TR","state":"8e53efbc-f63f-4c77-abd7-b186c785364a","stateCode":"09","latitude":"37.97398000","longitude":"28.75152000"},{"id":"0e376994-abb6-4e7b-9efc-5044e9f81678","name":"Dalama","ru":"Dalama","country":"49d34f2f-2f8f-4b8e-91b1-3611a271846d","countryCode":"TR","state":"8e53efbc-f63f-4c77-abd7-b186c785364a","stateCode":"09","latitude":"37.79028000","longitude":"28.06639000"},{"id":"6c5cb8d7-7652-4dba-9309-36bc2a2d040b","name":"Davutlar","ru":"Davutlar","country":"49d34f2f-2f8f-4b8e-91b1-3611a271846d","countryCode":"TR","state":"8e53efbc-f63f-4c77-abd7-b186c785364a","stateCode":"09","latitude":"37.73392000","longitude":"27.29283000"},{"id":"82cef17f-27d1-4f76-bd79-e5896a0cce1a","name":"Didim","ru":"Didim","country":"49d34f2f-2f8f-4b8e-91b1-3611a271846d","countryCode":"TR","state":"8e53efbc-f63f-4c77-abd7-b186c785364a","stateCode":"09","latitude":"37.39305000","longitude":"27.29357000"},{"id":"d19587b1-e3ce-4550-b63c-ed021c4067a3","name":"Efeler","ru":"Efeler","country":"49d34f2f-2f8f-4b8e-91b1-3611a271846d","countryCode":"TR","state":"8e53efbc-f63f-4c77-abd7-b186c785364a","stateCode":"09","latitude":"37.83835000","longitude":"27.84557000"},{"id":"f40bc472-525e-4f8f-8942-78111964e1f4","name":"Germencik","ru":"Germencik","country":"49d34f2f-2f8f-4b8e-91b1-3611a271846d","countryCode":"TR","state":"8e53efbc-f63f-4c77-abd7-b186c785364a","stateCode":"09","latitude":"37.87056000","longitude":"27.60283000"},{"id":"e773eeac-bfbc-45ed-833b-46570705f4e9","name":"Germencik İlçesi","ru":"Germencik İlçesi","country":"49d34f2f-2f8f-4b8e-91b1-3611a271846d","countryCode":"TR","state":"8e53efbc-f63f-4c77-abd7-b186c785364a","stateCode":"09","latitude":"37.88049000","longitude":"27.61054000"},{"id":"33e1a8cc-ffc3-4724-9302-84613e91f657","name":"Karacasu","ru":"Karacasu","country":"49d34f2f-2f8f-4b8e-91b1-3611a271846d","countryCode":"TR","state":"8e53efbc-f63f-4c77-abd7-b186c785364a","stateCode":"09","latitude":"37.74731000","longitude":"28.59402000"},{"id":"e8ab793e-eeaf-434a-a536-a5c98a5ec92f","name":"Karpuzlu","ru":"Karpuzlu","country":"49d34f2f-2f8f-4b8e-91b1-3611a271846d","countryCode":"TR","state":"8e53efbc-f63f-4c77-abd7-b186c785364a","stateCode":"09","latitude":"37.55861000","longitude":"27.83528000"},{"id":"b34b8c09-234b-4834-b45b-ae6fd4b63625","name":"Karpuzlu İlçesi","ru":"Karpuzlu İlçesi","country":"49d34f2f-2f8f-4b8e-91b1-3611a271846d","countryCode":"TR","state":"8e53efbc-f63f-4c77-abd7-b186c785364a","stateCode":"09","latitude":"37.56879000","longitude":"27.84071000"},{"id":"031ceebc-deac-4e86-81da-9604ea5e0f7b","name":"Köşk","ru":"Köşk","country":"49d34f2f-2f8f-4b8e-91b1-3611a271846d","countryCode":"TR","state":"8e53efbc-f63f-4c77-abd7-b186c785364a","stateCode":"09","latitude":"37.85333000","longitude":"28.05167000"},{"id":"367d9ee7-972c-4e09-8639-f74f1e7d8d1e","name":"Köşk İlçesi","ru":"Köşk İlçesi","country":"49d34f2f-2f8f-4b8e-91b1-3611a271846d","countryCode":"TR","state":"8e53efbc-f63f-4c77-abd7-b186c785364a","stateCode":"09","latitude":"37.86340000","longitude":"28.05649000"},{"id":"72242318-d515-4049-b281-c2b2a9e45d66","name":"Koçarlı","ru":"Koçarlı","country":"49d34f2f-2f8f-4b8e-91b1-3611a271846d","countryCode":"TR","state":"8e53efbc-f63f-4c77-abd7-b186c785364a","stateCode":"09","latitude":"37.76113000","longitude":"27.70583000"},{"id":"b216c83d-321e-407e-b93c-8b827c31d2d8","name":"Koçarlı İlçesi","ru":"Koçarlı İlçesi","country":"49d34f2f-2f8f-4b8e-91b1-3611a271846d","countryCode":"TR","state":"8e53efbc-f63f-4c77-abd7-b186c785364a","stateCode":"09","latitude":"37.77146000","longitude":"27.71144000"},{"id":"b4a57ae1-78a5-47fc-a766-797e80585282","name":"Kuşadası","ru":"Kuşadası","country":"49d34f2f-2f8f-4b8e-91b1-3611a271846d","countryCode":"TR","state":"8e53efbc-f63f-4c77-abd7-b186c785364a","stateCode":"09","latitude":"37.86014000","longitude":"27.25713000"},{"id":"800e0785-1436-4f28-a904-01054bc4f52d","name":"Kuşadası İlçesi","ru":"Kuşadası İlçesi","country":"49d34f2f-2f8f-4b8e-91b1-3611a271846d","countryCode":"TR","state":"8e53efbc-f63f-4c77-abd7-b186c785364a","stateCode":"09","latitude":"37.84987000","longitude":"27.26966000"},{"id":"cdba584a-918a-4335-aca7-52e823ea3bef","name":"Kuyucak","ru":"Kuyucak","country":"49d34f2f-2f8f-4b8e-91b1-3611a271846d","countryCode":"TR","state":"8e53efbc-f63f-4c77-abd7-b186c785364a","stateCode":"09","latitude":"37.91330000","longitude":"28.45917000"},{"id":"b41cf332-6eea-4624-a49a-f7315af562fc","name":"Kuyucak İlçesi","ru":"Kuyucak İlçesi","country":"49d34f2f-2f8f-4b8e-91b1-3611a271846d","countryCode":"TR","state":"8e53efbc-f63f-4c77-abd7-b186c785364a","stateCode":"09","latitude":"37.92335000","longitude":"28.46426000"},{"id":"ffdae52c-d2bb-42a0-99dd-5e55392845b7","name":"Nazilli","ru":"Nazilli","country":"49d34f2f-2f8f-4b8e-91b1-3611a271846d","countryCode":"TR","state":"8e53efbc-f63f-4c77-abd7-b186c785364a","stateCode":"09","latitude":"37.93570000","longitude":"28.30609000"},{"id":"025b1e30-0ffa-4ed1-9967-d42923acb8e2","name":"Sarıkemer","ru":"Sarıkemer","country":"49d34f2f-2f8f-4b8e-91b1-3611a271846d","countryCode":"TR","state":"8e53efbc-f63f-4c77-abd7-b186c785364a","stateCode":"09","latitude":"37.56609000","longitude":"27.36430000"},{"id":"deed08e2-ccf0-402b-a1fd-b9748b940b4c","name":"Söke","ru":"Söke","country":"49d34f2f-2f8f-4b8e-91b1-3611a271846d","countryCode":"TR","state":"8e53efbc-f63f-4c77-abd7-b186c785364a","stateCode":"09","latitude":"37.74820000","longitude":"27.40614000"},{"id":"9a33f647-3553-4a80-869d-f31df306c0ce","name":"Söke İlçesi","ru":"Söke İlçesi","country":"49d34f2f-2f8f-4b8e-91b1-3611a271846d","countryCode":"TR","state":"8e53efbc-f63f-4c77-abd7-b186c785364a","stateCode":"09","latitude":"37.75864000","longitude":"27.41319000"},{"id":"02df27c2-7f1c-46b7-be32-11477cca4a50","name":"Sultanhisar","ru":"Sultanhisar","country":"49d34f2f-2f8f-4b8e-91b1-3611a271846d","countryCode":"TR","state":"8e53efbc-f63f-4c77-abd7-b186c785364a","stateCode":"09","latitude":"37.88989000","longitude":"28.15436000"},{"id":"097e6019-8b0c-45ac-bffe-40171c52cac2","name":"Sultanhisar İlçesi","ru":"Sultanhisar İlçesi","country":"49d34f2f-2f8f-4b8e-91b1-3611a271846d","countryCode":"TR","state":"8e53efbc-f63f-4c77-abd7-b186c785364a","stateCode":"09","latitude":"37.89966000","longitude":"28.17414000"},{"id":"073d10fe-3e51-4238-ad97-dfed2c78c3a0","name":"Tepecik","ru":"Tepecik","country":"49d34f2f-2f8f-4b8e-91b1-3611a271846d","countryCode":"TR","state":"8e53efbc-f63f-4c77-abd7-b186c785364a","stateCode":"09","latitude":"37.82358000","longitude":"27.87496000"},{"id":"30c79f61-a2ad-49d8-9d69-cedfd89dcecb","name":"Yenipazar","ru":"Yenipazar","country":"49d34f2f-2f8f-4b8e-91b1-3611a271846d","countryCode":"TR","state":"8e53efbc-f63f-4c77-abd7-b186c785364a","stateCode":"09","latitude":"37.82332000","longitude":"28.19573000"},{"id":"c34978ad-250d-44c1-8079-9426ffdfc199","name":"Yenipazar İlçesi","ru":"Yenipazar İlçesi","country":"49d34f2f-2f8f-4b8e-91b1-3611a271846d","countryCode":"TR","state":"8e53efbc-f63f-4c77-abd7-b186c785364a","stateCode":"09","latitude":"37.83325000","longitude":"28.18442000"},{"id":"c3d9804b-8276-42a9-8cf1-740397672424","name":"Aşağı Beğdeş","ru":"Aşağı Beğdeş","country":"49d34f2f-2f8f-4b8e-91b1-3611a271846d","countryCode":"TR","state":"48c2e1d3-56c7-4e64-b67c-ad2fbff2bb63","stateCode":"63","latitude":"36.81472000","longitude":"38.91917000"},{"id":"073504da-cfb1-45c6-8b82-20512dfc4437","name":"Akçakale","ru":"Akçakale","country":"49d34f2f-2f8f-4b8e-91b1-3611a271846d","countryCode":"TR","state":"48c2e1d3-56c7-4e64-b67c-ad2fbff2bb63","stateCode":"63","latitude":"36.71111000","longitude":"38.94750000"},{"id":"f5fe45ae-3230-422e-a151-85f559c620d1","name":"Akçakale İlçesi","ru":"Akçakale İlçesi","country":"49d34f2f-2f8f-4b8e-91b1-3611a271846d","countryCode":"TR","state":"48c2e1d3-56c7-4e64-b67c-ad2fbff2bb63","stateCode":"63","latitude":"36.76139000","longitude":"38.96944000"},{"id":"acf3049d-a4ae-42e9-983c-335784c59c75","name":"Akdiken","ru":"Akdiken","country":"49d34f2f-2f8f-4b8e-91b1-3611a271846d","countryCode":"TR","state":"48c2e1d3-56c7-4e64-b67c-ad2fbff2bb63","stateCode":"63","latitude":"36.72500000","longitude":"39.30861000"},{"id":"d9fd5c2b-4494-4d94-9fbc-d7124a147bc8","name":"Şanlıurfa","ru":"Şanlıurfa","country":"49d34f2f-2f8f-4b8e-91b1-3611a271846d","countryCode":"TR","state":"48c2e1d3-56c7-4e64-b67c-ad2fbff2bb63","stateCode":"63","latitude":"37.16708000","longitude":"38.79392000"},{"id":"402d3a34-0cf4-41dd-90e5-3faa9a87855e","name":"Öncül","ru":"Öncül","country":"49d34f2f-2f8f-4b8e-91b1-3611a271846d","countryCode":"TR","state":"48c2e1d3-56c7-4e64-b67c-ad2fbff2bb63","stateCode":"63","latitude":"36.71222000","longitude":"39.02917000"},{"id":"8a562d16-ce80-451b-ac43-0a18cc9e1fe7","name":"Birecik","ru":"Birecik","country":"49d34f2f-2f8f-4b8e-91b1-3611a271846d","countryCode":"TR","state":"48c2e1d3-56c7-4e64-b67c-ad2fbff2bb63","stateCode":"63","latitude":"37.02577000","longitude":"37.97841000"},{"id":"10d97fd1-c9e4-412d-b935-9f955f985fd6","name":"Birecik İlçesi","ru":"Birecik İlçesi","country":"49d34f2f-2f8f-4b8e-91b1-3611a271846d","countryCode":"TR","state":"48c2e1d3-56c7-4e64-b67c-ad2fbff2bb63","stateCode":"63","latitude":"37.03387000","longitude":"37.99658000"},{"id":"e6d10fd1-f1bf-49d5-84d2-f3399a6508b4","name":"Bozova","ru":"Bozova","country":"49d34f2f-2f8f-4b8e-91b1-3611a271846d","countryCode":"TR","state":"48c2e1d3-56c7-4e64-b67c-ad2fbff2bb63","stateCode":"63","latitude":"37.36250000","longitude":"38.52667000"},{"id":"11479946-2cd5-455b-891a-f25fc0e79c28","name":"Bozova İlçesi","ru":"Bozova İlçesi","country":"49d34f2f-2f8f-4b8e-91b1-3611a271846d","countryCode":"TR","state":"48c2e1d3-56c7-4e64-b67c-ad2fbff2bb63","stateCode":"63","latitude":"37.37074000","longitude":"38.53343000"},{"id":"3ac31078-8330-4cca-a19c-fcddf21b3ef9","name":"Bulutlu","ru":"Bulutlu","country":"49d34f2f-2f8f-4b8e-91b1-3611a271846d","countryCode":"TR","state":"48c2e1d3-56c7-4e64-b67c-ad2fbff2bb63","stateCode":"63","latitude":"36.73583000","longitude":"39.39389000"},{"id":"90618129-e974-454f-aead-a5e8cf95f415","name":"Ceylanpınar","ru":"Ceylanpınar","country":"49d34f2f-2f8f-4b8e-91b1-3611a271846d","countryCode":"TR","state":"48c2e1d3-56c7-4e64-b67c-ad2fbff2bb63","stateCode":"63","latitude":"36.84722000","longitude":"40.05000000"},{"id":"82454f3f-88cd-4a7e-a7e2-1f28c68d05f5","name":"Ceylanpınar İlçesi","ru":"Ceylanpınar İlçesi","country":"49d34f2f-2f8f-4b8e-91b1-3611a271846d","countryCode":"TR","state":"48c2e1d3-56c7-4e64-b67c-ad2fbff2bb63","stateCode":"63","latitude":"36.91944000","longitude":"39.90500000"},{"id":"ac059166-845c-49d5-b2df-6fda0855e62f","name":"Dorumali","ru":"Dorumali","country":"49d34f2f-2f8f-4b8e-91b1-3611a271846d","countryCode":"TR","state":"48c2e1d3-56c7-4e64-b67c-ad2fbff2bb63","stateCode":"63","latitude":"36.80500000","longitude":"38.85306000"},{"id":"d1dcdc65-5c2a-444f-bb90-5e296d291c9a","name":"Eyyübiye","ru":"Eyyübiye","country":"49d34f2f-2f8f-4b8e-91b1-3611a271846d","countryCode":"TR","state":"48c2e1d3-56c7-4e64-b67c-ad2fbff2bb63","stateCode":"63","latitude":"37.21434000","longitude":"38.79358000"},{"id":"72292279-1560-48ca-8c14-dafb90d75216","name":"Güneren","ru":"Güneren","country":"49d34f2f-2f8f-4b8e-91b1-3611a271846d","countryCode":"TR","state":"48c2e1d3-56c7-4e64-b67c-ad2fbff2bb63","stateCode":"63","latitude":"36.73417000","longitude":"39.08861000"},{"id":"80c2b2e3-a029-4ae4-b6bf-8d2e104dc0c0","name":"Halfeti","ru":"Halfeti","country":"49d34f2f-2f8f-4b8e-91b1-3611a271846d","countryCode":"TR","state":"48c2e1d3-56c7-4e64-b67c-ad2fbff2bb63","stateCode":"63","latitude":"37.24529000","longitude":"37.86874000"},{"id":"24890365-cdcc-40b9-8e85-3fa40e4e7350","name":"Halfeti İlçesi","ru":"Halfeti İlçesi","country":"49d34f2f-2f8f-4b8e-91b1-3611a271846d","countryCode":"TR","state":"48c2e1d3-56c7-4e64-b67c-ad2fbff2bb63","stateCode":"63","latitude":"37.25397000","longitude":"37.87940000"},{"id":"74e7d01b-00d0-411e-8967-4d6726c4be82","name":"Haliliye","ru":"Haliliye","country":"49d34f2f-2f8f-4b8e-91b1-3611a271846d","countryCode":"TR","state":"48c2e1d3-56c7-4e64-b67c-ad2fbff2bb63","stateCode":"63","latitude":"37.14144000","longitude":"38.79599000"},{"id":"6eece9ad-918b-41df-a314-116b8a0204bb","name":"Hanköy","ru":"Hanköy","country":"49d34f2f-2f8f-4b8e-91b1-3611a271846d","countryCode":"TR","state":"48c2e1d3-56c7-4e64-b67c-ad2fbff2bb63","stateCode":"63","latitude":"36.95081000","longitude":"40.19855000"},{"id":"b78559b4-92a3-40da-8bb3-762877c8a4d1","name":"Harran","ru":"Harran","country":"49d34f2f-2f8f-4b8e-91b1-3611a271846d","countryCode":"TR","state":"48c2e1d3-56c7-4e64-b67c-ad2fbff2bb63","stateCode":"63","latitude":"36.86000000","longitude":"39.03139000"},{"id":"325b5ab2-ae4b-4868-ac27-58a19ca5f040","name":"Harran İlçesi","ru":"Harran İlçesi","country":"49d34f2f-2f8f-4b8e-91b1-3611a271846d","countryCode":"TR","state":"48c2e1d3-56c7-4e64-b67c-ad2fbff2bb63","stateCode":"63","latitude":"36.84306000","longitude":"39.21833000"},{"id":"8e01aeb1-8cf5-4757-98da-b5a3a6059b4f","name":"Hilvan","ru":"Hilvan","country":"49d34f2f-2f8f-4b8e-91b1-3611a271846d","countryCode":"TR","state":"48c2e1d3-56c7-4e64-b67c-ad2fbff2bb63","stateCode":"63","latitude":"37.58687000","longitude":"38.95505000"},{"id":"c168ddad-3141-49cd-a413-05a988eb3892","name":"Hilvan İlçesi","ru":"Hilvan İlçesi","country":"49d34f2f-2f8f-4b8e-91b1-3611a271846d","countryCode":"TR","state":"48c2e1d3-56c7-4e64-b67c-ad2fbff2bb63","stateCode":"63","latitude":"37.59383000","longitude":"38.96000000"},{"id":"fbe6dd57-63ba-4087-9314-d23f6161897b","name":"Işıklar","ru":"Işıklar","country":"49d34f2f-2f8f-4b8e-91b1-3611a271846d","countryCode":"TR","state":"48c2e1d3-56c7-4e64-b67c-ad2fbff2bb63","stateCode":"63","latitude":"36.99417000","longitude":"40.12639000"},{"id":"47fb25d7-06d0-42bd-8c98-1fc1ac70f0b4","name":"Karaköprü","ru":"Karaköprü","country":"49d34f2f-2f8f-4b8e-91b1-3611a271846d","countryCode":"TR","state":"48c2e1d3-56c7-4e64-b67c-ad2fbff2bb63","stateCode":"63","latitude":"37.18029000","longitude":"38.81109000"},{"id":"a284ff99-de9e-4eb5-bfa1-64d066ecce0b","name":"Küçükkendirci","ru":"Küçükkendirci","country":"49d34f2f-2f8f-4b8e-91b1-3611a271846d","countryCode":"TR","state":"48c2e1d3-56c7-4e64-b67c-ad2fbff2bb63","stateCode":"63","latitude":"36.90583000","longitude":"38.34611000"},{"id":"bab5aca4-f4d9-4cd3-867e-bcf7ee607aff","name":"Koyunluca","ru":"Koyunluca","country":"49d34f2f-2f8f-4b8e-91b1-3611a271846d","countryCode":"TR","state":"48c2e1d3-56c7-4e64-b67c-ad2fbff2bb63","stateCode":"63","latitude":"36.82278000","longitude":"39.34333000"},{"id":"375e516d-8dd8-4126-8e92-9dcec377793c","name":"Mağaralı","ru":"Mağaralı","country":"49d34f2f-2f8f-4b8e-91b1-3611a271846d","countryCode":"TR","state":"48c2e1d3-56c7-4e64-b67c-ad2fbff2bb63","stateCode":"63","latitude":"36.96889000","longitude":"38.07444000"},{"id":"12285d3b-2687-4981-9a12-f78fe7833340","name":"Meydankapı","ru":"Meydankapı","country":"49d34f2f-2f8f-4b8e-91b1-3611a271846d","countryCode":"TR","state":"48c2e1d3-56c7-4e64-b67c-ad2fbff2bb63","stateCode":"63","latitude":"36.78278000","longitude":"39.15833000"},{"id":"b4996f50-d0ca-40b3-b355-338c64492a1f","name":"Minare","ru":"Minare","country":"49d34f2f-2f8f-4b8e-91b1-3611a271846d","countryCode":"TR","state":"48c2e1d3-56c7-4e64-b67c-ad2fbff2bb63","stateCode":"63","latitude":"36.93083000","longitude":"39.00444000"},{"id":"98f5f97a-0f7a-4e2a-8038-ea5ded66238c","name":"Muratlı","ru":"Muratlı","country":"49d34f2f-2f8f-4b8e-91b1-3611a271846d","countryCode":"TR","state":"48c2e1d3-56c7-4e64-b67c-ad2fbff2bb63","stateCode":"63","latitude":"36.96167000","longitude":"40.10056000"},{"id":"feb40df4-29ac-4890-8fbb-26f53795bc9d","name":"Pekmezli","ru":"Pekmezli","country":"49d34f2f-2f8f-4b8e-91b1-3611a271846d","countryCode":"TR","state":"48c2e1d3-56c7-4e64-b67c-ad2fbff2bb63","stateCode":"63","latitude":"36.75361000","longitude":"39.45000000"},{"id":"bb4627f8-99ca-41c8-9319-eb2197a35c2d","name":"Seksenören","ru":"Seksenören","country":"49d34f2f-2f8f-4b8e-91b1-3611a271846d","countryCode":"TR","state":"48c2e1d3-56c7-4e64-b67c-ad2fbff2bb63","stateCode":"63","latitude":"36.97252000","longitude":"39.07484000"},{"id":"08b28e3a-d77d-4b29-8351-0f6fc3dac3d9","name":"Siverek","ru":"Siverek","country":"49d34f2f-2f8f-4b8e-91b1-3611a271846d","countryCode":"TR","state":"48c2e1d3-56c7-4e64-b67c-ad2fbff2bb63","stateCode":"63","latitude":"37.75503000","longitude":"39.31667000"},{"id":"0e07a898-7cd9-4528-8e71-2f2a5c72b7f9","name":"Siverek İlçesi","ru":"Siverek İlçesi","country":"49d34f2f-2f8f-4b8e-91b1-3611a271846d","countryCode":"TR","state":"48c2e1d3-56c7-4e64-b67c-ad2fbff2bb63","stateCode":"63","latitude":"37.76186000","longitude":"39.32024000"},{"id":"f3b05328-ab85-4065-abe2-05d123311aa2","name":"Suruç","ru":"Suruç","country":"49d34f2f-2f8f-4b8e-91b1-3611a271846d","countryCode":"TR","state":"48c2e1d3-56c7-4e64-b67c-ad2fbff2bb63","stateCode":"63","latitude":"36.97612000","longitude":"38.42533000"},{"id":"7a275056-72fa-4e07-92d5-916a77efd9ce","name":"Suruç İlçesi","ru":"Suruç İlçesi","country":"49d34f2f-2f8f-4b8e-91b1-3611a271846d","countryCode":"TR","state":"48c2e1d3-56c7-4e64-b67c-ad2fbff2bb63","stateCode":"63","latitude":"36.97681000","longitude":"38.42620000"},{"id":"ea2e3284-c026-4648-93bf-87a7e6ad53a8","name":"Viranşehir","ru":"Viranşehir","country":"49d34f2f-2f8f-4b8e-91b1-3611a271846d","countryCode":"TR","state":"48c2e1d3-56c7-4e64-b67c-ad2fbff2bb63","stateCode":"63","latitude":"37.22349000","longitude":"39.75519000"},{"id":"8e304482-738a-4194-8cd7-48475fb6615f","name":"Viranşehir İlçesi","ru":"Viranşehir İlçesi","country":"49d34f2f-2f8f-4b8e-91b1-3611a271846d","countryCode":"TR","state":"48c2e1d3-56c7-4e64-b67c-ad2fbff2bb63","stateCode":"63","latitude":"37.23103000","longitude":"39.76247000"},{"id":"1e8c584a-7f3f-4986-aa0d-e71cff2f1d9a","name":"Yukarı Taşyalak","ru":"Yukarı Taşyalak","country":"49d34f2f-2f8f-4b8e-91b1-3611a271846d","countryCode":"TR","state":"48c2e1d3-56c7-4e64-b67c-ad2fbff2bb63","stateCode":"63","latitude":"36.96306000","longitude":"40.13194000"},{"id":"ef65a471-40ba-47dc-b901-dd33580ffea4","name":"Andaç","ru":"Andaç","country":"49d34f2f-2f8f-4b8e-91b1-3611a271846d","countryCode":"TR","state":"4b265b45-10ae-4def-9d5f-d874cd1c0c4e","stateCode":"73","latitude":"37.35500000","longitude":"43.26395000"},{"id":"144660b0-7894-4b59-85da-267cf35a1647","name":"Şırnak","ru":"Şırnak","country":"49d34f2f-2f8f-4b8e-91b1-3611a271846d","countryCode":"TR","state":"4b265b45-10ae-4def-9d5f-d874cd1c0c4e","stateCode":"73","latitude":"37.51393000","longitude":"42.45432000"},{"id":"c84c1e1e-775b-4d87-84d0-bbd2c286fbdb","name":"Şırnak İlçesi","ru":"Şırnak İlçesi","country":"49d34f2f-2f8f-4b8e-91b1-3611a271846d","countryCode":"TR","state":"4b265b45-10ae-4def-9d5f-d874cd1c0c4e","stateCode":"73","latitude":"37.53278000","longitude":"42.38917000"},{"id":"69946e11-5a85-4c4e-9f13-6fcff98fa39e","name":"Şenoba","ru":"Şenoba","country":"49d34f2f-2f8f-4b8e-91b1-3611a271846d","countryCode":"TR","state":"4b265b45-10ae-4def-9d5f-d874cd1c0c4e","stateCode":"73","latitude":"37.46436000","longitude":"42.72248000"},{"id":"a6459152-fcd0-4cef-b30e-ff7a572988f6","name":"İdil","ru":"İdil","country":"49d34f2f-2f8f-4b8e-91b1-3611a271846d","countryCode":"TR","state":"4b265b45-10ae-4def-9d5f-d874cd1c0c4e","stateCode":"73","latitude":"37.33481000","longitude":"41.88944000"},{"id":"b7848979-035b-4e9f-952f-68575338880e","name":"İdil İlçesi","ru":"İdil İlçesi","country":"49d34f2f-2f8f-4b8e-91b1-3611a271846d","countryCode":"TR","state":"4b265b45-10ae-4def-9d5f-d874cd1c0c4e","stateCode":"73","latitude":"37.34178000","longitude":"41.88824000"},{"id":"96051a07-13e7-411a-a07f-c54b27d3496d","name":"Çalışkan","ru":"Çalışkan","country":"49d34f2f-2f8f-4b8e-91b1-3611a271846d","countryCode":"TR","state":"4b265b45-10ae-4def-9d5f-d874cd1c0c4e","stateCode":"73","latitude":"37.29751000","longitude":"42.64226000"},{"id":"8b0bb072-d43e-4cc6-8111-7da9ef0d77ff","name":"Çardaklı","ru":"Çardaklı","country":"49d34f2f-2f8f-4b8e-91b1-3611a271846d","countryCode":"TR","state":"4b265b45-10ae-4def-9d5f-d874cd1c0c4e","stateCode":"73","latitude":"37.23098000","longitude":"42.58409000"},{"id":"8e7499dc-e8d1-47ff-af61-5c26391c5b42","name":"Başaran","ru":"Başaran","country":"49d34f2f-2f8f-4b8e-91b1-3611a271846d","countryCode":"TR","state":"4b265b45-10ae-4def-9d5f-d874cd1c0c4e","stateCode":"73","latitude":"37.47655000","longitude":"43.12984000"},{"id":"8bc7cb5b-1e52-4b47-88ee-6fda5417b223","name":"Bağlıca","ru":"Bağlıca","country":"49d34f2f-2f8f-4b8e-91b1-3611a271846d","countryCode":"TR","state":"4b265b45-10ae-4def-9d5f-d874cd1c0c4e","stateCode":"73","latitude":"37.43333000","longitude":"42.77417000"},{"id":"da6eaf60-0320-4f84-a53a-7c813ab12124","name":"Ballı","ru":"Ballı","country":"49d34f2f-2f8f-4b8e-91b1-3611a271846d","countryCode":"TR","state":"4b265b45-10ae-4def-9d5f-d874cd1c0c4e","stateCode":"73","latitude":"37.41333000","longitude":"42.83944000"},{"id":"fc34c57e-9f84-4e94-af3a-60686285733e","name":"Balveren","ru":"Balveren","country":"49d34f2f-2f8f-4b8e-91b1-3611a271846d","countryCode":"TR","state":"4b265b45-10ae-4def-9d5f-d874cd1c0c4e","stateCode":"73","latitude":"37.48357000","longitude":"42.54834000"},{"id":"7347e172-a10d-4e7e-870f-be0a1878c47f","name":"Baraniferho","ru":"Baraniferho","country":"49d34f2f-2f8f-4b8e-91b1-3611a271846d","countryCode":"TR","state":"4b265b45-10ae-4def-9d5f-d874cd1c0c4e","stateCode":"73","latitude":"37.46957000","longitude":"41.90593000"},{"id":"923cfb2a-fd52-4c38-8868-cb6536f819e9","name":"Becuh","ru":"Becuh","country":"49d34f2f-2f8f-4b8e-91b1-3611a271846d","countryCode":"TR","state":"4b265b45-10ae-4def-9d5f-d874cd1c0c4e","stateCode":"73","latitude":"37.39141000","longitude":"42.99018000"},{"id":"e051ba27-de64-4f35-90e5-9e8aa0981000","name":"Beytüşşebap","ru":"Beytüşşebap","country":"49d34f2f-2f8f-4b8e-91b1-3611a271846d","countryCode":"TR","state":"4b265b45-10ae-4def-9d5f-d874cd1c0c4e","stateCode":"73","latitude":"37.57144000","longitude":"43.16515000"},{"id":"4f556bed-bf21-4ef7-b6e9-7cee26e71391","name":"Bisbin","ru":"Bisbin","country":"49d34f2f-2f8f-4b8e-91b1-3611a271846d","countryCode":"TR","state":"4b265b45-10ae-4def-9d5f-d874cd1c0c4e","stateCode":"73","latitude":"37.33929000","longitude":"42.56945000"},{"id":"c398ff08-7e43-4ebb-9afb-5e42f394ce45","name":"Boğazören","ru":"Boğazören","country":"49d34f2f-2f8f-4b8e-91b1-3611a271846d","countryCode":"TR","state":"4b265b45-10ae-4def-9d5f-d874cd1c0c4e","stateCode":"73","latitude":"37.52775000","longitude":"43.00778000"},{"id":"432e3825-40fa-42f6-b7a2-842887090cc5","name":"Bostancı","ru":"Bostancı","country":"49d34f2f-2f8f-4b8e-91b1-3611a271846d","countryCode":"TR","state":"4b265b45-10ae-4def-9d5f-d874cd1c0c4e","stateCode":"73","latitude":"37.17778000","longitude":"42.32906000"},{"id":"e4262538-455b-4ead-b2f2-660e00cc56b5","name":"Bozalan","ru":"Bozalan","country":"49d34f2f-2f8f-4b8e-91b1-3611a271846d","countryCode":"TR","state":"4b265b45-10ae-4def-9d5f-d874cd1c0c4e","stateCode":"73","latitude":"37.32874000","longitude":"42.26366000"},{"id":"ef89ce08-cc63-495d-849b-4eb5f9a86635","name":"Cizre","ru":"Cizre","country":"49d34f2f-2f8f-4b8e-91b1-3611a271846d","countryCode":"TR","state":"4b265b45-10ae-4def-9d5f-d874cd1c0c4e","stateCode":"73","latitude":"37.33024000","longitude":"42.18484000"},{"id":"e2034580-0662-4c80-bf0b-c42d0b2b75b7","name":"Cizre İlçesi","ru":"Cizre İlçesi","country":"49d34f2f-2f8f-4b8e-91b1-3611a271846d","countryCode":"TR","state":"4b265b45-10ae-4def-9d5f-d874cd1c0c4e","stateCode":"73","latitude":"37.32785000","longitude":"42.18721000"},{"id":"59c6cc0d-ea3a-4ee5-b143-5698a1d9c8c5","name":"Düzova","ru":"Düzova","country":"49d34f2f-2f8f-4b8e-91b1-3611a271846d","countryCode":"TR","state":"4b265b45-10ae-4def-9d5f-d874cd1c0c4e","stateCode":"73","latitude":"37.35413000","longitude":"42.08837000"},{"id":"8e165fa4-55c8-4b2a-ba7e-31302bf00014","name":"Dicle","ru":"Dicle","country":"49d34f2f-2f8f-4b8e-91b1-3611a271846d","countryCode":"TR","state":"4b265b45-10ae-4def-9d5f-d874cd1c0c4e","stateCode":"73","latitude":"37.28869000","longitude":"42.06721000"},{"id":"51d3292c-d51a-49f0-a873-cd6671847ca9","name":"Doruklu","ru":"Doruklu","country":"49d34f2f-2f8f-4b8e-91b1-3611a271846d","countryCode":"TR","state":"4b265b45-10ae-4def-9d5f-d874cd1c0c4e","stateCode":"73","latitude":"37.25550000","longitude":"42.33518000"},{"id":"257bc11d-138a-4116-8776-60fb0900b8ce","name":"Güçlükonak İlçesi","ru":"Güçlükonak İlçesi","country":"49d34f2f-2f8f-4b8e-91b1-3611a271846d","countryCode":"TR","state":"4b265b45-10ae-4def-9d5f-d874cd1c0c4e","stateCode":"73","latitude":"37.47133000","longitude":"41.91298000"},{"id":"4bb34243-b55c-45c2-a00d-3859ac8d4d01","name":"Girikbedro","ru":"Girikbedro","country":"49d34f2f-2f8f-4b8e-91b1-3611a271846d","countryCode":"TR","state":"4b265b45-10ae-4def-9d5f-d874cd1c0c4e","stateCode":"73","latitude":"37.18028000","longitude":"42.42111000"},{"id":"266d8451-60ab-4c42-a077-a57cc34a3e42","name":"Hilal","ru":"Hilal","country":"49d34f2f-2f8f-4b8e-91b1-3611a271846d","countryCode":"TR","state":"4b265b45-10ae-4def-9d5f-d874cd1c0c4e","stateCode":"73","latitude":"37.47528000","longitude":"42.78583000"},{"id":"79550792-a9fe-4507-937b-bae417bc47e6","name":"Kızılsu","ru":"Kızılsu","country":"49d34f2f-2f8f-4b8e-91b1-3611a271846d","countryCode":"TR","state":"4b265b45-10ae-4def-9d5f-d874cd1c0c4e","stateCode":"73","latitude":"37.45402000","longitude":"42.19639000"},{"id":"edac3b55-14db-48a2-a337-a598579b84c6","name":"Kumçatı","ru":"Kumçatı","country":"49d34f2f-2f8f-4b8e-91b1-3611a271846d","countryCode":"TR","state":"4b265b45-10ae-4def-9d5f-d874cd1c0c4e","stateCode":"73","latitude":"37.46594000","longitude":"42.28791000"},{"id":"cdd34746-9d00-4090-857f-b71ba91c5e87","name":"Mezraa","ru":"Mezraa","country":"49d34f2f-2f8f-4b8e-91b1-3611a271846d","countryCode":"TR","state":"4b265b45-10ae-4def-9d5f-d874cd1c0c4e","stateCode":"73","latitude":"37.66257000","longitude":"43.18885000"},{"id":"25de46be-6ab0-4593-852e-88fa631f66f7","name":"Ortabağ","ru":"Ortabağ","country":"49d34f2f-2f8f-4b8e-91b1-3611a271846d","countryCode":"TR","state":"4b265b45-10ae-4def-9d5f-d874cd1c0c4e","stateCode":"73","latitude":"37.39671000","longitude":"42.91010000"},{"id":"5b785afe-b0a3-4a36-9ca7-56feaf7f1370","name":"Ortaköy","ru":"Ortaköy","country":"49d34f2f-2f8f-4b8e-91b1-3611a271846d","countryCode":"TR","state":"4b265b45-10ae-4def-9d5f-d874cd1c0c4e","stateCode":"73","latitude":"37.32745000","longitude":"43.28403000"},{"id":"7017dac3-ef54-47e3-83f5-b6b10f84b79e","name":"Pınarbaşı","ru":"Pınarbaşı","country":"49d34f2f-2f8f-4b8e-91b1-3611a271846d","countryCode":"TR","state":"4b265b45-10ae-4def-9d5f-d874cd1c0c4e","stateCode":"73","latitude":"37.21368000","longitude":"41.88689000"},{"id":"7fefe1a5-0c14-44c3-b709-28fb2c5bca18","name":"Razvaliny Ayinvan","ru":"Razvaliny Ayinvan","country":"49d34f2f-2f8f-4b8e-91b1-3611a271846d","countryCode":"TR","state":"4b265b45-10ae-4def-9d5f-d874cd1c0c4e","stateCode":"73","latitude":"37.27983000","longitude":"42.33427000"},{"id":"52a7b504-5f55-4556-b59d-80641f0e8b9e","name":"Silopi","ru":"Silopi","country":"49d34f2f-2f8f-4b8e-91b1-3611a271846d","countryCode":"TR","state":"4b265b45-10ae-4def-9d5f-d874cd1c0c4e","stateCode":"73","latitude":"37.24379000","longitude":"42.46345000"},{"id":"e47f2849-6b98-432b-bf5b-1fd2a2c8c128","name":"Silopi İlçesi","ru":"Silopi İlçesi","country":"49d34f2f-2f8f-4b8e-91b1-3611a271846d","countryCode":"TR","state":"4b265b45-10ae-4def-9d5f-d874cd1c0c4e","stateCode":"73","latitude":"37.24978000","longitude":"42.47173000"},{"id":"dd8ada95-2815-483e-b20f-ce9d14ced6c3","name":"Sulak","ru":"Sulak","country":"49d34f2f-2f8f-4b8e-91b1-3611a271846d","countryCode":"TR","state":"4b265b45-10ae-4def-9d5f-d874cd1c0c4e","stateCode":"73","latitude":"37.41342000","longitude":"41.96114000"},{"id":"8b0970b8-8623-4ade-9df2-95cf12671890","name":"Tililan","ru":"Tililan","country":"49d34f2f-2f8f-4b8e-91b1-3611a271846d","countryCode":"TR","state":"4b265b45-10ae-4def-9d5f-d874cd1c0c4e","stateCode":"73","latitude":"37.37428000","longitude":"42.03386000"},{"id":"724abbcf-d68b-422b-9bf0-64be8137f3e9","name":"Uludere","ru":"Uludere","country":"49d34f2f-2f8f-4b8e-91b1-3611a271846d","countryCode":"TR","state":"4b265b45-10ae-4def-9d5f-d874cd1c0c4e","stateCode":"73","latitude":"37.44074000","longitude":"42.85236000"},{"id":"7b23e387-d0b3-41d4-8e3c-88739b4231a0","name":"Uludere İlçesi","ru":"Uludere İlçesi","country":"49d34f2f-2f8f-4b8e-91b1-3611a271846d","countryCode":"TR","state":"4b265b45-10ae-4def-9d5f-d874cd1c0c4e","stateCode":"73","latitude":"37.44615000","longitude":"42.85222000"},{"id":"8ec42d8c-2816-4aa9-95b8-a81b6356a1d3","name":"Uzungeçit","ru":"Uzungeçit","country":"49d34f2f-2f8f-4b8e-91b1-3611a271846d","countryCode":"TR","state":"4b265b45-10ae-4def-9d5f-d874cd1c0c4e","stateCode":"73","latitude":"37.49052000","longitude":"42.99036000"},{"id":"05376060-cfaa-4085-b3cf-77c578eb4d20","name":"Yemişli","ru":"Yemişli","country":"49d34f2f-2f8f-4b8e-91b1-3611a271846d","countryCode":"TR","state":"4b265b45-10ae-4def-9d5f-d874cd1c0c4e","stateCode":"73","latitude":"37.36710000","longitude":"43.07717000"},{"id":"8166ea6f-11e0-4a36-b02e-06a7fa00adb5","name":"Yeniköy","ru":"Yeniköy","country":"49d34f2f-2f8f-4b8e-91b1-3611a271846d","countryCode":"TR","state":"4b265b45-10ae-4def-9d5f-d874cd1c0c4e","stateCode":"73","latitude":"37.27074000","longitude":"42.42472000"},{"id":"1802ad5c-2e5b-40fe-98ea-18dcf92c0489","name":"Alaçatı","ru":"Alaçatı","country":"49d34f2f-2f8f-4b8e-91b1-3611a271846d","countryCode":"TR","state":"80030d05-4592-463e-996e-dbea9b22a633","stateCode":"35","latitude":"38.28246000","longitude":"26.37459000"},{"id":"a589fa28-957f-40de-8041-40eb7021428b","name":"Aliağa","ru":"Aliağa","country":"49d34f2f-2f8f-4b8e-91b1-3611a271846d","countryCode":"TR","state":"80030d05-4592-463e-996e-dbea9b22a633","stateCode":"35","latitude":"38.80078000","longitude":"27.04375000"},{"id":"4dc5d20e-cafa-478d-92cf-c4dd8176125d","name":"İzmir","ru":"İzmir","country":"49d34f2f-2f8f-4b8e-91b1-3611a271846d","countryCode":"TR","state":"80030d05-4592-463e-996e-dbea9b22a633","stateCode":"35","latitude":"38.41273000","longitude":"27.13838000"},{"id":"ee1573cd-31e8-43d6-9e58-82db312b7ad6","name":"Ödemiş","ru":"Ödemiş","country":"49d34f2f-2f8f-4b8e-91b1-3611a271846d","countryCode":"TR","state":"80030d05-4592-463e-996e-dbea9b22a633","stateCode":"35","latitude":"38.22780000","longitude":"27.96955000"},{"id":"612e3f7f-2bd3-4b98-abbc-d4ab5c4c17f4","name":"Ödemiş İlçesi","ru":"Ödemiş İlçesi","country":"49d34f2f-2f8f-4b8e-91b1-3611a271846d","countryCode":"TR","state":"80030d05-4592-463e-996e-dbea9b22a633","stateCode":"35","latitude":"38.23819000","longitude":"27.98010000"},{"id":"322cc6ca-93e5-4f55-b8c8-6dc56fbd4075","name":"Özdere","ru":"Özdere","country":"49d34f2f-2f8f-4b8e-91b1-3611a271846d","countryCode":"TR","state":"80030d05-4592-463e-996e-dbea9b22a633","stateCode":"35","latitude":"38.01611000","longitude":"27.12806000"},{"id":"2aa09108-32e3-4029-9fde-e8c22aab1eea","name":"Çandarlı","ru":"Çandarlı","country":"49d34f2f-2f8f-4b8e-91b1-3611a271846d","countryCode":"TR","state":"80030d05-4592-463e-996e-dbea9b22a633","stateCode":"35","latitude":"38.93503000","longitude":"26.93400000"},{"id":"c589080d-65ac-4b65-a792-6c4b69ee0487","name":"Çaylı","ru":"Çaylı","country":"49d34f2f-2f8f-4b8e-91b1-3611a271846d","countryCode":"TR","state":"80030d05-4592-463e-996e-dbea9b22a633","stateCode":"35","latitude":"38.15330000","longitude":"28.14406000"},{"id":"c7f164f1-7956-4f53-a3f7-0f53d25b48d7","name":"Çeşme","ru":"Çeşme","country":"49d34f2f-2f8f-4b8e-91b1-3611a271846d","countryCode":"TR","state":"80030d05-4592-463e-996e-dbea9b22a633","stateCode":"35","latitude":"38.32614000","longitude":"26.30574000"},{"id":"b829730f-ba15-4d55-b2e7-b420f28feac5","name":"Çeşme İlçesi","ru":"Çeşme İlçesi","country":"49d34f2f-2f8f-4b8e-91b1-3611a271846d","countryCode":"TR","state":"80030d05-4592-463e-996e-dbea9b22a633","stateCode":"35","latitude":"38.31658000","longitude":"26.32101000"},{"id":"ee37a88b-20f5-4f52-8562-6e3e2c859ffa","name":"Çiğli","ru":"Çiğli","country":"49d34f2f-2f8f-4b8e-91b1-3611a271846d","countryCode":"TR","state":"80030d05-4592-463e-996e-dbea9b22a633","stateCode":"35","latitude":"38.48802000","longitude":"26.96596000"},{"id":"a63e8f78-8ee3-4266-8558-b8c20b635a7a","name":"Bademli","ru":"Bademli","country":"49d34f2f-2f8f-4b8e-91b1-3611a271846d","countryCode":"TR","state":"80030d05-4592-463e-996e-dbea9b22a633","stateCode":"35","latitude":"38.08167000","longitude":"28.05778000"},{"id":"86121eb1-7c89-4795-b184-fb14e925842d","name":"Balçova","ru":"Balçova","country":"49d34f2f-2f8f-4b8e-91b1-3611a271846d","countryCode":"TR","state":"80030d05-4592-463e-996e-dbea9b22a633","stateCode":"35","latitude":"38.37302000","longitude":"27.08714000"},{"id":"05d2cadd-70fd-406a-b6ba-bca3945ce6d4","name":"Bayındır","ru":"Bayındır","country":"49d34f2f-2f8f-4b8e-91b1-3611a271846d","countryCode":"TR","state":"80030d05-4592-463e-996e-dbea9b22a633","stateCode":"35","latitude":"38.21741000","longitude":"27.64744000"},{"id":"9cfca537-e9de-418d-829c-ade642e59fc1","name":"Bayındır İlçesi","ru":"Bayındır İlçesi","country":"49d34f2f-2f8f-4b8e-91b1-3611a271846d","countryCode":"TR","state":"80030d05-4592-463e-996e-dbea9b22a633","stateCode":"35","latitude":"38.22700000","longitude":"27.65522000"},{"id":"d9eb486f-6139-4ca8-a413-b2e0b1f8c628","name":"Bayraklı","ru":"Bayraklı","country":"49d34f2f-2f8f-4b8e-91b1-3611a271846d","countryCode":"TR","state":"80030d05-4592-463e-996e-dbea9b22a633","stateCode":"35","latitude":"38.46222000","longitude":"27.16667000"},{"id":"64e41ece-7de8-4418-962c-d68b1968db69","name":"Belevi","ru":"Belevi","country":"49d34f2f-2f8f-4b8e-91b1-3611a271846d","countryCode":"TR","state":"80030d05-4592-463e-996e-dbea9b22a633","stateCode":"35","latitude":"38.01500000","longitude":"27.45028000"},{"id":"b176716c-58db-4f83-902d-3c3c4d634764","name":"Bergama","ru":"Bergama","country":"49d34f2f-2f8f-4b8e-91b1-3611a271846d","countryCode":"TR","state":"80030d05-4592-463e-996e-dbea9b22a633","stateCode":"35","latitude":"39.17088000","longitude":"27.18918000"},{"id":"7c4ceceb-c04e-454e-818b-28e5bba242d8","name":"Beydağ","ru":"Beydağ","country":"49d34f2f-2f8f-4b8e-91b1-3611a271846d","countryCode":"TR","state":"80030d05-4592-463e-996e-dbea9b22a633","stateCode":"35","latitude":"38.08241000","longitude":"28.21609000"},{"id":"6b1eff19-bc25-4f3a-bf9e-b3a2c009ce08","name":"Bornova","ru":"Bornova","country":"49d34f2f-2f8f-4b8e-91b1-3611a271846d","countryCode":"TR","state":"80030d05-4592-463e-996e-dbea9b22a633","stateCode":"35","latitude":"38.48492000","longitude":"27.25235000"},{"id":"8b33ad6a-82b7-4c55-8187-9fad19f92c1c","name":"Buca","ru":"Buca","country":"49d34f2f-2f8f-4b8e-91b1-3611a271846d","countryCode":"TR","state":"80030d05-4592-463e-996e-dbea9b22a633","stateCode":"35","latitude":"38.34813000","longitude":"27.25053000"},{"id":"16c6ed79-fcb4-455b-b4c7-d889bac8e2e0","name":"Dikili","ru":"Dikili","country":"49d34f2f-2f8f-4b8e-91b1-3611a271846d","countryCode":"TR","state":"80030d05-4592-463e-996e-dbea9b22a633","stateCode":"35","latitude":"39.07100000","longitude":"26.89017000"},{"id":"65cf35f2-f0ed-4ce8-93c5-539f321e9ea2","name":"Dikili İlçesi","ru":"Dikili İlçesi","country":"49d34f2f-2f8f-4b8e-91b1-3611a271846d","countryCode":"TR","state":"80030d05-4592-463e-996e-dbea9b22a633","stateCode":"35","latitude":"39.07840000","longitude":"26.90689000"},{"id":"764ce5e0-ec6c-4e41-b8a9-138afcd7fb3f","name":"Foça","ru":"Foça","country":"49d34f2f-2f8f-4b8e-91b1-3611a271846d","countryCode":"TR","state":"80030d05-4592-463e-996e-dbea9b22a633","stateCode":"35","latitude":"38.67030000","longitude":"26.75656000"},{"id":"79243c2a-ecc7-4369-85c1-e26f5ba3462d","name":"Foça İlçesi","ru":"Foça İlçesi","country":"49d34f2f-2f8f-4b8e-91b1-3611a271846d","countryCode":"TR","state":"80030d05-4592-463e-996e-dbea9b22a633","stateCode":"35","latitude":"38.67849000","longitude":"26.77214000"},{"id":"adafc742-a532-4cd2-9dd8-9fa98b048898","name":"Gaziemir","ru":"Gaziemir","country":"49d34f2f-2f8f-4b8e-91b1-3611a271846d","countryCode":"TR","state":"80030d05-4592-463e-996e-dbea9b22a633","stateCode":"35","latitude":"38.31098000","longitude":"27.15178000"},{"id":"aa637088-66ca-45c4-a390-7a5362e70402","name":"Gökçen","ru":"Gökçen","country":"49d34f2f-2f8f-4b8e-91b1-3611a271846d","countryCode":"TR","state":"80030d05-4592-463e-996e-dbea9b22a633","stateCode":"35","latitude":"38.11367000","longitude":"27.87144000"},