[{"id":"2ddb9e1c-96b9-44f2-ba57-36f272d867cd","name":"Anenii Noi","ru":"Anenii Noi","country":"93843351-87ee-448e-a5e7-9df5c8ade086","countryCode":"MD","state":"9f1bf6c3-18dc-4b23-ab0b-0ad12fc54cf9","stateCode":"AN","latitude":"46.87839000","longitude":"29.23483000"},{"id":"ac50f351-4cd8-40f7-b3a1-bf58497c5429","name":"Varniţa","ru":"Varniţa","country":"93843351-87ee-448e-a5e7-9df5c8ade086","countryCode":"MD","state":"9f1bf6c3-18dc-4b23-ab0b-0ad12fc54cf9","stateCode":"AN","latitude":"46.86606000","longitude":"29.46636000"},{"id":"98a020ca-86f6-4de9-a0de-bb250ad713d3","name":"Basarabeasca","ru":"Basarabeasca","country":"93843351-87ee-448e-a5e7-9df5c8ade086","countryCode":"MD","state":"195df7fa-9e43-4291-aede-41eb36d270f9","stateCode":"BS","latitude":"46.33170000","longitude":"28.96365000"},{"id":"a5af5862-eaf3-493d-a156-eafba638e9e4","name":"Bălţi","ru":"Bălţi","country":"93843351-87ee-448e-a5e7-9df5c8ade086","countryCode":"MD","state":"0baf1d8d-b1a1-4602-985d-28c19325ec91","stateCode":"BA","latitude":"47.76314000","longitude":"27.92932000"},{"id":"39b4c26b-45b6-4ad9-913c-80469d36d266","name":"Bender","ru":"Bender","country":"93843351-87ee-448e-a5e7-9df5c8ade086","countryCode":"MD","state":"a581db8b-3d8c-4822-a981-a730a600432d","stateCode":"BD","latitude":"46.83156000","longitude":"29.47769000"},{"id":"4d693901-dfc3-435f-abc0-2e350451d7ee","name":"Briceni","ru":"Briceni","country":"93843351-87ee-448e-a5e7-9df5c8ade086","countryCode":"MD","state":"c7bde041-5ac7-4112-9db3-3e42eb97e4c7","stateCode":"BR","latitude":"48.36289000","longitude":"27.07787000"},{"id":"1f4fe3de-3455-4d54-8646-e435c229776a","name":"Cahul","ru":"Cahul","country":"93843351-87ee-448e-a5e7-9df5c8ade086","countryCode":"MD","state":"fb3c4fe1-a729-4372-bb56-c908baf1baae","stateCode":"CA","latitude":"45.90425000","longitude":"28.19929000"},{"id":"8c4734f7-9a89-4b69-9e2a-bdf851d31996","name":"Giurgiuleşti","ru":"Giurgiuleşti","country":"93843351-87ee-448e-a5e7-9df5c8ade086","countryCode":"MD","state":"fb3c4fe1-a729-4372-bb56-c908baf1baae","stateCode":"CA","latitude":"45.48167000","longitude":"28.19722000"},{"id":"d0039fcd-accc-4860-8e48-4de04dc7f52d","name":"Cantemir","ru":"Cantemir","country":"93843351-87ee-448e-a5e7-9df5c8ade086","countryCode":"MD","state":"e80f2c92-7d97-48dc-be40-6661e99c4c0d","stateCode":"CT","latitude":"46.27743000","longitude":"28.20270000"},{"id":"d20ed9ed-d833-4623-bd1e-a63a68b68b0f","name":"Iargara","ru":"Iargara","country":"93843351-87ee-448e-a5e7-9df5c8ade086","countryCode":"MD","state":"e80f2c92-7d97-48dc-be40-6661e99c4c0d","stateCode":"CT","latitude":"46.42520000","longitude":"28.42676000"},{"id":"cd5d55e0-b26d-4b9c-8a04-e1c472e21886","name":"Vişniovca","ru":"Vişniovca","country":"93843351-87ee-448e-a5e7-9df5c8ade086","countryCode":"MD","state":"e80f2c92-7d97-48dc-be40-6661e99c4c0d","stateCode":"CT","latitude":"46.33260000","longitude":"28.44797000"},{"id":"5bac98e3-a441-4f02-ae15-c59459f895d5","name":"Călăraşi","ru":"Călăraşi","country":"93843351-87ee-448e-a5e7-9df5c8ade086","countryCode":"MD","state":"22c46554-61f1-410d-9453-704eeace4a97","stateCode":"CL","latitude":"47.25560000","longitude":"28.30987000"},{"id":"e6ea5b1e-5715-4522-b69c-e2727e10b383","name":"Căuşeni","ru":"Căuşeni","country":"93843351-87ee-448e-a5e7-9df5c8ade086","countryCode":"MD","state":"c1d9451c-581b-461d-9dde-99c0c31ac71f","stateCode":"CS","latitude":"46.63674000","longitude":"29.41114000"},{"id":"34f02941-b0e6-4017-9701-e02743d033e1","name":"Chiţcani","ru":"Chiţcani","country":"93843351-87ee-448e-a5e7-9df5c8ade086","countryCode":"MD","state":"c1d9451c-581b-461d-9dde-99c0c31ac71f","stateCode":"CS","latitude":"46.78296000","longitude":"29.61682000"},{"id":"1d2489de-edf1-4337-96c4-ec9df9bf3029","name":"Chisinau","ru":"Chisinau","country":"93843351-87ee-448e-a5e7-9df5c8ade086","countryCode":"MD","state":"8c621da3-9fe0-4252-a068-3aeb1bf8ebef","stateCode":"CU","latitude":"47.00556000","longitude":"28.85750000"},{"id":"a54428b3-31a3-4184-a00b-aa7ffc50ab80","name":"Ciorescu","ru":"Ciorescu","country":"93843351-87ee-448e-a5e7-9df5c8ade086","countryCode":"MD","state":"8c621da3-9fe0-4252-a068-3aeb1bf8ebef","stateCode":"CU","latitude":"47.13000000","longitude":"28.88937000"},{"id":"0e9140b9-b6a3-4c74-9683-dbe460da5691","name":"Cricova","ru":"Cricova","country":"93843351-87ee-448e-a5e7-9df5c8ade086","countryCode":"MD","state":"8c621da3-9fe0-4252-a068-3aeb1bf8ebef","stateCode":"CU","latitude":"47.13835000","longitude":"28.86156000"},{"id":"fd1ac7da-6efe-4e84-9aaa-656f7fb93adb","name":"Sîngera","ru":"Sîngera","country":"93843351-87ee-448e-a5e7-9df5c8ade086","countryCode":"MD","state":"8c621da3-9fe0-4252-a068-3aeb1bf8ebef","stateCode":"CU","latitude":"46.91557000","longitude":"28.96673000"},{"id":"4f987453-eb29-438f-ab68-3e25219352f7","name":"Stăuceni","ru":"Stăuceni","country":"93843351-87ee-448e-a5e7-9df5c8ade086","countryCode":"MD","state":"8c621da3-9fe0-4252-a068-3aeb1bf8ebef","stateCode":"CU","latitude":"47.09643000","longitude":"28.86791000"},{"id":"cffd1033-f7a2-4a57-95d9-bafd781766ce","name":"Vadul lui Vodă","ru":"Vadul lui Vodă","country":"93843351-87ee-448e-a5e7-9df5c8ade086","countryCode":"MD","state":"8c621da3-9fe0-4252-a068-3aeb1bf8ebef","stateCode":"CU","latitude":"47.09009000","longitude":"29.07570000"},{"id":"2124c08c-8663-4ae7-9923-871eb8315aca","name":"Vatra","ru":"Vatra","country":"93843351-87ee-448e-a5e7-9df5c8ade086","countryCode":"MD","state":"8c621da3-9fe0-4252-a068-3aeb1bf8ebef","stateCode":"CU","latitude":"47.07460000","longitude":"28.73685000"},{"id":"c044b7e7-3ac1-4c6a-b568-0d7a1e1f4d60","name":"Cimişlia","ru":"Cimişlia","country":"93843351-87ee-448e-a5e7-9df5c8ade086","countryCode":"MD","state":"cbe08234-d637-4290-8d81-cb0eadb7ee81","stateCode":"CM","latitude":"46.52685000","longitude":"28.76441000"},{"id":"3468f886-abd4-4fb9-8e90-3a206fda89ff","name":"Criuleni","ru":"Criuleni","country":"93843351-87ee-448e-a5e7-9df5c8ade086","countryCode":"MD","state":"5debf344-318a-48e5-b42c-3538bea2555a","stateCode":"CR","latitude":"47.21307000","longitude":"29.15926000"},{"id":"cadd04e7-aebd-4a82-95f5-a3b599fc37a1","name":"Briceni","ru":"Briceni","country":"93843351-87ee-448e-a5e7-9df5c8ade086","countryCode":"MD","state":"61568eca-6a08-4f98-b928-80441d9fd669","stateCode":"DO","latitude":"48.35628000","longitude":"27.70293000"},{"id":"e1a99842-71c6-465b-bfce-5cac9a54984c","name":"Donduşeni","ru":"Donduşeni","country":"93843351-87ee-448e-a5e7-9df5c8ade086","countryCode":"MD","state":"61568eca-6a08-4f98-b928-80441d9fd669","stateCode":"DO","latitude":"48.24268000","longitude":"27.61010000"},{"id":"f8d2272e-2d64-485a-bb70-ec0f095048df","name":"Drochia","ru":"Drochia","country":"93843351-87ee-448e-a5e7-9df5c8ade086","countryCode":"MD","state":"be336f98-9c4d-44b7-a59c-05233be6f087","stateCode":"DR","latitude":"48.03555000","longitude":"27.81293000"},{"id":"9bd9d1d1-4eaf-47d4-bab5-702eab65ace3","name":"Cocieri","ru":"Cocieri","country":"93843351-87ee-448e-a5e7-9df5c8ade086","countryCode":"MD","state":"6f055154-5a77-4920-9771-4962546748dd","stateCode":"DU","latitude":"47.30170000","longitude":"29.11755000"},{"id":"5c8226bb-b942-471a-ae41-cda0ca8baf72","name":"Ustia","ru":"Ustia","country":"93843351-87ee-448e-a5e7-9df5c8ade086","countryCode":"MD","state":"6f055154-5a77-4920-9771-4962546748dd","stateCode":"DU","latitude":"47.25524000","longitude":"29.12406000"},{"id":"1acfa6b0-8d74-4985-958f-bf98b80494a0","name":"Edineţ","ru":"Edineţ","country":"93843351-87ee-448e-a5e7-9df5c8ade086","countryCode":"MD","state":"ac0557df-c9ac-46ab-9b0e-cde3d43f41a6","stateCode":"ED","latitude":"48.17215000","longitude":"27.30337000"},{"id":"da38e15f-0a71-415e-ad38-56fe2c905f73","name":"Şoldăneşti","ru":"Şoldăneşti","country":"93843351-87ee-448e-a5e7-9df5c8ade086","countryCode":"MD","state":"22bc1ffa-15e1-4a98-8ace-da85fad6a103","stateCode":"SD","latitude":"47.81608000","longitude":"28.79718000"},{"id":"e3211ff1-ca62-48b3-a547-dbcb6dc0770a","name":"Ştefan Vodă","ru":"Ştefan Vodă","country":"93843351-87ee-448e-a5e7-9df5c8ade086","countryCode":"MD","state":"c6193bea-ec8e-4c19-bf49-4585522fec9f","stateCode":"SV","latitude":"46.51287000","longitude":"29.66193000"},{"id":"5d4382f6-b39a-4d28-bb9b-7578f5ff5d87","name":"Fălești","ru":"Fălești","country":"93843351-87ee-448e-a5e7-9df5c8ade086","countryCode":"MD","state":"38742709-2c26-4099-bd0a-902995e0a63f","stateCode":"FA","latitude":"47.57667000","longitude":"27.71264000"},{"id":"20c5289d-1c17-4d5e-b133-66c4f766fa81","name":"Floreşti","ru":"Floreşti","country":"93843351-87ee-448e-a5e7-9df5c8ade086","countryCode":"MD","state":"1d7f67dd-e4b3-4713-853a-5d7f6cfc9441","stateCode":"FL","latitude":"47.89137000","longitude":"28.29312000"},{"id":"82206592-020b-4edf-8369-5c161a64efbc","name":"Ghindești","ru":"Ghindești","country":"93843351-87ee-448e-a5e7-9df5c8ade086","countryCode":"MD","state":"1d7f67dd-e4b3-4713-853a-5d7f6cfc9441","stateCode":"FL","latitude":"47.85482000","longitude":"28.37679000"},{"id":"754ed021-294e-42c3-b20a-7ae683bdf37f","name":"Mărculeşti","ru":"Mărculeşti","country":"93843351-87ee-448e-a5e7-9df5c8ade086","countryCode":"MD","state":"1d7f67dd-e4b3-4713-853a-5d7f6cfc9441","stateCode":"FL","latitude":"47.86897000","longitude":"28.24109000"},{"id":"f94c6d64-ab90-4c94-ae5d-23a18b6f580e","name":"Bugeac","ru":"Bugeac","country":"93843351-87ee-448e-a5e7-9df5c8ade086","countryCode":"MD","state":"10b7de3b-4920-48dd-9c7f-74662255a642","stateCode":"GA","latitude":"46.36554000","longitude":"28.66250000"},{"id":"fa98fa8b-42b6-4c3f-af16-9a3238ecbf06","name":"Ceadîr-Lunga","ru":"Ceadîr-Lunga","country":"93843351-87ee-448e-a5e7-9df5c8ade086","countryCode":"MD","state":"10b7de3b-4920-48dd-9c7f-74662255a642","stateCode":"GA","latitude":"46.06169000","longitude":"28.83078000"},{"id":"3bc6cb7e-78d2-4b7e-a706-bfd2443d915d","name":"Comrat","ru":"Comrat","country":"93843351-87ee-448e-a5e7-9df5c8ade086","countryCode":"MD","state":"10b7de3b-4920-48dd-9c7f-74662255a642","stateCode":"GA","latitude":"46.29456000","longitude":"28.65650000"},{"id":"015008af-00db-4058-9905-97a9c7ada9ef","name":"Vulcăneşti","ru":"Vulcăneşti","country":"93843351-87ee-448e-a5e7-9df5c8ade086","countryCode":"MD","state":"10b7de3b-4920-48dd-9c7f-74662255a642","stateCode":"GA","latitude":"45.68492000","longitude":"28.40613000"},{"id":"431a417f-dd8d-4749-8df9-1e507fd475b8","name":"Glodeni","ru":"Glodeni","country":"93843351-87ee-448e-a5e7-9df5c8ade086","countryCode":"MD","state":"c755dfab-fbbf-4432-97f0-767226cbb78e","stateCode":"GL","latitude":"47.77513000","longitude":"27.51891000"},{"id":"aa1473da-9e0e-417c-af1a-9a32e14e9945","name":"Dancu","ru":"Dancu","country":"93843351-87ee-448e-a5e7-9df5c8ade086","countryCode":"MD","state":"2e0d8ff2-f11a-4601-a8a2-7dcc0a990023","stateCode":"HI","latitude":"46.75818000","longitude":"28.20716000"},{"id":"ac3c58d9-5aa8-441a-b804-df9272b2708b","name":"Hînceşti","ru":"Hînceşti","country":"93843351-87ee-448e-a5e7-9df5c8ade086","countryCode":"MD","state":"2e0d8ff2-f11a-4601-a8a2-7dcc0a990023","stateCode":"HI","latitude":"46.83047000","longitude":"28.59064000"},{"id":"a087cdbb-8286-4ba0-a1d8-572d4517d804","name":"Ialoveni","ru":"Ialoveni","country":"93843351-87ee-448e-a5e7-9df5c8ade086","countryCode":"MD","state":"8b3057ca-1ce3-4725-a6be-d60e10fd9d73","stateCode":"IA","latitude":"46.94346000","longitude":"28.78233000"},{"id":"530e4472-5512-4e8a-989e-ff1aabf405e8","name":"Nisporeni","ru":"Nisporeni","country":"93843351-87ee-448e-a5e7-9df5c8ade086","countryCode":"MD","state":"e50689b8-2686-4ef1-99ed-0abe6b9807b2","stateCode":"NI","latitude":"47.08159000","longitude":"28.17138000"},{"id":"3404a980-57ec-4434-84de-70551f74b99b","name":"Ocniţa","ru":"Ocniţa","country":"93843351-87ee-448e-a5e7-9df5c8ade086","countryCode":"MD","state":"ca3a41c6-24ab-41b9-8ab1-0d00f8564991","stateCode":"OC","latitude":"48.38274000","longitude":"27.43805000"},{"id":"15d2acf6-2026-48ce-8648-9f89af7ba7ac","name":"Otaci","ru":"Otaci","country":"93843351-87ee-448e-a5e7-9df5c8ade086","countryCode":"MD","state":"ca3a41c6-24ab-41b9-8ab1-0d00f8564991","stateCode":"OC","latitude":"48.43285000","longitude":"27.79912000"},{"id":"b08f1de7-ec8b-46e7-b4cf-d506992647fc","name":"Orhei","ru":"Orhei","country":"93843351-87ee-448e-a5e7-9df5c8ade086","countryCode":"MD","state":"f936628b-c0e8-4ee1-8fd8-93bcfa9c727e","stateCode":"OR","latitude":"47.38494000","longitude":"28.82446000"},{"id":"d7f7dd91-2f98-4ee8-927d-22c16f43fbea","name":"Rîşcani","ru":"Rîşcani","country":"93843351-87ee-448e-a5e7-9df5c8ade086","countryCode":"MD","state":"df3dec33-4c36-4162-a611-4dfb6a9a4305","stateCode":"RI","latitude":"47.94792000","longitude":"27.56376000"},{"id":"a865a374-88a7-4118-bb6e-ccda1d016e08","name":"Rezina","ru":"Rezina","country":"93843351-87ee-448e-a5e7-9df5c8ade086","countryCode":"MD","state":"cd0631b8-cdb3-469f-8da2-1280a18f5de6","stateCode":"RE","latitude":"47.74928000","longitude":"28.96583000"},{"id":"5005ccf1-39d9-4b61-8ede-f6876479998c","name":"Saharna","ru":"Saharna","country":"93843351-87ee-448e-a5e7-9df5c8ade086","countryCode":"MD","state":"cd0631b8-cdb3-469f-8da2-1280a18f5de6","stateCode":"RE","latitude":"47.69107000","longitude":"28.97458000"},{"id":"ce716f33-c8d3-4684-96ed-58363a4cfe70","name":"Bilicenii Vechi","ru":"Bilicenii Vechi","country":"93843351-87ee-448e-a5e7-9df5c8ade086","countryCode":"MD","state":"96098b81-0449-4135-b757-6751898603a3","stateCode":"SI","latitude":"47.65580000","longitude":"28.04734000"},{"id":"7b088553-e611-4f5f-82ca-c744476e063a","name":"Biruinţa","ru":"Biruinţa","country":"93843351-87ee-448e-a5e7-9df5c8ade086","countryCode":"MD","state":"96098b81-0449-4135-b757-6751898603a3","stateCode":"SI","latitude":"47.81353000","longitude":"28.07004000"},{"id":"5d451c3d-1725-4892-b45c-1e868a71f7af","name":"Sîngerei","ru":"Sîngerei","country":"93843351-87ee-448e-a5e7-9df5c8ade086","countryCode":"MD","state":"96098b81-0449-4135-b757-6751898603a3","stateCode":"SI","latitude":"47.63632000","longitude":"28.14296000"},{"id":"db515640-8f9b-4477-8d4f-a93868616911","name":"Soroca","ru":"Soroca","country":"93843351-87ee-448e-a5e7-9df5c8ade086","countryCode":"MD","state":"7ece0051-c91e-4511-a79d-0320cefea38d","stateCode":"SO","latitude":"48.15659000","longitude":"28.28489000"},{"id":"7b72b7b4-b304-42d5-ab59-20629093b996","name":"Bucovăţ","ru":"Bucovăţ","country":"93843351-87ee-448e-a5e7-9df5c8ade086","countryCode":"MD","state":"e44f6872-c2c6-4730-9ddf-0e58124324cf","stateCode":"ST","latitude":"47.19064000","longitude":"28.45802000"},{"id":"58f3515e-8543-4cf4-9cca-b363b3f6bd78","name":"Strășeni","ru":"Strășeni","country":"93843351-87ee-448e-a5e7-9df5c8ade086","countryCode":"MD","state":"e44f6872-c2c6-4730-9ddf-0e58124324cf","stateCode":"ST","latitude":"47.14216000","longitude":"28.60774000"},{"id":"8555abfb-84d1-45d9-860e-631a6b5f4df6","name":"Taraclia","ru":"Taraclia","country":"93843351-87ee-448e-a5e7-9df5c8ade086","countryCode":"MD","state":"010483cb-ab79-4dca-8b60-f0a2e78e217a","stateCode":"TA","latitude":"45.90273000","longitude":"28.66816000"},{"id":"e4205961-fc25-4cbd-b258-af5ece6729ba","name":"Tvardița","ru":"Tvardița","country":"93843351-87ee-448e-a5e7-9df5c8ade086","countryCode":"MD","state":"010483cb-ab79-4dca-8b60-f0a2e78e217a","stateCode":"TA","latitude":"46.14826000","longitude":"28.96491000"},{"id":"99484477-afcc-4f6c-a896-ebce2e5dc736","name":"Mîndreşti","ru":"Mîndreşti","country":"93843351-87ee-448e-a5e7-9df5c8ade086","countryCode":"MD","state":"ce7beaaa-d1ee-4b11-81fa-1104b67c5712","stateCode":"TE","latitude":"47.50525000","longitude":"28.27687000"},{"id":"33798eca-ed5e-4f11-9f09-5e4a854feaac","name":"Teleneşti","ru":"Teleneşti","country":"93843351-87ee-448e-a5e7-9df5c8ade086","countryCode":"MD","state":"ce7beaaa-d1ee-4b11-81fa-1104b67c5712","stateCode":"TE","latitude":"47.50110000","longitude":"28.36536000"},{"id":"6f634427-af54-457b-9717-b981b1eb92de","name":"Camenca","ru":"Camenca","country":"93843351-87ee-448e-a5e7-9df5c8ade086","countryCode":"MD","state":"a75413e8-42aa-4faf-acbc-0175b5ccb5ec","stateCode":"SN","latitude":"48.03233000","longitude":"28.69899000"},{"id":"6822d3bb-6b8e-4d84-b442-b8e6665d103e","name":"Crasnoe","ru":"Crasnoe","country":"93843351-87ee-448e-a5e7-9df5c8ade086","countryCode":"MD","state":"a75413e8-42aa-4faf-acbc-0175b5ccb5ec","stateCode":"SN","latitude":"46.64844000","longitude":"29.80403000"},{"id":"bbf54bdc-8aa3-4c7e-af4f-246e5dc68c9c","name":"Dnestrovsc","ru":"Dnestrovsc","country":"93843351-87ee-448e-a5e7-9df5c8ade086","countryCode":"MD","state":"a75413e8-42aa-4faf-acbc-0175b5ccb5ec","stateCode":"SN","latitude":"46.61640000","longitude":"29.91926000"},{"id":"ee6392ad-ad00-40f0-8e4d-dcf6b8fe4f2e","name":"Dubăsari","ru":"Dubăsari","country":"93843351-87ee-448e-a5e7-9df5c8ade086","countryCode":"MD","state":"a75413e8-42aa-4faf-acbc-0175b5ccb5ec","stateCode":"SN","latitude":"47.26562000","longitude":"29.16667000"},{"id":"58b44840-deb7-446d-8ae8-757fd24eef12","name":"Hryhoriopol","ru":"Hryhoriopol","country":"93843351-87ee-448e-a5e7-9df5c8ade086","countryCode":"MD","state":"a75413e8-42aa-4faf-acbc-0175b5ccb5ec","stateCode":"SN","latitude":"47.15413000","longitude":"29.30008000"},{"id":"3fb4c3f9-d12e-4def-a3bb-9ef7cdde106a","name":"Maiac","ru":"Maiac","country":"93843351-87ee-448e-a5e7-9df5c8ade086","countryCode":"MD","state":"a75413e8-42aa-4faf-acbc-0175b5ccb5ec","stateCode":"SN","latitude":"47.23727000","longitude":"29.38498000"},{"id":"d8d9654d-be47-4b63-aa57-6d668ba73746","name":"Pervomaisc","ru":"Pervomaisc","country":"93843351-87ee-448e-a5e7-9df5c8ade086","countryCode":"MD","state":"a75413e8-42aa-4faf-acbc-0175b5ccb5ec","stateCode":"SN","latitude":"46.73253000","longitude":"29.96170000"},{"id":"34411d20-f94a-40fc-b485-9e1d37bb37a6","name":"Rîbniţa","ru":"Rîbniţa","country":"93843351-87ee-448e-a5e7-9df5c8ade086","countryCode":"MD","state":"a75413e8-42aa-4faf-acbc-0175b5ccb5ec","stateCode":"SN","latitude":"47.76817000","longitude":"29.01000000"},{"id":"55095342-8175-48b7-8979-b005dc31dec0","name":"Slobozia","ru":"Slobozia","country":"93843351-87ee-448e-a5e7-9df5c8ade086","countryCode":"MD","state":"a75413e8-42aa-4faf-acbc-0175b5ccb5ec","stateCode":"SN","latitude":"46.72927000","longitude":"29.70446000"},{"id":"da3684b6-5aa8-4e1d-bdc7-f070a0c67a7f","name":"Tiraspol","ru":"Tiraspol","country":"93843351-87ee-448e-a5e7-9df5c8ade086","countryCode":"MD","state":"a75413e8-42aa-4faf-acbc-0175b5ccb5ec","stateCode":"SN","latitude":"46.84274000","longitude":"29.62909000"},{"id":"e0a0e13e-3717-4b46-bd37-154d33b9e32b","name":"Tiraspolul Nou","ru":"Tiraspolul Nou","country":"93843351-87ee-448e-a5e7-9df5c8ade086","countryCode":"MD","state":"a75413e8-42aa-4faf-acbc-0175b5ccb5ec","stateCode":"SN","latitude":"46.82874000","longitude":"29.52174000"},{"id":"ad8079e0-3567-4847-aad9-5c9e2966e52a","name":"Ungheni","ru":"Ungheni","country":"93843351-87ee-448e-a5e7-9df5c8ade086","countryCode":"MD","state":"2b57b34d-d2fe-440f-a365-80c2208318d4","stateCode":"UN","latitude":"47.21079000","longitude":"27.80047000"}]