[{"id":"d998f1c8-32ed-47e9-9ea6-71ef939ea391","name":"Gobojango","ru":"Gobojango","country":"b759f6c9-0c98-46f6-b570-4cd8b4da4565","countryCode":"BW","state":"4f8facb2-6969-4695-89d8-d558b54df6d6","stateCode":"CE","latitude":"-21.83270000","longitude":"28.72882000"},{"id":"f4fb74e8-530d-4c0d-9d65-cce7392656e9","name":"Gweta","ru":"Gweta","country":"b759f6c9-0c98-46f6-b570-4cd8b4da4565","countryCode":"BW","state":"4f8facb2-6969-4695-89d8-d558b54df6d6","stateCode":"CE","latitude":"-20.18333000","longitude":"25.23333000"},{"id":"90079772-4175-46c8-a92a-c5d64a47ce15","name":"Kalamare","ru":"Kalamare","country":"b759f6c9-0c98-46f6-b570-4cd8b4da4565","countryCode":"BW","state":"4f8facb2-6969-4695-89d8-d558b54df6d6","stateCode":"CE","latitude":"-22.93369000","longitude":"26.57032000"},{"id":"ffe3e514-435e-4be1-b429-74176c61f180","name":"Letlhakane","ru":"Letlhakane","country":"b759f6c9-0c98-46f6-b570-4cd8b4da4565","countryCode":"BW","state":"4f8facb2-6969-4695-89d8-d558b54df6d6","stateCode":"CE","latitude":"-21.41494000","longitude":"25.59263000"},{"id":"8bbc2042-9b05-4e4e-9375-aa4d907f16de","name":"Letsheng","ru":"Letsheng","country":"b759f6c9-0c98-46f6-b570-4cd8b4da4565","countryCode":"BW","state":"4f8facb2-6969-4695-89d8-d558b54df6d6","stateCode":"CE","latitude":"-22.66384000","longitude":"27.22390000"},{"id":"b117a5f4-a7c0-48a7-ad95-1cd823eaa6f4","name":"Maapi","ru":"Maapi","country":"b759f6c9-0c98-46f6-b570-4cd8b4da4565","countryCode":"BW","state":"4f8facb2-6969-4695-89d8-d558b54df6d6","stateCode":"CE","latitude":"-22.75785000","longitude":"27.35001000"},{"id":"9c525e48-80e3-4d7f-b7f6-ac9aea803814","name":"Machaneng","ru":"Machaneng","country":"b759f6c9-0c98-46f6-b570-4cd8b4da4565","countryCode":"BW","state":"4f8facb2-6969-4695-89d8-d558b54df6d6","stateCode":"CE","latitude":"-23.18621000","longitude":"27.48856000"},{"id":"a11739c7-9dbd-46a1-b864-286316c669dc","name":"Mahalapye","ru":"Mahalapye","country":"b759f6c9-0c98-46f6-b570-4cd8b4da4565","countryCode":"BW","state":"4f8facb2-6969-4695-89d8-d558b54df6d6","stateCode":"CE","latitude":"-23.10407000","longitude":"26.81421000"},{"id":"e13ef07f-f3e7-4018-973d-d70b340e7629","name":"Makobeng","ru":"Makobeng","country":"b759f6c9-0c98-46f6-b570-4cd8b4da4565","countryCode":"BW","state":"4f8facb2-6969-4695-89d8-d558b54df6d6","stateCode":"CE","latitude":"-22.99637000","longitude":"27.66766000"},{"id":"dd1712d9-4b9f-4a8e-bbd5-d72ed28950f7","name":"Makwata","ru":"Makwata","country":"b759f6c9-0c98-46f6-b570-4cd8b4da4565","countryCode":"BW","state":"4f8facb2-6969-4695-89d8-d558b54df6d6","stateCode":"CE","latitude":"-23.28333000","longitude":"27.30000000"},{"id":"e2797ccf-88a0-4312-bb89-d416cbe18b54","name":"Mathakola","ru":"Mathakola","country":"b759f6c9-0c98-46f6-b570-4cd8b4da4565","countryCode":"BW","state":"4f8facb2-6969-4695-89d8-d558b54df6d6","stateCode":"CE","latitude":"-22.72125000","longitude":"27.31057000"},{"id":"83f73cf0-40c1-4d04-a7e2-9b8190ef7b76","name":"Mathambgwane","ru":"Mathambgwane","country":"b759f6c9-0c98-46f6-b570-4cd8b4da4565","countryCode":"BW","state":"4f8facb2-6969-4695-89d8-d558b54df6d6","stateCode":"CE","latitude":"-20.99075000","longitude":"27.33158000"},{"id":"ca2cbf86-444d-4d5c-98a3-5c72859fd469","name":"Mathathane","ru":"Mathathane","country":"b759f6c9-0c98-46f6-b570-4cd8b4da4565","countryCode":"BW","state":"4f8facb2-6969-4695-89d8-d558b54df6d6","stateCode":"CE","latitude":"-22.26875000","longitude":"28.74946000"},{"id":"4e957207-6abd-4d43-9656-3ab2be9ddd24","name":"Maunatlala","ru":"Maunatlala","country":"b759f6c9-0c98-46f6-b570-4cd8b4da4565","countryCode":"BW","state":"4f8facb2-6969-4695-89d8-d558b54df6d6","stateCode":"CE","latitude":"-22.59701000","longitude":"27.63006000"},{"id":"d4c1e438-5798-4db6-b0e6-b9e18b594d6b","name":"Mogapi","ru":"Mogapi","country":"b759f6c9-0c98-46f6-b570-4cd8b4da4565","countryCode":"BW","state":"4f8facb2-6969-4695-89d8-d558b54df6d6","stateCode":"CE","latitude":"-22.32301000","longitude":"27.83492000"},{"id":"b5d7a7b0-abfb-429a-8be8-16dc75047d20","name":"Moijabana","ru":"Moijabana","country":"b759f6c9-0c98-46f6-b570-4cd8b4da4565","countryCode":"BW","state":"4f8facb2-6969-4695-89d8-d558b54df6d6","stateCode":"CE","latitude":"-22.43333000","longitude":"26.41667000"},{"id":"c1811cea-a8bc-4487-89e8-c9f8a4f39893","name":"Mookane","ru":"Mookane","country":"b759f6c9-0c98-46f6-b570-4cd8b4da4565","countryCode":"BW","state":"4f8facb2-6969-4695-89d8-d558b54df6d6","stateCode":"CE","latitude":"-23.68805000","longitude":"26.65948000"},{"id":"04aa90d7-7156-4808-9309-aa9417072be8","name":"Mopipi","ru":"Mopipi","country":"b759f6c9-0c98-46f6-b570-4cd8b4da4565","countryCode":"BW","state":"4f8facb2-6969-4695-89d8-d558b54df6d6","stateCode":"CE","latitude":"-21.18333000","longitude":"24.88333000"},{"id":"d2cb8afd-bb68-48da-bb19-5b8a78051b27","name":"Mosetse","ru":"Mosetse","country":"b759f6c9-0c98-46f6-b570-4cd8b4da4565","countryCode":"BW","state":"4f8facb2-6969-4695-89d8-d558b54df6d6","stateCode":"CE","latitude":"-20.75000000","longitude":"26.65000000"},{"id":"da967489-fe9f-4eef-bcc6-76298eb3cc8b","name":"Nata","ru":"Nata","country":"b759f6c9-0c98-46f6-b570-4cd8b4da4565","countryCode":"BW","state":"4f8facb2-6969-4695-89d8-d558b54df6d6","stateCode":"CE","latitude":"-20.21667000","longitude":"26.18333000"},{"id":"5558e39e-7142-4727-b840-af261dabd44f","name":"Orapa","ru":"Orapa","country":"b759f6c9-0c98-46f6-b570-4cd8b4da4565","countryCode":"BW","state":"4f8facb2-6969-4695-89d8-d558b54df6d6","stateCode":"CE","latitude":"-21.31150000","longitude":"25.37642000"},{"id":"d2158990-7dfa-4b79-923e-7ccc4411a8c4","name":"Palapye","ru":"Palapye","country":"b759f6c9-0c98-46f6-b570-4cd8b4da4565","countryCode":"BW","state":"4f8facb2-6969-4695-89d8-d558b54df6d6","stateCode":"CE","latitude":"-22.54605000","longitude":"27.12507000"},{"id":"24d1e39b-3586-4f5d-b314-1511d8127383","name":"Pilikwe","ru":"Pilikwe","country":"b759f6c9-0c98-46f6-b570-4cd8b4da4565","countryCode":"BW","state":"4f8facb2-6969-4695-89d8-d558b54df6d6","stateCode":"CE","latitude":"-22.79904000","longitude":"27.19376000"},{"id":"7f206286-2989-4d53-a365-1cf4bbfc5972","name":"Rakops","ru":"Rakops","country":"b759f6c9-0c98-46f6-b570-4cd8b4da4565","countryCode":"BW","state":"4f8facb2-6969-4695-89d8-d558b54df6d6","stateCode":"CE","latitude":"-21.02257000","longitude":"24.36052000"},{"id":"ad477335-f04c-423e-a53d-51952cb9e213","name":"Ramokgonami","ru":"Ramokgonami","country":"b759f6c9-0c98-46f6-b570-4cd8b4da4565","countryCode":"BW","state":"4f8facb2-6969-4695-89d8-d558b54df6d6","stateCode":"CE","latitude":"-22.86450000","longitude":"27.42391000"},{"id":"e968e9e8-8788-4002-965d-95ab6170e221","name":"Ratholo","ru":"Ratholo","country":"b759f6c9-0c98-46f6-b570-4cd8b4da4565","countryCode":"BW","state":"4f8facb2-6969-4695-89d8-d558b54df6d6","stateCode":"CE","latitude":"-22.72454000","longitude":"27.57199000"},{"id":"aee3ca3d-4919-4470-af8f-b835d36618f7","name":"Sefophe","ru":"Sefophe","country":"b759f6c9-0c98-46f6-b570-4cd8b4da4565","countryCode":"BW","state":"4f8facb2-6969-4695-89d8-d558b54df6d6","stateCode":"CE","latitude":"-22.18333000","longitude":"27.96667000"},{"id":"282da6cb-e6f5-472a-b833-630f8a75eea2","name":"Serowe","ru":"Serowe","country":"b759f6c9-0c98-46f6-b570-4cd8b4da4565","countryCode":"BW","state":"4f8facb2-6969-4695-89d8-d558b54df6d6","stateCode":"CE","latitude":"-22.38754000","longitude":"26.71077000"},{"id":"057016c8-10ca-45df-93c0-fe50d51d6b2c","name":"Sua","ru":"Sua","country":"b759f6c9-0c98-46f6-b570-4cd8b4da4565","countryCode":"BW","state":"4f8facb2-6969-4695-89d8-d558b54df6d6","stateCode":"CE","latitude":"-20.05000000","longitude":"26.20000000"},{"id":"047dd2ee-1f36-4c0c-9ffb-0db5db6aa2ca","name":"Tamasane","ru":"Tamasane","country":"b759f6c9-0c98-46f6-b570-4cd8b4da4565","countryCode":"BW","state":"4f8facb2-6969-4695-89d8-d558b54df6d6","stateCode":"CE","latitude":"-22.41840000","longitude":"27.40127000"},{"id":"88230910-1bf5-4327-a143-fd96bff4f137","name":"Tobane","ru":"Tobane","country":"b759f6c9-0c98-46f6-b570-4cd8b4da4565","countryCode":"BW","state":"4f8facb2-6969-4695-89d8-d558b54df6d6","stateCode":"CE","latitude":"-21.95000000","longitude":"27.90000000"},{"id":"a52c9b44-3564-4897-a0c9-14fade9752a6","name":"Tonota","ru":"Tonota","country":"b759f6c9-0c98-46f6-b570-4cd8b4da4565","countryCode":"BW","state":"4f8facb2-6969-4695-89d8-d558b54df6d6","stateCode":"CE","latitude":"-21.44236000","longitude":"27.46153000"},{"id":"7bf0c8c2-3802-4b0f-9d93-14922c32b5a8","name":"Dekar","ru":"Dekar","country":"b759f6c9-0c98-46f6-b570-4cd8b4da4565","countryCode":"BW","state":"c58d3796-cd27-41f9-ae23-8c2072a7b8b4","stateCode":"GH","latitude":"-21.53333000","longitude":"21.93333000"},{"id":"aa38f4d5-c70f-4aa1-ae72-a6b4f0aad5e9","name":"Ghanzi","ru":"Ghanzi","country":"b759f6c9-0c98-46f6-b570-4cd8b4da4565","countryCode":"BW","state":"c58d3796-cd27-41f9-ae23-8c2072a7b8b4","stateCode":"GH","latitude":"-21.69785000","longitude":"21.64581000"},{"id":"75359869-fe50-446e-82e7-8fd89e53746e","name":"Hukuntsi","ru":"Hukuntsi","country":"b759f6c9-0c98-46f6-b570-4cd8b4da4565","countryCode":"BW","state":"ae5163f3-0917-4fc5-bec0-de66436b0597","stateCode":"KG","latitude":"-23.99880000","longitude":"21.77962000"},{"id":"8f4d17a5-b8e0-4df0-bf8a-add25fcf4da0","name":"Kang","ru":"Kang","country":"b759f6c9-0c98-46f6-b570-4cd8b4da4565","countryCode":"BW","state":"ae5163f3-0917-4fc5-bec0-de66436b0597","stateCode":"KG","latitude":"-23.67518000","longitude":"22.78762000"},{"id":"43059a09-9584-4dad-8388-ac364d58581a","name":"Lehututu","ru":"Lehututu","country":"b759f6c9-0c98-46f6-b570-4cd8b4da4565","countryCode":"BW","state":"ae5163f3-0917-4fc5-bec0-de66436b0597","stateCode":"KG","latitude":"-23.96667000","longitude":"21.86667000"},{"id":"771039d3-32f4-41df-b40f-3b0f44bb8e32","name":"Manyana","ru":"Manyana","country":"b759f6c9-0c98-46f6-b570-4cd8b4da4565","countryCode":"BW","state":"ae5163f3-0917-4fc5-bec0-de66436b0597","stateCode":"KG","latitude":"-23.40000000","longitude":"21.71667000"},{"id":"771b8b62-99f2-4b0f-a465-8a8b2ac75249","name":"Tshabong","ru":"Tshabong","country":"b759f6c9-0c98-46f6-b570-4cd8b4da4565","countryCode":"BW","state":"ae5163f3-0917-4fc5-bec0-de66436b0597","stateCode":"KG","latitude":"-26.05000000","longitude":"22.45000000"},{"id":"c0bf9047-dd3d-4f49-bf3b-1190a2fcf262","name":"Werda","ru":"Werda","country":"b759f6c9-0c98-46f6-b570-4cd8b4da4565","countryCode":"BW","state":"ae5163f3-0917-4fc5-bec0-de66436b0597","stateCode":"KG","latitude":"-25.26667000","longitude":"23.28333000"},{"id":"35ecf944-be59-4cf8-a699-7f20fc9452ba","name":"Bokaa","ru":"Bokaa","country":"b759f6c9-0c98-46f6-b570-4cd8b4da4565","countryCode":"BW","state":"4535d6a9-1e08-4622-b1ef-477cd6520db7","stateCode":"KL","latitude":"-24.45000000","longitude":"26.01667000"},{"id":"161783fe-1276-4bf9-a511-50b8a926178f","name":"Mmathubudukwane","ru":"Mmathubudukwane","country":"b759f6c9-0c98-46f6-b570-4cd8b4da4565","countryCode":"BW","state":"4535d6a9-1e08-4622-b1ef-477cd6520db7","stateCode":"KL","latitude":"-24.60000000","longitude":"26.43333000"},{"id":"5d912010-f8ce-4909-997e-0cc76a3df38f","name":"Mochudi","ru":"Mochudi","country":"b759f6c9-0c98-46f6-b570-4cd8b4da4565","countryCode":"BW","state":"4535d6a9-1e08-4622-b1ef-477cd6520db7","stateCode":"KL","latitude":"-24.41667000","longitude":"26.15000000"},{"id":"fefbd0ff-375c-46da-9bbd-30f7c91fb614","name":"Pilane","ru":"Pilane","country":"b759f6c9-0c98-46f6-b570-4cd8b4da4565","countryCode":"BW","state":"4535d6a9-1e08-4622-b1ef-477cd6520db7","stateCode":"KL","latitude":"-24.45000000","longitude":"26.13333000"},{"id":"fb666100-b954-4901-9b3f-78d2959c2072","name":"Botlhapatlou","ru":"Botlhapatlou","country":"b759f6c9-0c98-46f6-b570-4cd8b4da4565","countryCode":"BW","state":"1da0f8f4-3fed-4aaa-ab9a-d2a43652dce1","stateCode":"KW","latitude":"-24.02591000","longitude":"25.48976000"},{"id":"dd4d36c7-8df6-440f-a4db-386391c98b71","name":"Dutlwe","ru":"Dutlwe","country":"b759f6c9-0c98-46f6-b570-4cd8b4da4565","countryCode":"BW","state":"1da0f8f4-3fed-4aaa-ab9a-d2a43652dce1","stateCode":"KW","latitude":"-23.98333000","longitude":"23.90000000"},{"id":"82fe6022-9d7e-4125-ae0d-0e0f7656a792","name":"Gabane","ru":"Gabane","country":"b759f6c9-0c98-46f6-b570-4cd8b4da4565","countryCode":"BW","state":"1da0f8f4-3fed-4aaa-ab9a-d2a43652dce1","stateCode":"KW","latitude":"-24.66667000","longitude":"25.78222000"},{"id":"ec6afd26-b6c4-41c3-9835-9ddcab0dfa9c","name":"Gaphatshwe","ru":"Gaphatshwe","country":"b759f6c9-0c98-46f6-b570-4cd8b4da4565","countryCode":"BW","state":"1da0f8f4-3fed-4aaa-ab9a-d2a43652dce1","stateCode":"KW","latitude":"-24.57389000","longitude":"25.83417000"},{"id":"e0e2837c-f062-4869-8613-3ea58d2478c8","name":"Khudumelapye","ru":"Khudumelapye","country":"b759f6c9-0c98-46f6-b570-4cd8b4da4565","countryCode":"BW","state":"1da0f8f4-3fed-4aaa-ab9a-d2a43652dce1","stateCode":"KW","latitude":"-23.88333000","longitude":"24.75000000"},{"id":"0fa0d43a-8f09-4ff9-bbad-4d960b6caf9c","name":"Lenchwe Le Tau","ru":"Lenchwe Le Tau","country":"b759f6c9-0c98-46f6-b570-4cd8b4da4565","countryCode":"BW","state":"1da0f8f4-3fed-4aaa-ab9a-d2a43652dce1","stateCode":"KW","latitude":"-24.38333000","longitude":"25.85000000"},{"id":"e44f4cb1-3d04-4487-a11d-32fbb822ad6d","name":"Letlhakeng","ru":"Letlhakeng","country":"b759f6c9-0c98-46f6-b570-4cd8b4da4565","countryCode":"BW","state":"1da0f8f4-3fed-4aaa-ab9a-d2a43652dce1","stateCode":"KW","latitude":"-24.09442000","longitude":"25.02977000"},{"id":"8c03aac1-2964-4a85-b612-0107007b3bf7","name":"Metsemotlhaba","ru":"Metsemotlhaba","country":"b759f6c9-0c98-46f6-b570-4cd8b4da4565","countryCode":"BW","state":"1da0f8f4-3fed-4aaa-ab9a-d2a43652dce1","stateCode":"KW","latitude":"-24.55139000","longitude":"25.80306000"},{"id":"a050307d-4704-452c-9e8f-d37e73ef5560","name":"Mmopone","ru":"Mmopone","country":"b759f6c9-0c98-46f6-b570-4cd8b4da4565","countryCode":"BW","state":"1da0f8f4-3fed-4aaa-ab9a-d2a43652dce1","stateCode":"KW","latitude":"-24.56694000","longitude":"25.87417000"},{"id":"a0cb4402-79ea-4983-b7b8-a5810b9fd963","name":"Mogoditshane","ru":"Mogoditshane","country":"b759f6c9-0c98-46f6-b570-4cd8b4da4565","countryCode":"BW","state":"1da0f8f4-3fed-4aaa-ab9a-d2a43652dce1","stateCode":"KW","latitude":"-24.62694000","longitude":"25.86556000"},{"id":"c299ddcd-752b-416a-87e1-cf7274fa85cb","name":"Molepolole","ru":"Molepolole","country":"b759f6c9-0c98-46f6-b570-4cd8b4da4565","countryCode":"BW","state":"1da0f8f4-3fed-4aaa-ab9a-d2a43652dce1","stateCode":"KW","latitude":"-24.40659000","longitude":"25.49508000"},{"id":"42186ccd-a1bc-4acd-a32e-94801532ba67","name":"Nkoyaphiri","ru":"Nkoyaphiri","country":"b759f6c9-0c98-46f6-b570-4cd8b4da4565","countryCode":"BW","state":"1da0f8f4-3fed-4aaa-ab9a-d2a43652dce1","stateCode":"KW","latitude":"-24.63222000","longitude":"25.83139000"},{"id":"e23f59c3-7083-4059-a8ef-e429eb77a2b3","name":"Thamaga","ru":"Thamaga","country":"b759f6c9-0c98-46f6-b570-4cd8b4da4565","countryCode":"BW","state":"1da0f8f4-3fed-4aaa-ab9a-d2a43652dce1","stateCode":"KW","latitude":"-24.67014000","longitude":"25.53975000"},{"id":"6d811a62-b531-494d-a15a-0edb83fc7d35","name":"Dukwe","ru":"Dukwe","country":"b759f6c9-0c98-46f6-b570-4cd8b4da4565","countryCode":"BW","state":"af61e146-dec6-458b-aeda-7c010d763cb5","stateCode":"NE","latitude":"-20.58333000","longitude":"26.41667000"},{"id":"af414ac3-bd30-4049-987a-5fdd1456cb68","name":"Makaleng","ru":"Makaleng","country":"b759f6c9-0c98-46f6-b570-4cd8b4da4565","countryCode":"BW","state":"af61e146-dec6-458b-aeda-7c010d763cb5","stateCode":"NE","latitude":"-20.90000000","longitude":"27.28333000"},{"id":"6409a9f7-e993-4916-a852-d9c6d1a90502","name":"Masunga","ru":"Masunga","country":"b759f6c9-0c98-46f6-b570-4cd8b4da4565","countryCode":"BW","state":"af61e146-dec6-458b-aeda-7c010d763cb5","stateCode":"NE","latitude":"-20.62455000","longitude":"27.44875000"},{"id":"b456151f-b0ce-4a51-8bd5-b17a09752ca0","name":"Sebina","ru":"Sebina","country":"b759f6c9-0c98-46f6-b570-4cd8b4da4565","countryCode":"BW","state":"af61e146-dec6-458b-aeda-7c010d763cb5","stateCode":"NE","latitude":"-20.86667000","longitude":"27.25000000"},{"id":"a9c5223c-7117-4f1a-9c65-8f27881a229c","name":"Maun","ru":"Maun","country":"b759f6c9-0c98-46f6-b570-4cd8b4da4565","countryCode":"BW","state":"b215fb9c-54a3-4ead-99db-fba20425cc82","stateCode":"NW","latitude":"-19.98333000","longitude":"23.41667000"},{"id":"b93958fc-d09d-4248-9a89-56b497afb38b","name":"Nokaneng","ru":"Nokaneng","country":"b759f6c9-0c98-46f6-b570-4cd8b4da4565","countryCode":"BW","state":"b215fb9c-54a3-4ead-99db-fba20425cc82","stateCode":"NW","latitude":"-19.66667000","longitude":"22.26667000"},{"id":"58c94247-990f-4bf0-a571-3f94c699aa9e","name":"Pandamatenga","ru":"Pandamatenga","country":"b759f6c9-0c98-46f6-b570-4cd8b4da4565","countryCode":"BW","state":"b215fb9c-54a3-4ead-99db-fba20425cc82","stateCode":"NW","latitude":"-18.52779000","longitude":"25.62698000"},{"id":"836cc33b-c4ef-4c3a-b300-c4c4f51f2812","name":"Sehithwa","ru":"Sehithwa","country":"b759f6c9-0c98-46f6-b570-4cd8b4da4565","countryCode":"BW","state":"b215fb9c-54a3-4ead-99db-fba20425cc82","stateCode":"NW","latitude":"-20.46667000","longitude":"22.71667000"},{"id":"9e144aea-ab64-4132-ad7f-8b8986dbbfb1","name":"Shakawe","ru":"Shakawe","country":"b759f6c9-0c98-46f6-b570-4cd8b4da4565","countryCode":"BW","state":"b215fb9c-54a3-4ead-99db-fba20425cc82","stateCode":"NW","latitude":"-18.36536000","longitude":"21.84219000"},{"id":"07d5bb9e-453c-41fc-9047-56f0ab11c2cb","name":"Gaborone","ru":"Gaborone","country":"b759f6c9-0c98-46f6-b570-4cd8b4da4565","countryCode":"BW","state":"8417885e-2ee8-4971-9e75-703281730dee","stateCode":"SE","latitude":"-24.76234000","longitude":"25.79950000"},{"id":"95ee22c9-617d-4a2e-a93c-0cb335768ce8","name":"Janeng","ru":"Janeng","country":"b759f6c9-0c98-46f6-b570-4cd8b4da4565","countryCode":"BW","state":"8417885e-2ee8-4971-9e75-703281730dee","stateCode":"SE","latitude":"-25.41667000","longitude":"25.55000000"},{"id":"d0f5c2d5-e0bd-4eaa-8e3d-961cda1173ed","name":"Kopong","ru":"Kopong","country":"b759f6c9-0c98-46f6-b570-4cd8b4da4565","countryCode":"BW","state":"8417885e-2ee8-4971-9e75-703281730dee","stateCode":"SE","latitude":"-24.48333000","longitude":"25.88333000"},{"id":"991a9dc4-d5ee-4f54-b064-52509fad79d0","name":"Otse","ru":"Otse","country":"b759f6c9-0c98-46f6-b570-4cd8b4da4565","countryCode":"BW","state":"8417885e-2ee8-4971-9e75-703281730dee","stateCode":"SE","latitude":"-25.01667000","longitude":"25.73333000"},{"id":"74a64f28-73bb-4bde-a17e-06f3410a592b","name":"Ramotswa","ru":"Ramotswa","country":"b759f6c9-0c98-46f6-b570-4cd8b4da4565","countryCode":"BW","state":"8417885e-2ee8-4971-9e75-703281730dee","stateCode":"SE","latitude":"-24.87158000","longitude":"25.86989000"},{"id":"83e2f56f-27d2-47e9-9749-5f8dcd6bfff0","name":"Kanye","ru":"Kanye","country":"b759f6c9-0c98-46f6-b570-4cd8b4da4565","countryCode":"BW","state":"8b400191-8aed-4642-ad6c-778e76cb2583","stateCode":"SO","latitude":"-24.96675000","longitude":"25.33273000"},{"id":"8f5390b4-026f-40bc-ada9-7ecdcc72fd66","name":"Khakhea","ru":"Khakhea","country":"b759f6c9-0c98-46f6-b570-4cd8b4da4565","countryCode":"BW","state":"8b400191-8aed-4642-ad6c-778e76cb2583","stateCode":"SO","latitude":"-24.68954000","longitude":"23.49403000"},{"id":"26205c0c-640b-4dc3-ba60-0177c4a64b66","name":"Mosopa","ru":"Mosopa","country":"b759f6c9-0c98-46f6-b570-4cd8b4da4565","countryCode":"BW","state":"8b400191-8aed-4642-ad6c-778e76cb2583","stateCode":"SO","latitude":"-24.77180000","longitude":"25.42156000"},{"id":"16a4ef09-4032-44cd-9cfa-c5f6e77aa4b2","name":"Sekoma","ru":"Sekoma","country":"b759f6c9-0c98-46f6-b570-4cd8b4da4565","countryCode":"BW","state":"8b400191-8aed-4642-ad6c-778e76cb2583","stateCode":"SO","latitude":"-24.40000000","longitude":"23.88333000"}]