[{"id":"d799b7e5-b2f9-4467-9839-7371f3ab5657","name":"Ajdabiya","ru":"Ajdabiya","country":"d1a9e05d-dfa9-4f7f-baca-122d5e024958","countryCode":"LY","state":"acd9dd4d-0249-4b37-9b47-b7c7a05b844e","stateCode":"WA","latitude":"30.75545000","longitude":"20.22625000"},{"id":"f9da0691-86d8-400f-a919-6046f95311a2","name":"Al Burayqah","ru":"Al Burayqah","country":"d1a9e05d-dfa9-4f7f-baca-122d5e024958","countryCode":"LY","state":"acd9dd4d-0249-4b37-9b47-b7c7a05b844e","stateCode":"WA","latitude":"30.40624000","longitude":"19.57386000"},{"id":"0ff89b0a-f556-4fd8-bf63-bf409ee5b9bb","name":"Awjilah","ru":"Awjilah","country":"d1a9e05d-dfa9-4f7f-baca-122d5e024958","countryCode":"LY","state":"acd9dd4d-0249-4b37-9b47-b7c7a05b844e","stateCode":"WA","latitude":"29.10806000","longitude":"21.28694000"},{"id":"671ca21e-e96b-4b36-9237-ef2307ab4e33","name":"Az Zuwaytīnah","ru":"Az Zuwaytīnah","country":"d1a9e05d-dfa9-4f7f-baca-122d5e024958","countryCode":"LY","state":"acd9dd4d-0249-4b37-9b47-b7c7a05b844e","stateCode":"WA","latitude":"30.95220000","longitude":"20.12022000"},{"id":"d281a4d1-4cc7-4ee9-8d09-7a9a029bb120","name":"Gialo","ru":"Gialo","country":"d1a9e05d-dfa9-4f7f-baca-122d5e024958","countryCode":"LY","state":"acd9dd4d-0249-4b37-9b47-b7c7a05b844e","stateCode":"WA","latitude":"29.03333000","longitude":"21.55000000"},{"id":"3452fc68-16b2-4187-96a2-ef57df9a97f4","name":"Marādah","ru":"Marādah","country":"d1a9e05d-dfa9-4f7f-baca-122d5e024958","countryCode":"LY","state":"acd9dd4d-0249-4b37-9b47-b7c7a05b844e","stateCode":"WA","latitude":"29.22054000","longitude":"19.20454000"},{"id":"55ede0a1-795e-4632-a630-3039964443a7","name":"Benghazi","ru":"Benghazi","country":"d1a9e05d-dfa9-4f7f-baca-122d5e024958","countryCode":"LY","state":"3d8942e6-5fb5-4807-aeec-cb7403962b18","stateCode":"BA","latitude":"32.11486000","longitude":"20.06859000"},{"id":"c0d859f9-7b33-4f56-9263-ec7df59b1311","name":"Qaryat Sulūq","ru":"Qaryat Sulūq","country":"d1a9e05d-dfa9-4f7f-baca-122d5e024958","countryCode":"LY","state":"3d8942e6-5fb5-4807-aeec-cb7403962b18","stateCode":"BA","latitude":"31.66818000","longitude":"20.25205000"},{"id":"217cf522-ec39-4ffd-9f85-885c84d05a77","name":"Al Qubbah","ru":"Al Qubbah","country":"d1a9e05d-dfa9-4f7f-baca-122d5e024958","countryCode":"LY","state":"77301e44-a03f-45f6-be62-700aba842cc6","stateCode":"DR","latitude":"32.75684000","longitude":"22.24106000"},{"id":"859b846d-14e6-4dd0-8076-b59134b08627","name":"Darnah","ru":"Darnah","country":"d1a9e05d-dfa9-4f7f-baca-122d5e024958","countryCode":"LY","state":"77301e44-a03f-45f6-be62-700aba842cc6","stateCode":"DR","latitude":"32.76704000","longitude":"22.63669000"},{"id":"51b71069-8135-4cec-a0c3-c99132b3028c","name":"Ghat","ru":"Ghat","country":"d1a9e05d-dfa9-4f7f-baca-122d5e024958","countryCode":"LY","state":"875a4d57-68fa-4f29-82bf-ab49a5f5cd05","stateCode":"GT","latitude":"24.96334000","longitude":"10.18003000"},{"id":"a7cfe170-aec2-432b-b199-1598a805b1eb","name":"Al Bayḑā’","ru":"Al Bayḑā’","country":"d1a9e05d-dfa9-4f7f-baca-122d5e024958","countryCode":"LY","state":"c79547ee-61db-4511-8ca9-d37a3b837b56","stateCode":"JA","latitude":"32.76272000","longitude":"21.75506000"},{"id":"f87063f8-d254-4b59-80c9-3fe5b7329158","name":"Gharyan","ru":"Gharyan","country":"d1a9e05d-dfa9-4f7f-baca-122d5e024958","countryCode":"LY","state":"c6ee2a68-1a0c-4e5d-b10d-cbae60ba0e0c","stateCode":"JG","latitude":"32.17222000","longitude":"13.02028000"},{"id":"fceef7a6-276c-435c-9702-f70c87352264","name":"Giado","ru":"Giado","country":"d1a9e05d-dfa9-4f7f-baca-122d5e024958","countryCode":"LY","state":"c6ee2a68-1a0c-4e5d-b10d-cbae60ba0e0c","stateCode":"JG","latitude":"31.95506000","longitude":"12.02901000"},{"id":"a562c333-9df0-4435-948b-8341424334f4","name":"Mizdah","ru":"Mizdah","country":"d1a9e05d-dfa9-4f7f-baca-122d5e024958","countryCode":"LY","state":"c6ee2a68-1a0c-4e5d-b10d-cbae60ba0e0c","stateCode":"JG","latitude":"31.44934000","longitude":"12.98530000"},{"id":"50cb7b52-091d-4a88-8d83-857290af30de","name":"Yafran","ru":"Yafran","country":"d1a9e05d-dfa9-4f7f-baca-122d5e024958","countryCode":"LY","state":"c6ee2a68-1a0c-4e5d-b10d-cbae60ba0e0c","stateCode":"JG","latitude":"32.06329000","longitude":"12.52859000"},{"id":"b3d81750-2f2a-470f-bf8d-c7ef831c65f4","name":"Zintan","ru":"Zintan","country":"d1a9e05d-dfa9-4f7f-baca-122d5e024958","countryCode":"LY","state":"c6ee2a68-1a0c-4e5d-b10d-cbae60ba0e0c","stateCode":"JG","latitude":"31.93155000","longitude":"12.25291000"},{"id":"4a9b4bbc-c4e9-44bc-a239-88370e640149","name":"Al ‘Azīzīyah","ru":"Al ‘Azīzīyah","country":"d1a9e05d-dfa9-4f7f-baca-122d5e024958","countryCode":"LY","state":"8a2fab72-d933-4cbd-b606-e39caab3eba1","stateCode":"JI","latitude":"32.53194000","longitude":"13.01750000"},{"id":"2d0de0fc-6c4b-4408-81fc-7fc444b5532f","name":"Hūn","ru":"Hūn","country":"d1a9e05d-dfa9-4f7f-baca-122d5e024958","countryCode":"LY","state":"5085d7fa-ff5f-4078-8295-a55a53fbeb07","stateCode":"JU","latitude":"29.12684000","longitude":"15.94772000"},{"id":"d8494936-b840-432e-9038-51cc1ae60b0b","name":"Waddān","ru":"Waddān","country":"d1a9e05d-dfa9-4f7f-baca-122d5e024958","countryCode":"LY","state":"5085d7fa-ff5f-4078-8295-a55a53fbeb07","stateCode":"JU","latitude":"29.16140000","longitude":"16.13904000"},{"id":"b8cf20a0-48ad-478e-9d90-ef6cd779ae09","name":"Al Jawf","ru":"Al Jawf","country":"d1a9e05d-dfa9-4f7f-baca-122d5e024958","countryCode":"LY","state":"c0eee728-cdec-4946-a5cc-1d9956c17c77","stateCode":"KF","latitude":"24.19890000","longitude":"23.29093000"},{"id":"fe3905b0-c84c-44d8-9ad6-780bc3924e3f","name":"At Tāj","ru":"At Tāj","country":"d1a9e05d-dfa9-4f7f-baca-122d5e024958","countryCode":"LY","state":"c0eee728-cdec-4946-a5cc-1d9956c17c77","stateCode":"KF","latitude":"24.20487000","longitude":"23.28570000"},{"id":"ed8620eb-d8c3-4ee2-81d8-dbad313f893b","name":"Al Abyār","ru":"Al Abyār","country":"d1a9e05d-dfa9-4f7f-baca-122d5e024958","countryCode":"LY","state":"bbbdc950-eb12-404b-b2d6-c5431d5269e7","stateCode":"MJ","latitude":"32.19000000","longitude":"20.59653000"},{"id":"b7cb4a6a-5e07-476f-af62-b8dab99c9291","name":"Al Marj","ru":"Al Marj","country":"d1a9e05d-dfa9-4f7f-baca-122d5e024958","countryCode":"LY","state":"bbbdc950-eb12-404b-b2d6-c5431d5269e7","stateCode":"MJ","latitude":"32.49257000","longitude":"20.82909000"},{"id":"ed53a08b-ccd7-450b-85f6-19eab9a094ac","name":"Tūkrah","ru":"Tūkrah","country":"d1a9e05d-dfa9-4f7f-baca-122d5e024958","countryCode":"LY","state":"bbbdc950-eb12-404b-b2d6-c5431d5269e7","stateCode":"MJ","latitude":"32.53414000","longitude":"20.57911000"},{"id":"f2c0eb27-3e46-4701-9a88-a8ec408a73a9","name":"Bani Walid","ru":"Bani Walid","country":"d1a9e05d-dfa9-4f7f-baca-122d5e024958","countryCode":"LY","state":"73ef22b5-86be-45da-b87f-6acde4e7007a","stateCode":"MI","latitude":"31.74554000","longitude":"13.98354000"},{"id":"71a34b49-eb0c-433e-8df2-b1542f7b74b1","name":"Mişrātah","ru":"Mişrātah","country":"d1a9e05d-dfa9-4f7f-baca-122d5e024958","countryCode":"LY","state":"73ef22b5-86be-45da-b87f-6acde4e7007a","stateCode":"MI","latitude":"32.37535000","longitude":"15.09254000"},{"id":"c768cb31-11cc-4399-bdc3-977276de9d56","name":"Zliten","ru":"Zliten","country":"d1a9e05d-dfa9-4f7f-baca-122d5e024958","countryCode":"LY","state":"73ef22b5-86be-45da-b87f-6acde4e7007a","stateCode":"MI","latitude":"32.46739000","longitude":"14.56874000"},{"id":"b5a49953-0cf6-43de-8803-364e1c90066e","name":"Al Khums","ru":"Al Khums","country":"d1a9e05d-dfa9-4f7f-baca-122d5e024958","countryCode":"LY","state":"0d022640-24d2-489b-a17d-52de61b93187","stateCode":"MB","latitude":"32.64861000","longitude":"14.26191000"},{"id":"26ec4400-ca58-45b2-9905-7eb675e7134b","name":"Masallātah","ru":"Masallātah","country":"d1a9e05d-dfa9-4f7f-baca-122d5e024958","countryCode":"LY","state":"0d022640-24d2-489b-a17d-52de61b93187","stateCode":"MB","latitude":"32.61667000","longitude":"14.00000000"},{"id":"70d70b7a-3ce4-48d9-91c7-dbd4df44f0c7","name":"Tarhuna","ru":"Tarhuna","country":"d1a9e05d-dfa9-4f7f-baca-122d5e024958","countryCode":"LY","state":"0d022640-24d2-489b-a17d-52de61b93187","stateCode":"MB","latitude":"32.43501000","longitude":"13.63320000"},{"id":"6e04e8aa-7a18-4115-9b69-7bf95b42ab49","name":"Al Qaţrūn","ru":"Al Qaţrūn","country":"d1a9e05d-dfa9-4f7f-baca-122d5e024958","countryCode":"LY","state":"1beb990c-0fa4-497f-b5e9-f5fab2cb3081","stateCode":"MQ","latitude":"24.95139000","longitude":"14.64861000"},{"id":"3bbf48a2-4d62-43a9-8696-cc000ec1ab4a","name":"Murzuq","ru":"Murzuq","country":"d1a9e05d-dfa9-4f7f-baca-122d5e024958","countryCode":"LY","state":"1beb990c-0fa4-497f-b5e9-f5fab2cb3081","stateCode":"MQ","latitude":"25.91552000","longitude":"13.91839000"},{"id":"49614d12-b50c-4a00-ba59-0c55901effb4","name":"Ghadāmis","ru":"Ghadāmis","country":"d1a9e05d-dfa9-4f7f-baca-122d5e024958","countryCode":"LY","state":"fd7855ab-07d1-433e-a578-2201b4de7f26","stateCode":"NL","latitude":"30.13366000","longitude":"9.50072000"},{"id":"0ab5d3b0-aa6c-4654-81bd-3a1cc5bb3914","name":"Nālūt","ru":"Nālūt","country":"d1a9e05d-dfa9-4f7f-baca-122d5e024958","countryCode":"LY","state":"fd7855ab-07d1-433e-a578-2201b4de7f26","stateCode":"NL","latitude":"31.86848000","longitude":"10.98120000"},{"id":"adb2c7fc-389d-44ac-854d-dbd2390e5347","name":"Al Ajaylat","ru":"Al Ajaylat","country":"d1a9e05d-dfa9-4f7f-baca-122d5e024958","countryCode":"LY","state":"19663104-f84e-441c-9ebd-9cf7408ab091","stateCode":"NQ","latitude":"32.75718000","longitude":"12.37633000"},{"id":"1728ed9d-4a72-4ee1-844d-24f48f4363b5","name":"Zalţan","ru":"Zalţan","country":"d1a9e05d-dfa9-4f7f-baca-122d5e024958","countryCode":"LY","state":"19663104-f84e-441c-9ebd-9cf7408ab091","stateCode":"NQ","latitude":"32.94699000","longitude":"11.86668000"},{"id":"063233ec-c36e-4901-b56f-e6b812300b55","name":"Zuwārah","ru":"Zuwārah","country":"d1a9e05d-dfa9-4f7f-baca-122d5e024958","countryCode":"LY","state":"19663104-f84e-441c-9ebd-9cf7408ab091","stateCode":"NQ","latitude":"32.93120000","longitude":"12.08199000"},{"id":"cff31e08-32f0-4987-95b6-bbc3a4210747","name":"Al Jadīd","ru":"Al Jadīd","country":"d1a9e05d-dfa9-4f7f-baca-122d5e024958","countryCode":"LY","state":"6114e544-e484-4bfd-b783-9743b104d32c","stateCode":"SB","latitude":"27.05000000","longitude":"14.40000000"},{"id":"16b08e56-3c54-47a7-931c-3cb9b93fa0bc","name":"Sabhā","ru":"Sabhā","country":"d1a9e05d-dfa9-4f7f-baca-122d5e024958","countryCode":"LY","state":"6114e544-e484-4bfd-b783-9743b104d32c","stateCode":"SB","latitude":"27.03766000","longitude":"14.42832000"},{"id":"9ca35323-dae3-4763-af74-fd1238fda430","name":"Qasr Abu Hadi","ru":"Qasr Abu Hadi","country":"d1a9e05d-dfa9-4f7f-baca-122d5e024958","countryCode":"LY","state":"8ba1f8e4-4a86-4d13-a0f1-b47d870abe28","stateCode":"SR","latitude":"31.05926000","longitude":"16.65905000"},{"id":"6d00698c-2c78-4e11-baca-507a0de4b0a5","name":"Sirte","ru":"Sirte","country":"d1a9e05d-dfa9-4f7f-baca-122d5e024958","countryCode":"LY","state":"8ba1f8e4-4a86-4d13-a0f1-b47d870abe28","stateCode":"SR","latitude":"31.20892000","longitude":"16.58866000"},{"id":"5346fa3b-6303-4895-b921-d82b65c2f405","name":"Tagiura","ru":"Tagiura","country":"d1a9e05d-dfa9-4f7f-baca-122d5e024958","countryCode":"LY","state":"2fec8b93-c9fa-4cfa-9729-b9318f77d628","stateCode":"TB","latitude":"32.88167000","longitude":"13.35056000"},{"id":"a5405678-725b-40e1-97ef-115e208f6220","name":"Tripoli","ru":"Tripoli","country":"d1a9e05d-dfa9-4f7f-baca-122d5e024958","countryCode":"LY","state":"2fec8b93-c9fa-4cfa-9729-b9318f77d628","stateCode":"TB","latitude":"32.88743000","longitude":"13.18733000"},{"id":"ee669247-969e-4bdc-9eda-2b2460a574f9","name":"Ubari","ru":"Ubari","country":"d1a9e05d-dfa9-4f7f-baca-122d5e024958","countryCode":"LY","state":"7dcb65f0-b383-41d2-9b8b-92b7f8a09a2e","stateCode":"WD","latitude":"26.59034000","longitude":"12.77511000"},{"id":"68643a92-4946-4a6c-8d6c-7b352d9966a3","name":"Brak","ru":"Brak","country":"d1a9e05d-dfa9-4f7f-baca-122d5e024958","countryCode":"LY","state":"4a345f76-b884-4c7c-98ab-8a4eabcd03aa","stateCode":"WS","latitude":"27.54956000","longitude":"14.27139000"},{"id":"fb0b0738-6d05-4802-9b20-037480b23b7a","name":"Idrī","ru":"Idrī","country":"d1a9e05d-dfa9-4f7f-baca-122d5e024958","countryCode":"LY","state":"4a345f76-b884-4c7c-98ab-8a4eabcd03aa","stateCode":"WS","latitude":"27.44707000","longitude":"13.05173000"},{"id":"3eeec465-9879-407f-8d5f-35a51b133f6e","name":"Az Zāwīyah","ru":"Az Zāwīyah","country":"d1a9e05d-dfa9-4f7f-baca-122d5e024958","countryCode":"LY","state":"212fa9d1-0834-42a9-828c-a90a562dd3a7","stateCode":"ZA","latitude":"32.75710000","longitude":"12.72764000"},{"id":"93551505-3006-4d0f-a522-e951a662dec3","name":"Şabrātah","ru":"Şabrātah","country":"d1a9e05d-dfa9-4f7f-baca-122d5e024958","countryCode":"LY","state":"212fa9d1-0834-42a9-828c-a90a562dd3a7","stateCode":"ZA","latitude":"32.79335000","longitude":"12.48845000"},{"id":"cfe5bd38-2fd6-483b-bef9-0c32326763c5","name":"Şurmān","ru":"Şurmān","country":"d1a9e05d-dfa9-4f7f-baca-122d5e024958","countryCode":"LY","state":"212fa9d1-0834-42a9-828c-a90a562dd3a7","stateCode":"ZA","latitude":"32.75668000","longitude":"12.57159000"},{"id":"b91028eb-2eed-40d3-afc9-eec09451ef64","name":"Zawiya","ru":"Zawiya","country":"d1a9e05d-dfa9-4f7f-baca-122d5e024958","countryCode":"LY","state":"212fa9d1-0834-42a9-828c-a90a562dd3a7","stateCode":"ZA","latitude":"32.75222000","longitude":"12.72778000"}]