[{"id":"6fd0e630-e4c3-414c-b3d4-eb07ba15173a","name":"Aden","ru":"Aden","country":"87ee5005-9465-4be9-bdda-f31070489b99","countryCode":"YE","state":"ae825124-7857-46c7-bb19-f08d8231df36","stateCode":"AD","latitude":"12.77944000","longitude":"45.03667000"},{"id":"d4328220-d3a6-4513-bf87-712124347d42","name":"Al Buraiqeh","ru":"Al Buraiqeh","country":"87ee5005-9465-4be9-bdda-f31070489b99","countryCode":"YE","state":"ae825124-7857-46c7-bb19-f08d8231df36","stateCode":"AD","latitude":"12.80377000","longitude":"44.77615000"},{"id":"d98eb703-1265-44ee-8abc-26e230d050f9","name":"Al Mansura","ru":"Al Mansura","country":"87ee5005-9465-4be9-bdda-f31070489b99","countryCode":"YE","state":"ae825124-7857-46c7-bb19-f08d8231df36","stateCode":"AD","latitude":"12.85320000","longitude":"44.97240000"},{"id":"a218616f-43e4-41b6-9a28-6514135cb916","name":"Al Mualla","ru":"Al Mualla","country":"87ee5005-9465-4be9-bdda-f31070489b99","countryCode":"YE","state":"ae825124-7857-46c7-bb19-f08d8231df36","stateCode":"AD","latitude":"12.65843000","longitude":"43.42743000"},{"id":"d87afafe-fe5c-4e8f-91fe-c7afb1353514","name":"Ash Shaikh Outhman","ru":"Ash Shaikh Outhman","country":"87ee5005-9465-4be9-bdda-f31070489b99","countryCode":"YE","state":"ae825124-7857-46c7-bb19-f08d8231df36","stateCode":"AD","latitude":"12.88640000","longitude":"45.01560000"},{"id":"3bde9185-4421-4be7-88db-418de9595567","name":"Attawahi","ru":"Attawahi","country":"87ee5005-9465-4be9-bdda-f31070489b99","countryCode":"YE","state":"ae825124-7857-46c7-bb19-f08d8231df36","stateCode":"AD","latitude":"12.77410000","longitude":"44.99410000"},{"id":"ef598129-6947-4d21-8ea4-a653c4b0726c","name":"Craiter","ru":"Craiter","country":"87ee5005-9465-4be9-bdda-f31070489b99","countryCode":"YE","state":"ae825124-7857-46c7-bb19-f08d8231df36","stateCode":"AD","latitude":"12.77310000","longitude":"45.03810000"},{"id":"03d88fae-1d7f-4286-bb21-8c7befe80858","name":"Dar Sad","ru":"Dar Sad","country":"87ee5005-9465-4be9-bdda-f31070489b99","countryCode":"YE","state":"ae825124-7857-46c7-bb19-f08d8231df36","stateCode":"AD","latitude":"12.90700000","longitude":"44.97840000"},{"id":"4396b634-ac2e-4bbf-96cd-93f1f9e59731","name":"Al Ashah","ru":"Al Ashah","country":"87ee5005-9465-4be9-bdda-f31070489b99","countryCode":"YE","state":"97f08dc8-9bb2-4c0f-aec2-7eb78cfd7274","stateCode":"AM","latitude":"16.32400000","longitude":"43.78740000"},{"id":"feac7e32-e9c5-4c3f-91f7-968c3cf1a9ac","name":"Al Madan","ru":"Al Madan","country":"87ee5005-9465-4be9-bdda-f31070489b99","countryCode":"YE","state":"97f08dc8-9bb2-4c0f-aec2-7eb78cfd7274","stateCode":"AM","latitude":"16.23280000","longitude":"43.63900000"},{"id":"35fcce91-56a3-443b-9cd2-3ccda961295b","name":"Al Qaflah","ru":"Al Qaflah","country":"87ee5005-9465-4be9-bdda-f31070489b99","countryCode":"YE","state":"97f08dc8-9bb2-4c0f-aec2-7eb78cfd7274","stateCode":"AM","latitude":"16.33859000","longitude":"43.70361000"},{"id":"654f7327-ae2a-465f-a220-e0ab9d26df64","name":"As Sawd","ru":"As Sawd","country":"87ee5005-9465-4be9-bdda-f31070489b99","countryCode":"YE","state":"97f08dc8-9bb2-4c0f-aec2-7eb78cfd7274","stateCode":"AM","latitude":"15.81340000","longitude":"43.77700000"},{"id":"3d73a313-8277-46d7-b8b7-dbe3f85a6837","name":"As Sudah","ru":"As Sudah","country":"87ee5005-9465-4be9-bdda-f31070489b99","countryCode":"YE","state":"97f08dc8-9bb2-4c0f-aec2-7eb78cfd7274","stateCode":"AM","latitude":"15.96640000","longitude":"43.77560000"},{"id":"7f7cba31-a4f5-4fda-8649-2435d3733d9f","name":"‘Amrān","ru":"‘Amrān","country":"87ee5005-9465-4be9-bdda-f31070489b99","countryCode":"YE","state":"97f08dc8-9bb2-4c0f-aec2-7eb78cfd7274","stateCode":"AM","latitude":"15.65940000","longitude":"43.94385000"},{"id":"d1846a6c-3f32-4b25-aee8-32baf0378fc7","name":"Bani Suraim","ru":"Bani Suraim","country":"87ee5005-9465-4be9-bdda-f31070489b99","countryCode":"YE","state":"97f08dc8-9bb2-4c0f-aec2-7eb78cfd7274","stateCode":"AM","latitude":"16.12530000","longitude":"43.96020000"},{"id":"ae30dfd7-f273-47e7-9eb4-8d63a5ccba43","name":"Dhi Bin","ru":"Dhi Bin","country":"87ee5005-9465-4be9-bdda-f31070489b99","countryCode":"YE","state":"97f08dc8-9bb2-4c0f-aec2-7eb78cfd7274","stateCode":"AM","latitude":"16.02760000","longitude":"44.15150000"},{"id":"944e3a02-548c-4822-b05a-575b5a92f929","name":"Habur Zulaymah","ru":"Habur Zulaymah","country":"87ee5005-9465-4be9-bdda-f31070489b99","countryCode":"YE","state":"97f08dc8-9bb2-4c0f-aec2-7eb78cfd7274","stateCode":"AM","latitude":"16.03500000","longitude":"43.73380000"},{"id":"4059da3a-0ad3-4cfa-99a4-2bd548e1a7ee","name":"Harf Sufyan","ru":"Harf Sufyan","country":"87ee5005-9465-4be9-bdda-f31070489b99","countryCode":"YE","state":"97f08dc8-9bb2-4c0f-aec2-7eb78cfd7274","stateCode":"AM","latitude":"16.41389000","longitude":"43.98571000"},{"id":"19765570-ae78-4144-9f04-6aaf92e77cd4","name":"Hooth","ru":"Hooth","country":"87ee5005-9465-4be9-bdda-f31070489b99","countryCode":"YE","state":"97f08dc8-9bb2-4c0f-aec2-7eb78cfd7274","stateCode":"AM","latitude":"16.28397000","longitude":"43.97811000"},{"id":"7bc1587b-a241-4e8d-b5b7-516b13ba1e4a","name":"Iyal Surayh","ru":"Iyal Surayh","country":"87ee5005-9465-4be9-bdda-f31070489b99","countryCode":"YE","state":"97f08dc8-9bb2-4c0f-aec2-7eb78cfd7274","stateCode":"AM","latitude":"15.71460000","longitude":"43.99740000"},{"id":"4ac66666-e4f2-4100-adb2-33d15fedc924","name":"Jabal Iyal Yazid","ru":"Jabal Iyal Yazid","country":"87ee5005-9465-4be9-bdda-f31070489b99","countryCode":"YE","state":"97f08dc8-9bb2-4c0f-aec2-7eb78cfd7274","stateCode":"AM","latitude":"15.77170000","longitude":"43.90510000"},{"id":"e137058f-bd9e-4fab-a1cf-8299f20890b0","name":"Khamir","ru":"Khamir","country":"87ee5005-9465-4be9-bdda-f31070489b99","countryCode":"YE","state":"97f08dc8-9bb2-4c0f-aec2-7eb78cfd7274","stateCode":"AM","latitude":"15.97653000","longitude":"43.93371000"},{"id":"be1cefa4-e6b5-4e2d-b862-185d9eb4e2bf","name":"Kharif","ru":"Kharif","country":"87ee5005-9465-4be9-bdda-f31070489b99","countryCode":"YE","state":"97f08dc8-9bb2-4c0f-aec2-7eb78cfd7274","stateCode":"AM","latitude":"15.84700000","longitude":"44.08220000"},{"id":"3213dcc7-989c-416b-ac00-fe580993c05c","name":"Maswar","ru":"Maswar","country":"87ee5005-9465-4be9-bdda-f31070489b99","countryCode":"YE","state":"97f08dc8-9bb2-4c0f-aec2-7eb78cfd7274","stateCode":"AM","latitude":"15.59860000","longitude":"43.69250000"},{"id":"d2c4b558-5dfd-4acf-b64b-9630190dfadf","name":"Raydah","ru":"Raydah","country":"87ee5005-9465-4be9-bdda-f31070489b99","countryCode":"YE","state":"97f08dc8-9bb2-4c0f-aec2-7eb78cfd7274","stateCode":"AM","latitude":"15.74056000","longitude":"44.05634000"},{"id":"ac781d71-b69c-482d-9189-080f87b944c2","name":"Shahārah","ru":"Shahārah","country":"87ee5005-9465-4be9-bdda-f31070489b99","countryCode":"YE","state":"97f08dc8-9bb2-4c0f-aec2-7eb78cfd7274","stateCode":"AM","latitude":"16.18000000","longitude":"43.70942000"},{"id":"aa89eed6-3476-449d-bad6-7937cde2f301","name":"Suwayr","ru":"Suwayr","country":"87ee5005-9465-4be9-bdda-f31070489b99","countryCode":"YE","state":"97f08dc8-9bb2-4c0f-aec2-7eb78cfd7274","stateCode":"AM","latitude":"16.06110000","longitude":"43.62120000"},{"id":"425ed04f-aa50-483e-898d-99502454da08","name":"Thula","ru":"Thula","country":"87ee5005-9465-4be9-bdda-f31070489b99","countryCode":"YE","state":"97f08dc8-9bb2-4c0f-aec2-7eb78cfd7274","stateCode":"AM","latitude":"15.60100000","longitude":"43.82520000"},{"id":"4737fd54-68ae-45d8-9862-9b7d49256cf0","name":"Aḩwar","ru":"Aḩwar","country":"87ee5005-9465-4be9-bdda-f31070489b99","countryCode":"YE","state":"932eff27-d4ec-4ba4-841f-1512cbd93e8f","stateCode":"AB","latitude":"13.52019000","longitude":"46.71367000"},{"id":"39cd762c-92e6-4169-8202-bc1dccbe8b86","name":"Ahwar","ru":"Ahwar","country":"87ee5005-9465-4be9-bdda-f31070489b99","countryCode":"YE","state":"932eff27-d4ec-4ba4-841f-1512cbd93e8f","stateCode":"AB","latitude":"13.68530000","longitude":"46.75560000"},{"id":"9b8f28fc-24fd-4c7b-9fe5-29a7900c0756","name":"Al Mahfad","ru":"Al Mahfad","country":"87ee5005-9465-4be9-bdda-f31070489b99","countryCode":"YE","state":"932eff27-d4ec-4ba4-841f-1512cbd93e8f","stateCode":"AB","latitude":"13.97050000","longitude":"46.75600000"},{"id":"8e7784ad-b348-4d51-9684-a7fc2001e755","name":"Al Wade'a","ru":"Al Wade'a","country":"87ee5005-9465-4be9-bdda-f31070489b99","countryCode":"YE","state":"932eff27-d4ec-4ba4-841f-1512cbd93e8f","stateCode":"AB","latitude":"13.71360000","longitude":"46.01220000"},{"id":"274fa372-8980-48fa-8cd1-335125f922e6","name":"Jawf al Maqbābah","ru":"Jawf al Maqbābah","country":"87ee5005-9465-4be9-bdda-f31070489b99","countryCode":"YE","state":"932eff27-d4ec-4ba4-841f-1512cbd93e8f","stateCode":"AB","latitude":"13.83783000","longitude":"45.83488000"},{"id":"3249817a-e878-4fbd-8c7b-e4acc28d35f5","name":"Jayshan","ru":"Jayshan","country":"87ee5005-9465-4be9-bdda-f31070489b99","countryCode":"YE","state":"932eff27-d4ec-4ba4-841f-1512cbd93e8f","stateCode":"AB","latitude":"14.16620000","longitude":"46.17230000"},{"id":"b1873ab6-9aba-4406-a96b-0758ea642c3a","name":"Khanfir","ru":"Khanfir","country":"87ee5005-9465-4be9-bdda-f31070489b99","countryCode":"YE","state":"932eff27-d4ec-4ba4-841f-1512cbd93e8f","stateCode":"AB","latitude":"13.42049000","longitude":"45.68707000"},{"id":"ba07bee7-d6fe-47b2-ae7b-f42e43eee713","name":"Lawdar","ru":"Lawdar","country":"87ee5005-9465-4be9-bdda-f31070489b99","countryCode":"YE","state":"932eff27-d4ec-4ba4-841f-1512cbd93e8f","stateCode":"AB","latitude":"13.80590000","longitude":"45.80080000"},{"id":"dd811fec-6c6f-4c52-8752-dd75e21247e7","name":"Mūdīyah","ru":"Mūdīyah","country":"87ee5005-9465-4be9-bdda-f31070489b99","countryCode":"YE","state":"932eff27-d4ec-4ba4-841f-1512cbd93e8f","stateCode":"AB","latitude":"13.92840000","longitude":"46.08254000"},{"id":"0cd6f80a-2bff-4406-bb25-86046b337340","name":"Mudiyah","ru":"Mudiyah","country":"87ee5005-9465-4be9-bdda-f31070489b99","countryCode":"YE","state":"932eff27-d4ec-4ba4-841f-1512cbd93e8f","stateCode":"AB","latitude":"13.90960000","longitude":"46.21960000"},{"id":"e3399739-35b4-458f-9ad1-73e6615d8bc9","name":"Rasad","ru":"Rasad","country":"87ee5005-9465-4be9-bdda-f31070489b99","countryCode":"YE","state":"932eff27-d4ec-4ba4-841f-1512cbd93e8f","stateCode":"AB","latitude":"13.72310000","longitude":"45.28140000"},{"id":"8f17b644-b663-4aa5-ae03-dd92744f25a2","name":"Sarar","ru":"Sarar","country":"87ee5005-9465-4be9-bdda-f31070489b99","countryCode":"YE","state":"932eff27-d4ec-4ba4-841f-1512cbd93e8f","stateCode":"AB","latitude":"13.58300000","longitude":"45.35080000"},{"id":"fb783720-2558-4509-9f15-03b47b35edce","name":"Sibah","ru":"Sibah","country":"87ee5005-9465-4be9-bdda-f31070489b99","countryCode":"YE","state":"932eff27-d4ec-4ba4-841f-1512cbd93e8f","stateCode":"AB","latitude":"13.80910000","longitude":"45.40230000"},{"id":"cbcbf6e0-07d0-4722-a8e5-8addd31d2d02","name":"Zingibar","ru":"Zingibar","country":"87ee5005-9465-4be9-bdda-f31070489b99","countryCode":"YE","state":"932eff27-d4ec-4ba4-841f-1512cbd93e8f","stateCode":"AB","latitude":"13.13420000","longitude":"45.43040000"},{"id":"291d8f19-31e1-424b-96b0-2ec423f3d079","name":"Zinjibār","ru":"Zinjibār","country":"87ee5005-9465-4be9-bdda-f31070489b99","countryCode":"YE","state":"932eff27-d4ec-4ba4-841f-1512cbd93e8f","stateCode":"AB","latitude":"13.12871000","longitude":"45.38073000"},{"id":"c5c8dff0-e9ec-4f21-b545-4af94211c47f","name":"Al A'rsh","ru":"Al A'rsh","country":"87ee5005-9465-4be9-bdda-f31070489b99","countryCode":"YE","state":"1e54793a-7264-4955-9de1-15c583db3a60","stateCode":"BA","latitude":"14.36560000","longitude":"44.77780000"},{"id":"1cd69bad-cf2f-420c-b884-53c707e9ae01","name":"Al Bayḑā’","ru":"Al Bayḑā’","country":"87ee5005-9465-4be9-bdda-f31070489b99","countryCode":"YE","state":"1e54793a-7264-4955-9de1-15c583db3a60","stateCode":"BA","latitude":"13.93666000","longitude":"45.54822000"},{"id":"a9bf3207-eb9b-4915-8738-49b39a7ee8c6","name":"Al Bayda","ru":"Al Bayda","country":"87ee5005-9465-4be9-bdda-f31070489b99","countryCode":"YE","state":"1e54793a-7264-4955-9de1-15c583db3a60","stateCode":"BA","latitude":"13.98523000","longitude":"45.57272000"},{"id":"c1fcf4c8-ea8e-4081-a400-53f2b8a0c30c","name":"Al Bayda City","ru":"Al Bayda City","country":"87ee5005-9465-4be9-bdda-f31070489b99","countryCode":"YE","state":"1e54793a-7264-4955-9de1-15c583db3a60","stateCode":"BA","latitude":"13.98490000","longitude":"45.55660000"},{"id":"334b6800-2fa0-4909-9d39-93202797c635","name":"Al Malagim","ru":"Al Malagim","country":"87ee5005-9465-4be9-bdda-f31070489b99","countryCode":"YE","state":"1e54793a-7264-4955-9de1-15c583db3a60","stateCode":"BA","latitude":"14.36540000","longitude":"45.38510000"},{"id":"2d22f630-13bf-4b4d-abba-630986757393","name":"Al Quraishyah","ru":"Al Quraishyah","country":"87ee5005-9465-4be9-bdda-f31070489b99","countryCode":"YE","state":"1e54793a-7264-4955-9de1-15c583db3a60","stateCode":"BA","latitude":"14.60500000","longitude":"44.88960000"},{"id":"fd702fe6-a803-4d48-ac50-a7754507d975","name":"Ar Ryashyyah","ru":"Ar Ryashyyah","country":"87ee5005-9465-4be9-bdda-f31070489b99","countryCode":"YE","state":"1e54793a-7264-4955-9de1-15c583db3a60","stateCode":"BA","latitude":"14.24240000","longitude":"44.77540000"},{"id":"c22354b6-31a3-485b-8a1e-3e4d22058808","name":"As Sawadiyah","ru":"As Sawadiyah","country":"87ee5005-9465-4be9-bdda-f31070489b99","countryCode":"YE","state":"1e54793a-7264-4955-9de1-15c583db3a60","stateCode":"BA","latitude":"14.45198000","longitude":"45.36973000"},{"id":"13c5ceaa-eeb2-4485-8b3c-3c38344fd2a0","name":"As Sawma'ah","ru":"As Sawma'ah","country":"87ee5005-9465-4be9-bdda-f31070489b99","countryCode":"YE","state":"1e54793a-7264-4955-9de1-15c583db3a60","stateCode":"BA","latitude":"14.16670000","longitude":"45.83110000"},{"id":"7de1840d-7e2e-4edf-bd61-3e53f3e4271f","name":"Ash Sharafayn","ru":"Ash Sharafayn","country":"87ee5005-9465-4be9-bdda-f31070489b99","countryCode":"YE","state":"1e54793a-7264-4955-9de1-15c583db3a60","stateCode":"BA","latitude":"14.30697000","longitude":"45.12634000"},{"id":"fb2b773a-3c2e-4541-af72-6154870d8288","name":"At Taffah","ru":"At Taffah","country":"87ee5005-9465-4be9-bdda-f31070489b99","countryCode":"YE","state":"1e54793a-7264-4955-9de1-15c583db3a60","stateCode":"BA","latitude":"14.19830000","longitude":"45.35810000"},{"id":"e522a915-b29a-47c2-880c-ec336d821bba","name":"Az Zahir","ru":"Az Zahir","country":"87ee5005-9465-4be9-bdda-f31070489b99","countryCode":"YE","state":"1e54793a-7264-4955-9de1-15c583db3a60","stateCode":"BA","latitude":"13.99180000","longitude":"45.42180000"},{"id":"51275c9a-12dd-412b-8b7b-bbabc4ffe7e9","name":"Dhi Na'im","ru":"Dhi Na'im","country":"87ee5005-9465-4be9-bdda-f31070489b99","countryCode":"YE","state":"1e54793a-7264-4955-9de1-15c583db3a60","stateCode":"BA","latitude":"14.11110000","longitude":"45.46420000"},{"id":"66b14e2b-24c6-4ca0-b922-211332218ec3","name":"Maswarah","ru":"Maswarah","country":"87ee5005-9465-4be9-bdda-f31070489b99","countryCode":"YE","state":"1e54793a-7264-4955-9de1-15c583db3a60","stateCode":"BA","latitude":"14.40270000","longitude":"45.70330000"},{"id":"76b66ec5-7d10-4e84-8003-c3f6d7a0a772","name":"Mukayras","ru":"Mukayras","country":"87ee5005-9465-4be9-bdda-f31070489b99","countryCode":"YE","state":"1e54793a-7264-4955-9de1-15c583db3a60","stateCode":"BA","latitude":"14.03200000","longitude":"45.79640000"},{"id":"50c1ac9d-f0aa-45fb-99ec-6b6856d4609a","name":"Na'man","ru":"Na'man","country":"87ee5005-9465-4be9-bdda-f31070489b99","countryCode":"YE","state":"1e54793a-7264-4955-9de1-15c583db3a60","stateCode":"BA","latitude":"14.59390000","longitude":"45.52860000"},{"id":"742db454-6eab-453b-a8c4-d707348fe905","name":"Nati'","ru":"Nati'","country":"87ee5005-9465-4be9-bdda-f31070489b99","countryCode":"YE","state":"1e54793a-7264-4955-9de1-15c583db3a60","stateCode":"BA","latitude":"14.55390000","longitude":"45.58500000"},{"id":"ea8e59e0-0fad-403a-b72e-47c4e3f4fb2c","name":"Radā‘","ru":"Radā‘","country":"87ee5005-9465-4be9-bdda-f31070489b99","countryCode":"YE","state":"1e54793a-7264-4955-9de1-15c583db3a60","stateCode":"BA","latitude":"14.34000000","longitude":"44.90874000"},{"id":"86455ebe-c6cf-4049-9340-07d792c3cdbf","name":"Radman Al Awad","ru":"Radman Al Awad","country":"87ee5005-9465-4be9-bdda-f31070489b99","countryCode":"YE","state":"1e54793a-7264-4955-9de1-15c583db3a60","stateCode":"BA","latitude":"14.48360000","longitude":"45.27440000"},{"id":"c4898eb2-0b4f-4ac5-8809-03f68472179c","name":"Sabah","ru":"Sabah","country":"87ee5005-9465-4be9-bdda-f31070489b99","countryCode":"YE","state":"1e54793a-7264-4955-9de1-15c583db3a60","stateCode":"BA","latitude":"14.27590000","longitude":"44.67000000"},{"id":"9f2bf454-994a-4673-91da-5ac503dc6dbc","name":"Wald Rabi'","ru":"Wald Rabi'","country":"87ee5005-9465-4be9-bdda-f31070489b99","countryCode":"YE","state":"1e54793a-7264-4955-9de1-15c583db3a60","stateCode":"BA","latitude":"14.55574000","longitude":"44.90596000"},{"id":"f7cec4e6-0d90-4dd4-99b2-1b0cf3d87dab","name":"Aş Şalīf","ru":"Aş Şalīf","country":"87ee5005-9465-4be9-bdda-f31070489b99","countryCode":"YE","state":"caf64a93-66aa-4100-921f-886481cb2602","stateCode":"HU","latitude":"15.30755000","longitude":"42.67107000"},{"id":"78347c91-5524-499a-8b59-4575c9665cb9","name":"Ad Dahi","ru":"Ad Dahi","country":"87ee5005-9465-4be9-bdda-f31070489b99","countryCode":"YE","state":"caf64a93-66aa-4100-921f-886481cb2602","stateCode":"HU","latitude":"15.22320000","longitude":"43.19350000"},{"id":"4f9fbbf7-b776-482c-a975-8cad2acc036c","name":"Ad Durayhimi","ru":"Ad Durayhimi","country":"87ee5005-9465-4be9-bdda-f31070489b99","countryCode":"YE","state":"caf64a93-66aa-4100-921f-886481cb2602","stateCode":"HU","latitude":"14.60460000","longitude":"43.07180000"},{"id":"d2948de9-9644-402f-af11-435a6eeffd1d","name":"Al Ḩudaydah","ru":"Al Ḩudaydah","country":"87ee5005-9465-4be9-bdda-f31070489b99","countryCode":"YE","state":"caf64a93-66aa-4100-921f-886481cb2602","stateCode":"HU","latitude":"14.79781000","longitude":"42.95452000"},{"id":"c5af757c-0ac4-4ff9-b8b4-f12a394b7f16","name":"Al Garrahi","ru":"Al Garrahi","country":"87ee5005-9465-4be9-bdda-f31070489b99","countryCode":"YE","state":"caf64a93-66aa-4100-921f-886481cb2602","stateCode":"HU","latitude":"14.10580000","longitude":"43.40940000"},{"id":"5c137635-7a3e-4cec-a1c5-fb83614a009f","name":"Al Hajjaylah","ru":"Al Hajjaylah","country":"87ee5005-9465-4be9-bdda-f31070489b99","countryCode":"YE","state":"caf64a93-66aa-4100-921f-886481cb2602","stateCode":"HU","latitude":"14.99070000","longitude":"43.58230000"},{"id":"f0a5480b-7876-4280-b7cb-ffd0df4e04af","name":"Al Hali","ru":"Al Hali","country":"87ee5005-9465-4be9-bdda-f31070489b99","countryCode":"YE","state":"caf64a93-66aa-4100-921f-886481cb2602","stateCode":"HU","latitude":"14.82500000","longitude":"43.00140000"},{"id":"ffe627d1-2dfb-447f-a463-53261b76e34f","name":"Al Hawak","ru":"Al Hawak","country":"87ee5005-9465-4be9-bdda-f31070489b99","countryCode":"YE","state":"caf64a93-66aa-4100-921f-886481cb2602","stateCode":"HU","latitude":"14.76010000","longitude":"42.99780000"},{"id":"30487cfe-f0a5-43ce-9936-7d9d74d77b7a","name":"Al Mansuriyah","ru":"Al Mansuriyah","country":"87ee5005-9465-4be9-bdda-f31070489b99","countryCode":"YE","state":"caf64a93-66aa-4100-921f-886481cb2602","stateCode":"HU","latitude":"14.69030000","longitude":"43.36820000"},{"id":"5ba22d83-c4fe-4045-ab18-4dd51bf30317","name":"Al Marawi'ah","ru":"Al Marawi'ah","country":"87ee5005-9465-4be9-bdda-f31070489b99","countryCode":"YE","state":"caf64a93-66aa-4100-921f-886481cb2602","stateCode":"HU","latitude":"14.83460000","longitude":"43.19650000"},{"id":"4c75a3ac-ca7c-4a68-bc14-f3cba9c5debf","name":"Al Mighlaf","ru":"Al Mighlaf","country":"87ee5005-9465-4be9-bdda-f31070489b99","countryCode":"YE","state":"caf64a93-66aa-4100-921f-886481cb2602","stateCode":"HU","latitude":"15.31110000","longitude":"43.18360000"},{"id":"2f9bc11b-972c-4307-ada6-19d65165599d","name":"Al Mina","ru":"Al Mina","country":"87ee5005-9465-4be9-bdda-f31070489b99","countryCode":"YE","state":"caf64a93-66aa-4100-921f-886481cb2602","stateCode":"HU","latitude":"14.80775000","longitude":"42.93732000"},{"id":"e1c5b6de-bbee-4d19-bdb7-811f32564f81","name":"Al Munirah","ru":"Al Munirah","country":"87ee5005-9465-4be9-bdda-f31070489b99","countryCode":"YE","state":"caf64a93-66aa-4100-921f-886481cb2602","stateCode":"HU","latitude":"15.35280000","longitude":"42.90620000"},{"id":"227ff0e4-a61e-448e-9c62-3e8a1b3efdde","name":"Al Qanawis","ru":"Al Qanawis","country":"87ee5005-9465-4be9-bdda-f31070489b99","countryCode":"YE","state":"caf64a93-66aa-4100-921f-886481cb2602","stateCode":"HU","latitude":"15.49206000","longitude":"43.13782000"},{"id":"58c7aa89-f59b-4201-a334-db5922aff6e5","name":"Alluheyah","ru":"Alluheyah","country":"87ee5005-9465-4be9-bdda-f31070489b99","countryCode":"YE","state":"caf64a93-66aa-4100-921f-886481cb2602","stateCode":"HU","latitude":"15.63628000","longitude":"42.87157000"},{"id":"ec5ddb1d-c76b-44b7-86e7-6fea7efce692","name":"As Salif","ru":"As Salif","country":"87ee5005-9465-4be9-bdda-f31070489b99","countryCode":"YE","state":"caf64a93-66aa-4100-921f-886481cb2602","stateCode":"HU","latitude":"15.22882000","longitude":"42.72542000"},{"id":"5c602e9a-a1e4-4937-b85b-f47411876d9e","name":"As Sukhnah","ru":"As Sukhnah","country":"87ee5005-9465-4be9-bdda-f31070489b99","countryCode":"YE","state":"caf64a93-66aa-4100-921f-886481cb2602","stateCode":"HU","latitude":"14.74840000","longitude":"43.33420000"},{"id":"933d13cb-34f0-4b95-9b3e-95a5bb81c4eb","name":"At Tuhayat","ru":"At Tuhayat","country":"87ee5005-9465-4be9-bdda-f31070489b99","countryCode":"YE","state":"caf64a93-66aa-4100-921f-886481cb2602","stateCode":"HU","latitude":"14.10994000","longitude":"43.15979000"},{"id":"300d37d6-692a-4667-a0c4-430922d52719","name":"Az Zaydīyah","ru":"Az Zaydīyah","country":"87ee5005-9465-4be9-bdda-f31070489b99","countryCode":"YE","state":"caf64a93-66aa-4100-921f-886481cb2602","stateCode":"HU","latitude":"15.29586000","longitude":"43.06452000"},{"id":"68640247-aa6d-4b82-8af7-5ad40a4273d0","name":"Az Zuhrah","ru":"Az Zuhrah","country":"87ee5005-9465-4be9-bdda-f31070489b99","countryCode":"YE","state":"caf64a93-66aa-4100-921f-886481cb2602","stateCode":"HU","latitude":"15.71730000","longitude":"43.06370000"},{"id":"0c752a49-6be1-4eaa-8aae-a1a7d1cc8644","name":"Bayt al Faqīh","ru":"Bayt al Faqīh","country":"87ee5005-9465-4be9-bdda-f31070489b99","countryCode":"YE","state":"caf64a93-66aa-4100-921f-886481cb2602","stateCode":"HU","latitude":"14.48738000","longitude":"43.27815000"},{"id":"104cbc52-0d18-40da-8771-bcc2ae51fec4","name":"Bājil","ru":"Bājil","country":"87ee5005-9465-4be9-bdda-f31070489b99","countryCode":"YE","state":"caf64a93-66aa-4100-921f-886481cb2602","stateCode":"HU","latitude":"15.07561000","longitude":"43.17350000"},{"id":"57345463-c002-4419-bc48-41432f9b6d87","name":"Bura","ru":"Bura","country":"87ee5005-9465-4be9-bdda-f31070489b99","countryCode":"YE","state":"caf64a93-66aa-4100-921f-886481cb2602","stateCode":"HU","latitude":"14.89820000","longitude":"43.47530000"},{"id":"9a64f96e-d070-48a6-ba8f-9ce9fdcd20d4","name":"Hays","ru":"Hays","country":"87ee5005-9465-4be9-bdda-f31070489b99","countryCode":"YE","state":"caf64a93-66aa-4100-921f-886481cb2602","stateCode":"HU","latitude":"13.93320000","longitude":"43.49840000"},{"id":"f77da122-913b-4dae-8c95-12d31f11022e","name":"Jabal Ra's","ru":"Jabal Ra's","country":"87ee5005-9465-4be9-bdda-f31070489b99","countryCode":"YE","state":"caf64a93-66aa-4100-921f-886481cb2602","stateCode":"HU","latitude":"14.03090000","longitude":"43.62780000"},{"id":"a08f3c27-1f02-4381-9499-242ca3611e38","name":"Kamaran","ru":"Kamaran","country":"87ee5005-9465-4be9-bdda-f31070489b99","countryCode":"YE","state":"caf64a93-66aa-4100-921f-886481cb2602","stateCode":"HU","latitude":"15.36050000","longitude":"42.58540000"},{"id":"47219b94-a4a3-4151-9a7b-ed38d26765e2","name":"Zabīd","ru":"Zabīd","country":"87ee5005-9465-4be9-bdda-f31070489b99","countryCode":"YE","state":"caf64a93-66aa-4100-921f-886481cb2602","stateCode":"HU","latitude":"14.27742000","longitude":"43.36841000"},{"id":"b704dd44-89a8-4945-a6fc-bfbc44060cb3","name":"Al Ḩazm","ru":"Al Ḩazm","country":"87ee5005-9465-4be9-bdda-f31070489b99","countryCode":"YE","state":"06e18f03-9546-43ee-9b55-c6bae7c6cda2","stateCode":"JA","latitude":"16.16406000","longitude":"44.77692000"},{"id":"6d7f62d4-8baa-4cfa-bf71-229c5dc9b7a7","name":"Al ‘Inān","ru":"Al ‘Inān","country":"87ee5005-9465-4be9-bdda-f31070489b99","countryCode":"YE","state":"06e18f03-9546-43ee-9b55-c6bae7c6cda2","stateCode":"JA","latitude":"16.72189000","longitude":"44.31252000"},{"id":"d6d5b74f-6773-45ce-a94b-294b3adcc228","name":"Al Ghayl","ru":"Al Ghayl","country":"87ee5005-9465-4be9-bdda-f31070489b99","countryCode":"YE","state":"06e18f03-9546-43ee-9b55-c6bae7c6cda2","stateCode":"JA","latitude":"16.09140000","longitude":"44.68520000"},{"id":"efb9e7de-8ae0-4499-990c-8e37bc19099b","name":"Al Hazm","ru":"Al Hazm","country":"87ee5005-9465-4be9-bdda-f31070489b99","countryCode":"YE","state":"06e18f03-9546-43ee-9b55-c6bae7c6cda2","stateCode":"JA","latitude":"16.03780000","longitude":"44.95850000"},{"id":"4929e0ee-a289-4888-8b25-bb9f52b94c06","name":"Al Humaydat","ru":"Al Humaydat","country":"87ee5005-9465-4be9-bdda-f31070489b99","countryCode":"YE","state":"06e18f03-9546-43ee-9b55-c6bae7c6cda2","stateCode":"JA","latitude":"16.46670000","longitude":"44.42990000"},{"id":"d06c0d5c-3ffd-4b61-adb0-248f591112fc","name":"Al Khalq","ru":"Al Khalq","country":"87ee5005-9465-4be9-bdda-f31070489b99","countryCode":"YE","state":"06e18f03-9546-43ee-9b55-c6bae7c6cda2","stateCode":"JA","latitude":"16.06810000","longitude":"44.79700000"},{"id":"cff48e18-0270-48d3-bbe2-28ceaac21c88","name":"Al Maslub","ru":"Al Maslub","country":"87ee5005-9465-4be9-bdda-f31070489b99","countryCode":"YE","state":"06e18f03-9546-43ee-9b55-c6bae7c6cda2","stateCode":"JA","latitude":"16.09610000","longitude":"44.56670000"},{"id":"ef4d0b6d-994d-4f55-8887-5d578f86db09","name":"Al Matammah","ru":"Al Matammah","country":"87ee5005-9465-4be9-bdda-f31070489b99","countryCode":"YE","state":"06e18f03-9546-43ee-9b55-c6bae7c6cda2","stateCode":"JA","latitude":"16.19840000","longitude":"44.39020000"},{"id":"d0cf0a05-ef79-4bf1-a8e7-05dba61c08e1","name":"Al Maton","ru":"Al Maton","country":"87ee5005-9465-4be9-bdda-f31070489b99","countryCode":"YE","state":"06e18f03-9546-43ee-9b55-c6bae7c6cda2","stateCode":"JA","latitude":"16.28720000","longitude":"44.63890000"},{"id":"8088f193-b133-4773-a559-77a21a56718f","name":"Az Zahir","ru":"Az Zahir","country":"87ee5005-9465-4be9-bdda-f31070489b99","countryCode":"YE","state":"06e18f03-9546-43ee-9b55-c6bae7c6cda2","stateCode":"JA","latitude":"16.33080000","longitude":"44.52440000"},{"id":"67d41bbb-e0aa-4f36-8bac-7477122cde9e","name":"Barţ al ‘Anān","ru":"Barţ al ‘Anān","country":"87ee5005-9465-4be9-bdda-f31070489b99","countryCode":"YE","state":"06e18f03-9546-43ee-9b55-c6bae7c6cda2","stateCode":"JA","latitude":"16.91972000","longitude":"44.51882000"},{"id":"75188bb5-5411-4844-a116-03aecdcda0b2","name":"Khabb wa ash Sha'af","ru":"Khabb wa ash Sha'af","country":"87ee5005-9465-4be9-bdda-f31070489b99","countryCode":"YE","state":"06e18f03-9546-43ee-9b55-c6bae7c6cda2","stateCode":"JA","latitude":"16.59750000","longitude":"45.78530000"},{"id":"8dbb701c-a4a4-4f29-ab09-0d1a215e8258","name":"Kharab Al Marashi","ru":"Kharab Al Marashi","country":"87ee5005-9465-4be9-bdda-f31070489b99","countryCode":"YE","state":"06e18f03-9546-43ee-9b55-c6bae7c6cda2","stateCode":"JA","latitude":"16.61070000","longitude":"44.22550000"},{"id":"859a1900-00d6-4a7d-a60b-e4cdf5084d90","name":"Rajuzah","ru":"Rajuzah","country":"87ee5005-9465-4be9-bdda-f31070489b99","countryCode":"YE","state":"06e18f03-9546-43ee-9b55-c6bae7c6cda2","stateCode":"JA","latitude":"16.63420000","longitude":"44.50420000"},{"id":"e5fa4a2d-7ca4-4b34-8b58-be0962f18e14","name":"Al Ghaydah","ru":"Al Ghaydah","country":"87ee5005-9465-4be9-bdda-f31070489b99","countryCode":"YE","state":"d9ed517d-2ec0-4cc2-ab89-09b3a690963b","stateCode":"MR","latitude":"16.26180000","longitude":"52.08160000"},{"id":"d9a16c73-7fda-4acb-b4ef-95f92fa9b94f","name":"Al Ghayz̧ah","ru":"Al Ghayz̧ah","country":"87ee5005-9465-4be9-bdda-f31070489b99","countryCode":"YE","state":"d9ed517d-2ec0-4cc2-ab89-09b3a690963b","stateCode":"MR","latitude":"16.20787000","longitude":"52.17605000"},{"id":"32dc676f-63d5-4c9d-89da-c618ec116144","name":"Al Masilah","ru":"Al Masilah","country":"87ee5005-9465-4be9-bdda-f31070489b99","countryCode":"YE","state":"d9ed517d-2ec0-4cc2-ab89-09b3a690963b","stateCode":"MR","latitude":"15.63990000","longitude":"50.64450000"},{"id":"70572906-7cf4-4d07-b7e5-251844fbb14f","name":"Hat","ru":"Hat","country":"87ee5005-9465-4be9-bdda-f31070489b99","countryCode":"YE","state":"d9ed517d-2ec0-4cc2-ab89-09b3a690963b","stateCode":"MR","latitude":"17.80310000","longitude":"51.67500000"},{"id":"1ad896de-7ca0-421e-8594-e9424e2b0561","name":"Hawf","ru":"Hawf","country":"87ee5005-9465-4be9-bdda-f31070489b99","countryCode":"YE","state":"d9ed517d-2ec0-4cc2-ab89-09b3a690963b","stateCode":"MR","latitude":"16.69530000","longitude":"52.81820000"},{"id":"ccbe9a35-d04c-49ab-a4cc-7cc310a56d4d","name":"Huswain","ru":"Huswain","country":"87ee5005-9465-4be9-bdda-f31070489b99","countryCode":"YE","state":"d9ed517d-2ec0-4cc2-ab89-09b3a690963b","stateCode":"MR","latitude":"15.72300000","longitude":"51.91240000"},{"id":"541fcea5-734b-4268-989a-95eb68383669","name":"Man'ar","ru":"Man'ar","country":"87ee5005-9465-4be9-bdda-f31070489b99","countryCode":"YE","state":"d9ed517d-2ec0-4cc2-ab89-09b3a690963b","stateCode":"MR","latitude":"16.55050000","longitude":"50.98790000"},{"id":"62ddaacb-cf9f-44ca-8b96-0eb712e4054e","name":"Qishn","ru":"Qishn","country":"87ee5005-9465-4be9-bdda-f31070489b99","countryCode":"YE","state":"d9ed517d-2ec0-4cc2-ab89-09b3a690963b","stateCode":"MR","latitude":"15.69990000","longitude":"51.32400000"},{"id":"44d9151c-33f2-4755-9dee-c381ad4e76a1","name":"Sayhut","ru":"Sayhut","country":"87ee5005-9465-4be9-bdda-f31070489b99","countryCode":"YE","state":"d9ed517d-2ec0-4cc2-ab89-09b3a690963b","stateCode":"MR","latitude":"15.53450000","longitude":"51.28690000"},{"id":"22f2c564-f372-4862-b61b-60eff2eeba4e","name":"Shahan","ru":"Shahan","country":"87ee5005-9465-4be9-bdda-f31070489b99","countryCode":"YE","state":"d9ed517d-2ec0-4cc2-ab89-09b3a690963b","stateCode":"MR","latitude":"17.59230000","longitude":"52.59400000"},{"id":"41b1267b-751d-40da-bc6b-4fa90f1ae60d","name":"Aţ Ţawīlah","ru":"Aţ Ţawīlah","country":"87ee5005-9465-4be9-bdda-f31070489b99","countryCode":"YE","state":"3f3c5d51-94d0-4241-9b3d-9fc58303d833","stateCode":"MW","latitude":"15.44165000","longitude":"43.77484000"},{"id":"0172e2a2-c507-47ed-b66e-8e8b9825513d","name":"Al Khabt","ru":"Al Khabt","country":"87ee5005-9465-4be9-bdda-f31070489b99","countryCode":"YE","state":"3f3c5d51-94d0-4241-9b3d-9fc58303d833","stateCode":"MW","latitude":"15.48170000","longitude":"43.36770000"},{"id":"5cc0988f-e4e1-4504-8404-5b95cbb7d182","name":"Al Maḩwīt","ru":"Al Maḩwīt","country":"87ee5005-9465-4be9-bdda-f31070489b99","countryCode":"YE","state":"3f3c5d51-94d0-4241-9b3d-9fc58303d833","stateCode":"MW","latitude":"15.47007000","longitude":"43.54481000"},{"id":"1ae32b01-028f-482f-91bb-57bf3add6251","name":"Al Mahwait","ru":"Al Mahwait","country":"87ee5005-9465-4be9-bdda-f31070489b99","countryCode":"YE","state":"3f3c5d51-94d0-4241-9b3d-9fc58303d833","stateCode":"MW","latitude":"15.41170000","longitude":"43.56630000"},{"id":"38c909ef-af64-4303-ba9b-1ecb06523d2e","name":"Ar Rujum","ru":"Ar Rujum","country":"87ee5005-9465-4be9-bdda-f31070489b99","countryCode":"YE","state":"3f3c5d51-94d0-4241-9b3d-9fc58303d833","stateCode":"MW","latitude":"15.41010000","longitude":"43.66060000"},{"id":"9f085c1e-3557-4c80-9eda-2abefaf13aeb","name":"Bani Sa'd","ru":"Bani Sa'd","country":"87ee5005-9465-4be9-bdda-f31070489b99","countryCode":"YE","state":"3f3c5d51-94d0-4241-9b3d-9fc58303d833","stateCode":"MW","latitude":"15.23550000","longitude":"43.51560000"},{"id":"80c9607b-cef7-4c61-ae2c-3a4afcaa4e64","name":"Hufash","ru":"Hufash","country":"87ee5005-9465-4be9-bdda-f31070489b99","countryCode":"YE","state":"3f3c5d51-94d0-4241-9b3d-9fc58303d833","stateCode":"MW","latitude":"15.37470000","longitude":"43.42650000"},{"id":"a04a85c7-1427-4b9b-aa62-077f77174189","name":"Milhan","ru":"Milhan","country":"87ee5005-9465-4be9-bdda-f31070489b99","countryCode":"YE","state":"3f3c5d51-94d0-4241-9b3d-9fc58303d833","stateCode":"MW","latitude":"15.32240000","longitude":"43.33180000"},{"id":"bd27782e-4f2c-416c-a0c1-dbaaa99e2587","name":"Shibām Kawkabān","ru":"Shibām Kawkabān","country":"87ee5005-9465-4be9-bdda-f31070489b99","countryCode":"YE","state":"3f3c5d51-94d0-4241-9b3d-9fc58303d833","stateCode":"MW","latitude":"15.50277000","longitude":"43.84237000"},{"id":"0bde54a3-2a7e-4dd0-9f70-62df423db5bd","name":"Al Hada","ru":"Al Hada","country":"87ee5005-9465-4be9-bdda-f31070489b99","countryCode":"YE","state":"898a7955-27fe-4508-a700-468f8ea3e270","stateCode":"DH","latitude":"14.80760000","longitude":"44.56790000"},{"id":"ca587c29-12bb-4601-ba6f-cc3bb43cdf0f","name":"Al Manar","ru":"Al Manar","country":"87ee5005-9465-4be9-bdda-f31070489b99","countryCode":"YE","state":"898a7955-27fe-4508-a700-468f8ea3e270","stateCode":"DH","latitude":"14.65300000","longitude":"44.11640000"},{"id":"f513f363-8744-451d-8bfc-2f339bf53523","name":"Al-Medy Village, قرية المدي","ru":"Al-Medy Village, قرية المدي","country":"87ee5005-9465-4be9-bdda-f31070489b99","countryCode":"YE","state":"898a7955-27fe-4508-a700-468f8ea3e270","stateCode":"DH","latitude":"14.40152000","longitude":"43.79178000"},{"id":"ed2a3956-3f84-41ee-bbbe-75042bd86d35","name":"‘Ans","ru":"‘Ans","country":"87ee5005-9465-4be9-bdda-f31070489b99","countryCode":"YE","state":"898a7955-27fe-4508-a700-468f8ea3e270","stateCode":"DH","latitude":"14.43606000","longitude":"44.38889000"},{"id":"0b09c30f-5dce-4d97-bc67-e7137e40e73a","name":"Dawran Aness","ru":"Dawran Aness","country":"87ee5005-9465-4be9-bdda-f31070489b99","countryCode":"YE","state":"898a7955-27fe-4508-a700-468f8ea3e270","stateCode":"DH","latitude":"14.82880000","longitude":"44.11430000"},{"id":"fc6bda66-e18c-42b5-8e93-54293e1ad744","name":"Dhamār","ru":"Dhamār","country":"87ee5005-9465-4be9-bdda-f31070489b99","countryCode":"YE","state":"898a7955-27fe-4508-a700-468f8ea3e270","stateCode":"DH","latitude":"14.54274000","longitude":"44.40514000"},{"id":"e67365e5-46e3-4ad6-abd4-730a9ec5670f","name":"Jabal Ash sharq","ru":"Jabal Ash sharq","country":"87ee5005-9465-4be9-bdda-f31070489b99","countryCode":"YE","state":"898a7955-27fe-4508-a700-468f8ea3e270","stateCode":"DH","latitude":"14.72960000","longitude":"43.90620000"},{"id":"fba3b743-86ce-43b5-a5e1-a69060e80f08","name":"Jahran","ru":"Jahran","country":"87ee5005-9465-4be9-bdda-f31070489b99","countryCode":"YE","state":"898a7955-27fe-4508-a700-468f8ea3e270","stateCode":"DH","latitude":"14.73310000","longitude":"44.31430000"},{"id":"4851bbf1-08cc-486e-a2b8-8be84b42daca","name":"Maghirib Ans","ru":"Maghirib Ans","country":"87ee5005-9465-4be9-bdda-f31070489b99","countryCode":"YE","state":"898a7955-27fe-4508-a700-468f8ea3e270","stateCode":"DH","latitude":"14.46530000","longitude":"44.12330000"},{"id":"a653089b-e2ee-4459-9303-249e2d6a9077","name":"Mayfa'at Anss","ru":"Mayfa'at Anss","country":"87ee5005-9465-4be9-bdda-f31070489b99","countryCode":"YE","state":"898a7955-27fe-4508-a700-468f8ea3e270","stateCode":"DH","latitude":"14.51520000","longitude":"44.61060000"},{"id":"9318391e-22af-488e-81ef-2787575e1e20","name":"Utmah","ru":"Utmah","country":"87ee5005-9465-4be9-bdda-f31070489b99","countryCode":"YE","state":"898a7955-27fe-4508-a700-468f8ea3e270","stateCode":"DH","latitude":"14.47380000","longitude":"43.94830000"},{"id":"bb26b1ab-d24a-4197-82aa-e08b7e190686","name":"Wusab Al Ali","ru":"Wusab Al Ali","country":"87ee5005-9465-4be9-bdda-f31070489b99","countryCode":"YE","state":"898a7955-27fe-4508-a700-468f8ea3e270","stateCode":"DH","latitude":"14.33440000","longitude":"43.79470000"},{"id":"bf2ba432-55bb-4acd-b40a-8dda10dfc1da","name":"Wusab As Safil","ru":"Wusab As Safil","country":"87ee5005-9465-4be9-bdda-f31070489b99","countryCode":"YE","state":"898a7955-27fe-4508-a700-468f8ea3e270","stateCode":"DH","latitude":"14.25480000","longitude":"43.63250000"},{"id":"771a4831-7ad3-4479-9772-765ef51b13c3","name":"Ad Dīs ash Sharqīyah","ru":"Ad Dīs ash Sharqīyah","country":"87ee5005-9465-4be9-bdda-f31070489b99","countryCode":"YE","state":"607ef049-86ea-48ba-940a-b535ed003121","stateCode":"HD","latitude":"14.90840000","longitude":"49.94847000"},{"id":"f38e62b4-17d8-4954-a144-efb6a7b8f04f","name":"Ad Dis","ru":"Ad Dis","country":"87ee5005-9465-4be9-bdda-f31070489b99","countryCode":"YE","state":"607ef049-86ea-48ba-940a-b535ed003121","stateCode":"HD","latitude":"15.09490000","longitude":"50.01590000"},{"id":"953509c6-6d04-41af-9477-25c2c6e61379","name":"Adh Dhlia'ah","ru":"Adh Dhlia'ah","country":"87ee5005-9465-4be9-bdda-f31070489b99","countryCode":"YE","state":"607ef049-86ea-48ba-940a-b535ed003121","stateCode":"HD","latitude":"15.01390000","longitude":"47.89720000"},{"id":"e23ab813-5650-4deb-a539-8ebaa3135515","name":"Al Abr","ru":"Al Abr","country":"87ee5005-9465-4be9-bdda-f31070489b99","countryCode":"YE","state":"607ef049-86ea-48ba-940a-b535ed003121","stateCode":"HD","latitude":"15.91370000","longitude":"47.22880000"},{"id":"0f2d79f7-e5af-47f1-86f9-4d3b553e80a2","name":"Al Ḩamdī","ru":"Al Ḩamdī","country":"87ee5005-9465-4be9-bdda-f31070489b99","countryCode":"YE","state":"607ef049-86ea-48ba-940a-b535ed003121","stateCode":"HD","latitude":"15.94727000","longitude":"48.77965000"},{"id":"3cc26025-1b53-4a09-8186-24e997be5baf","name":"Al Mukalla","ru":"Al Mukalla","country":"87ee5005-9465-4be9-bdda-f31070489b99","countryCode":"YE","state":"607ef049-86ea-48ba-940a-b535ed003121","stateCode":"HD","latitude":"14.72920000","longitude":"48.91990000"},{"id":"b9e22579-e2fa-43fe-8c41-cc88e937ab85","name":"Al Mukalla City","ru":"Al Mukalla City","country":"87ee5005-9465-4be9-bdda-f31070489b99","countryCode":"YE","state":"607ef049-86ea-48ba-940a-b535ed003121","stateCode":"HD","latitude":"14.62033000","longitude":"49.24800000"},{"id":"013e9470-9964-43f1-9b18-8704d6c9d239","name":"Al Qaf","ru":"Al Qaf","country":"87ee5005-9465-4be9-bdda-f31070489b99","countryCode":"YE","state":"607ef049-86ea-48ba-940a-b535ed003121","stateCode":"HD","latitude":"17.42870000","longitude":"48.94050000"},{"id":"250f0285-6a2c-4afd-9980-7dac87b030b7","name":"Al Qatn","ru":"Al Qatn","country":"87ee5005-9465-4be9-bdda-f31070489b99","countryCode":"YE","state":"607ef049-86ea-48ba-940a-b535ed003121","stateCode":"HD","latitude":"15.92320000","longitude":"48.21460000"},{"id":"473a6c44-0db2-4223-8119-f06efb4573ab","name":"Amd","ru":"Amd","country":"87ee5005-9465-4be9-bdda-f31070489b99","countryCode":"YE","state":"607ef049-86ea-48ba-940a-b535ed003121","stateCode":"HD","latitude":"15.34860000","longitude":"47.92860000"},{"id":"e4285f84-3714-4682-b03f-707fb77fd2a0","name":"Ar Raydah Wa Qusayar","ru":"Ar Raydah Wa Qusayar","country":"87ee5005-9465-4be9-bdda-f31070489b99","countryCode":"YE","state":"607ef049-86ea-48ba-940a-b535ed003121","stateCode":"HD","latitude":"15.18410000","longitude":"50.31330000"},{"id":"1212da26-a54a-4ad4-b64f-c3d1803e636f","name":"As Sawm","ru":"As Sawm","country":"87ee5005-9465-4be9-bdda-f31070489b99","countryCode":"YE","state":"607ef049-86ea-48ba-940a-b535ed003121","stateCode":"HD","latitude":"15.99800000","longitude":"49.66860000"},{"id":"42d617fb-7ed7-4329-8f29-055cb137da87","name":"Ash Shiḩr","ru":"Ash Shiḩr","country":"87ee5005-9465-4be9-bdda-f31070489b99","countryCode":"YE","state":"607ef049-86ea-48ba-940a-b535ed003121","stateCode":"HD","latitude":"14.76026000","longitude":"49.60537000"},{"id":"a04009f9-5479-4e26-a480-4de19399f362","name":"Ash Shihr","ru":"Ash Shihr","country":"87ee5005-9465-4be9-bdda-f31070489b99","countryCode":"YE","state":"607ef049-86ea-48ba-940a-b535ed003121","stateCode":"HD","latitude":"14.97230000","longitude":"49.55260000"},{"id":"19a914a5-e02c-4d9f-abf8-8ad4a5eef3e1","name":"At Taḩāluf","ru":"At Taḩāluf","country":"87ee5005-9465-4be9-bdda-f31070489b99","countryCode":"YE","state":"607ef049-86ea-48ba-940a-b535ed003121","stateCode":"HD","latitude":"15.93786000","longitude":"48.78641000"},{"id":"a750719a-0b08-4da4-aafa-bfbecfa20ce4","name":"Brom Mayfa","ru":"Brom Mayfa","country":"87ee5005-9465-4be9-bdda-f31070489b99","countryCode":"YE","state":"607ef049-86ea-48ba-940a-b535ed003121","stateCode":"HD","latitude":"14.34230000","longitude":"48.72810000"},{"id":"4fef1a4b-a483-400b-9b0f-7722131941d4","name":"Daw'an","ru":"Daw'an","country":"87ee5005-9465-4be9-bdda-f31070489b99","countryCode":"YE","state":"607ef049-86ea-48ba-940a-b535ed003121","stateCode":"HD","latitude":"15.05070000","longitude":"48.30720000"},{"id":"ca7ebbb3-6f8c-4abe-819b-02ee4c3a5ed4","name":"Ghayl Ba Wazir","ru":"Ghayl Ba Wazir","country":"87ee5005-9465-4be9-bdda-f31070489b99","countryCode":"YE","state":"607ef049-86ea-48ba-940a-b535ed003121","stateCode":"HD","latitude":"14.87780000","longitude":"49.02450000"},{"id":"08556fd6-224e-42b7-b32e-bc72eb215c88","name":"Ghayl Bin Yamin","ru":"Ghayl Bin Yamin","country":"87ee5005-9465-4be9-bdda-f31070489b99","countryCode":"YE","state":"607ef049-86ea-48ba-940a-b535ed003121","stateCode":"HD","latitude":"15.38960000","longitude":"49.28540000"},{"id":"ce0cbff9-4e48-4e62-a292-28190b295bf8","name":"Hagr As Sai'ar","ru":"Hagr As Sai'ar","country":"87ee5005-9465-4be9-bdda-f31070489b99","countryCode":"YE","state":"607ef049-86ea-48ba-940a-b535ed003121","stateCode":"HD","latitude":"16.30560000","longitude":"47.95370000"},{"id":"22d417c4-a824-40ca-8053-5c90b15358a4","name":"Hajr","ru":"Hajr","country":"87ee5005-9465-4be9-bdda-f31070489b99","countryCode":"YE","state":"607ef049-86ea-48ba-940a-b535ed003121","stateCode":"HD","latitude":"14.47080000","longitude":"48.27740000"},{"id":"4cb9f02e-77d5-4649-8518-54ea1a58cd7e","name":"Huraidhah","ru":"Huraidhah","country":"87ee5005-9465-4be9-bdda-f31070489b99","countryCode":"YE","state":"607ef049-86ea-48ba-940a-b535ed003121","stateCode":"HD","latitude":"15.55425000","longitude":"48.17505000"},{"id":"7565154e-f239-43e6-928b-71690dabcb60","name":"Kilmia","ru":"Kilmia","country":"87ee5005-9465-4be9-bdda-f31070489b99","countryCode":"YE","state":"607ef049-86ea-48ba-940a-b535ed003121","stateCode":"HD","latitude":"12.18576000","longitude":"52.23332000"},{"id":"0ed27dec-57c2-4f01-8d8e-06eb9e72089d","name":"Mukalla","ru":"Mukalla","country":"87ee5005-9465-4be9-bdda-f31070489b99","countryCode":"YE","state":"607ef049-86ea-48ba-940a-b535ed003121","stateCode":"HD","latitude":"14.54248000","longitude":"49.12424000"},{"id":"e20d01c4-c061-42c9-92c3-fdcefbc0d44d","name":"Rakhyah","ru":"Rakhyah","country":"87ee5005-9465-4be9-bdda-f31070489b99","countryCode":"YE","state":"607ef049-86ea-48ba-940a-b535ed003121","stateCode":"HD","latitude":"15.46180000","longitude":"47.77280000"},{"id":"6e60e021-1f20-481e-937c-9ea9ff687167","name":"Rumah","ru":"Rumah","country":"87ee5005-9465-4be9-bdda-f31070489b99","countryCode":"YE","state":"607ef049-86ea-48ba-940a-b535ed003121","stateCode":"HD","latitude":"17.81450000","longitude":"51.07590000"},{"id":"61208108-705b-400b-8b3e-90faa04ea61b","name":"Sah","ru":"Sah","country":"87ee5005-9465-4be9-bdda-f31070489b99","countryCode":"YE","state":"607ef049-86ea-48ba-940a-b535ed003121","stateCode":"HD","latitude":"15.53420000","longitude":"48.89550000"},{"id":"1ace0897-2c57-48ea-9f08-cfa38183a76d","name":"Sayun","ru":"Sayun","country":"87ee5005-9465-4be9-bdda-f31070489b99","countryCode":"YE","state":"607ef049-86ea-48ba-940a-b535ed003121","stateCode":"HD","latitude":"15.98310000","longitude":"48.83150000"},{"id":"4ddc6491-595a-4292-94e8-18f6549f2013","name":"Shibam","ru":"Shibam","country":"87ee5005-9465-4be9-bdda-f31070489b99","countryCode":"YE","state":"607ef049-86ea-48ba-940a-b535ed003121","stateCode":"HD","latitude":"15.87030000","longitude":"48.65340000"},{"id":"b7e4f473-5186-4ed1-abe8-ec046c80392f","name":"Suḩayl Shibām","ru":"Suḩayl Shibām","country":"87ee5005-9465-4be9-bdda-f31070489b99","countryCode":"YE","state":"607ef049-86ea-48ba-940a-b535ed003121","stateCode":"HD","latitude":"15.91448000","longitude":"48.63864000"},{"id":"c2f0d700-a95a-4fe9-b220-fdb4c8346bd0","name":"Tarīm","ru":"Tarīm","country":"87ee5005-9465-4be9-bdda-f31070489b99","countryCode":"YE","state":"607ef049-86ea-48ba-940a-b535ed003121","stateCode":"HD","latitude":"16.05694000","longitude":"48.99889000"},{"id":"8625004d-90c1-421f-adc0-df2643f90c23","name":"Tarim","ru":"Tarim","country":"87ee5005-9465-4be9-bdda-f31070489b99","countryCode":"YE","state":"607ef049-86ea-48ba-940a-b535ed003121","stateCode":"HD","latitude":"16.06600000","longitude":"49.02290000"},{"id":"02ad8077-27ec-41a6-902f-db0ea10e9070","name":"Thamud","ru":"Thamud","country":"87ee5005-9465-4be9-bdda-f31070489b99","countryCode":"YE","state":"607ef049-86ea-48ba-940a-b535ed003121","stateCode":"HD","latitude":"17.60310000","longitude":"49.73610000"},{"id":"f6013852-acaa-4b0b-9aa0-ccfe62c3e106","name":"Wadi Al Ayn","ru":"Wadi Al Ayn","country":"87ee5005-9465-4be9-bdda-f31070489b99","countryCode":"YE","state":"607ef049-86ea-48ba-940a-b535ed003121","stateCode":"HD","latitude":"15.74033000","longitude":"48.14747000"},{"id":"4757102b-8440-43f4-abd7-07927116ce6b","name":"Yabuth","ru":"Yabuth","country":"87ee5005-9465-4be9-bdda-f31070489b99","countryCode":"YE","state":"607ef049-86ea-48ba-940a-b535ed003121","stateCode":"HD","latitude":"14.71820000","longitude":"47.73580000"},{"id":"508f75c1-bf36-44d1-bbd4-c0718a4679ae","name":"Zamakh wa Manwakh","ru":"Zamakh wa Manwakh","country":"87ee5005-9465-4be9-bdda-f31070489b99","countryCode":"YE","state":"607ef049-86ea-48ba-940a-b535ed003121","stateCode":"HD","latitude":"17.20320000","longitude":"47.70330000"},{"id":"1f6986b7-c434-4430-9146-01d8daccfd2a","name":"Abs","ru":"Abs","country":"87ee5005-9465-4be9-bdda-f31070489b99","countryCode":"YE","state":"251cbaae-9da4-4647-a84b-5827e4481a7d","stateCode":"HJ","latitude":"16.02150000","longitude":"43.04850000"},{"id":"e5f565b7-96d2-49f6-b6c9-96006ff9a387","name":"Aflah Al Yaman","ru":"Aflah Al Yaman","country":"87ee5005-9465-4be9-bdda-f31070489b99","countryCode":"YE","state":"251cbaae-9da4-4647-a84b-5827e4481a7d","stateCode":"HJ","latitude":"15.97890000","longitude":"43.41110000"},{"id":"13080032-2ef0-4ecc-977c-25a6d72389fc","name":"Aflah Ash Shawm","ru":"Aflah Ash Shawm","country":"87ee5005-9465-4be9-bdda-f31070489b99","countryCode":"YE","state":"251cbaae-9da4-4647-a84b-5827e4481a7d","stateCode":"HJ","latitude":"16.05280000","longitude":"43.41200000"},{"id":"9bd04cf6-97db-4dd8-b52a-c47e5a5000ca","name":"Al Jamimah","ru":"Al Jamimah","country":"87ee5005-9465-4be9-bdda-f31070489b99","countryCode":"YE","state":"251cbaae-9da4-4647-a84b-5827e4481a7d","stateCode":"HJ","latitude":"16.02840000","longitude":"43.52970000"},{"id":"308c6616-22de-4f7c-9716-8fd041ab8f11","name":"Al Maghrabah","ru":"Al Maghrabah","country":"87ee5005-9465-4be9-bdda-f31070489b99","countryCode":"YE","state":"251cbaae-9da4-4647-a84b-5827e4481a7d","stateCode":"HJ","latitude":"15.89370000","longitude":"43.60910000"},{"id":"1f1c39ff-49ec-430c-8e01-a5ba03b97a82","name":"Al Mahabishah","ru":"Al Mahabishah","country":"87ee5005-9465-4be9-bdda-f31070489b99","countryCode":"YE","state":"251cbaae-9da4-4647-a84b-5827e4481a7d","stateCode":"HJ","latitude":"15.92870000","longitude":"43.44800000"},{"id":"da484afd-13de-4829-8a8a-22e157e3f39c","name":"Al Miftah","ru":"Al Miftah","country":"87ee5005-9465-4be9-bdda-f31070489b99","countryCode":"YE","state":"251cbaae-9da4-4647-a84b-5827e4481a7d","stateCode":"HJ","latitude":"15.96100000","longitude":"43.51470000"},{"id":"c5bbed7b-3d83-410c-8df7-732abb1b5b94","name":"Ash Shaghadirah","ru":"Ash Shaghadirah","country":"87ee5005-9465-4be9-bdda-f31070489b99","countryCode":"YE","state":"251cbaae-9da4-4647-a84b-5827e4481a7d","stateCode":"HJ","latitude":"15.60610000","longitude":"43.49920000"},{"id":"89c4ce4d-851a-4888-ac7b-553d30375be1","name":"Ash Shahil","ru":"Ash Shahil","country":"87ee5005-9465-4be9-bdda-f31070489b99","countryCode":"YE","state":"251cbaae-9da4-4647-a84b-5827e4481a7d","stateCode":"HJ","latitude":"15.85530000","longitude":"43.45160000"},{"id":"516dd550-4bc8-41e3-81b0-ea45167b2fcf","name":"Aslem","ru":"Aslem","country":"87ee5005-9465-4be9-bdda-f31070489b99","countryCode":"YE","state":"251cbaae-9da4-4647-a84b-5827e4481a7d","stateCode":"HJ","latitude":"16.06000000","longitude":"43.29390000"},{"id":"ad8b993f-4a5c-4198-b648-8b19568ec78c","name":"Ḩajjah","ru":"Ḩajjah","country":"87ee5005-9465-4be9-bdda-f31070489b99","countryCode":"YE","state":"251cbaae-9da4-4647-a84b-5827e4481a7d","stateCode":"HJ","latitude":"15.69425000","longitude":"43.60582000"},{"id":"a6ece3e3-d496-447f-9d1c-ebb7603df9f2","name":"Bakil Al Mir","ru":"Bakil Al Mir","country":"87ee5005-9465-4be9-bdda-f31070489b99","countryCode":"YE","state":"251cbaae-9da4-4647-a84b-5827e4481a7d","stateCode":"HJ","latitude":"16.50690000","longitude":"43.36150000"},{"id":"5302aa3c-8248-4d13-9eb5-d574fd7abe0f","name":"Banī al ‘Awwām","ru":"Banī al ‘Awwām","country":"87ee5005-9465-4be9-bdda-f31070489b99","countryCode":"YE","state":"251cbaae-9da4-4647-a84b-5827e4481a7d","stateCode":"HJ","latitude":"15.58119000","longitude":"43.58727000"},{"id":"7714c231-123d-456b-82b5-889167ef0e07","name":"Bani Al Awam","ru":"Bani Al Awam","country":"87ee5005-9465-4be9-bdda-f31070489b99","countryCode":"YE","state":"251cbaae-9da4-4647-a84b-5827e4481a7d","stateCode":"HJ","latitude":"15.58100000","longitude":"43.60790000"},{"id":"3b7bad91-5d03-4369-9d69-bdf3c326d9fe","name":"Bani Qa'is","ru":"Bani Qa'is","country":"87ee5005-9465-4be9-bdda-f31070489b99","countryCode":"YE","state":"251cbaae-9da4-4647-a84b-5827e4481a7d","stateCode":"HJ","latitude":"15.63460000","longitude":"43.33720000"},{"id":"c2adafa0-b4e4-4837-8a61-5ebd280ae5e2","name":"Hajjah","ru":"Hajjah","country":"87ee5005-9465-4be9-bdda-f31070489b99","countryCode":"YE","state":"251cbaae-9da4-4647-a84b-5827e4481a7d","stateCode":"HJ","latitude":"15.68160000","longitude":"43.44996000"},{"id":"7e9b04b8-534d-4581-a2ea-68b5f977ce46","name":"Harad District","ru":"Harad District","country":"87ee5005-9465-4be9-bdda-f31070489b99","countryCode":"YE","state":"251cbaae-9da4-4647-a84b-5827e4481a7d","stateCode":"HJ","latitude":"16.40447000","longitude":"43.07739000"},{"id":"b3321143-3795-427e-b6c7-10e392efcc36","name":"Hayran","ru":"Hayran","country":"87ee5005-9465-4be9-bdda-f31070489b99","countryCode":"YE","state":"251cbaae-9da4-4647-a84b-5827e4481a7d","stateCode":"HJ","latitude":"16.25080000","longitude":"43.05990000"},{"id":"77afbc5f-5f7b-4802-825a-3c02eb3f4774","name":"Khayran Al Muharraq","ru":"Khayran Al Muharraq","country":"87ee5005-9465-4be9-bdda-f31070489b99","countryCode":"YE","state":"251cbaae-9da4-4647-a84b-5827e4481a7d","stateCode":"HJ","latitude":"16.08964000","longitude":"43.35755000"},{"id":"ed45a8ed-f11b-4879-b141-e84d2a7cad81","name":"Ku'aydinah","ru":"Ku'aydinah","country":"87ee5005-9465-4be9-bdda-f31070489b99","countryCode":"YE","state":"251cbaae-9da4-4647-a84b-5827e4481a7d","stateCode":"HJ","latitude":"15.81830000","longitude":"43.35990000"},{"id":"7bfccd8b-ee31-4b86-9825-a37c3509edba","name":"Kuhlan Affar","ru":"Kuhlan Affar","country":"87ee5005-9465-4be9-bdda-f31070489b99","countryCode":"YE","state":"251cbaae-9da4-4647-a84b-5827e4481a7d","stateCode":"HJ","latitude":"15.75540000","longitude":"43.69700000"},{"id":"a8e16d5c-5c48-486d-8f8e-3903f12fb0d8","name":"Kuhlan Ash Sharaf","ru":"Kuhlan Ash Sharaf","country":"87ee5005-9465-4be9-bdda-f31070489b99","countryCode":"YE","state":"251cbaae-9da4-4647-a84b-5827e4481a7d","stateCode":"HJ","latitude":"16.02310000","longitude":"43.48630000"},{"id":"0be84f5c-af12-49ff-b976-dda71fa158e7","name":"Kushar","ru":"Kushar","country":"87ee5005-9465-4be9-bdda-f31070489b99","countryCode":"YE","state":"251cbaae-9da4-4647-a84b-5827e4481a7d","stateCode":"HJ","latitude":"16.17090000","longitude":"43.47200000"},{"id":"3a8875e6-108b-4229-a32f-016a9723910b","name":"Mabyan","ru":"Mabyan","country":"87ee5005-9465-4be9-bdda-f31070489b99","countryCode":"YE","state":"251cbaae-9da4-4647-a84b-5827e4481a7d","stateCode":"HJ","latitude":"15.77170000","longitude":"43.55100000"},{"id":"d35c3464-6040-42d6-8549-8dea3d3ab907","name":"Midi","ru":"Midi","country":"87ee5005-9465-4be9-bdda-f31070489b99","countryCode":"YE","state":"251cbaae-9da4-4647-a84b-5827e4481a7d","stateCode":"HJ","latitude":"16.19202000","longitude":"42.88913000"},{"id":"a5f96af1-4942-48a7-8f40-3ac4e7649d7e","name":"Mustaba","ru":"Mustaba","country":"87ee5005-9465-4be9-bdda-f31070489b99","countryCode":"YE","state":"251cbaae-9da4-4647-a84b-5827e4481a7d","stateCode":"HJ","latitude":"16.27360000","longitude":"43.26850000"},{"id":"0fe6b33b-c794-470c-a135-0d6cf50f8e0e","name":"Najrah","ru":"Najrah","country":"87ee5005-9465-4be9-bdda-f31070489b99","countryCode":"YE","state":"251cbaae-9da4-4647-a84b-5827e4481a7d","stateCode":"HJ","latitude":"15.65270000","longitude":"43.54520000"},{"id":"3c7865bb-93cb-4074-9ba5-2f21d6b55ac8","name":"Qafl Shamer","ru":"Qafl Shamer","country":"87ee5005-9465-4be9-bdda-f31070489b99","countryCode":"YE","state":"251cbaae-9da4-4647-a84b-5827e4481a7d","stateCode":"HJ","latitude":"15.90870000","longitude":"43.36400000"},{"id":"e937b706-281b-46ad-bac6-c51536124223","name":"Qarah","ru":"Qarah","country":"87ee5005-9465-4be9-bdda-f31070489b99","countryCode":"YE","state":"251cbaae-9da4-4647-a84b-5827e4481a7d","stateCode":"HJ","latitude":"16.40190000","longitude":"43.47400000"},{"id":"5bfe9671-3903-4478-99e8-b8b1b7aab79a","name":"Sharas","ru":"Sharas","country":"87ee5005-9465-4be9-bdda-f31070489b99","countryCode":"YE","state":"251cbaae-9da4-4647-a84b-5827e4481a7d","stateCode":"HJ","latitude":"15.72860000","longitude":"43.65460000"},{"id":"d15cf933-495d-4fa7-b112-a8e775ddb5bf","name":"Wadhrah","ru":"Wadhrah","country":"87ee5005-9465-4be9-bdda-f31070489b99","countryCode":"YE","state":"251cbaae-9da4-4647-a84b-5827e4481a7d","stateCode":"HJ","latitude":"15.71420000","longitude":"43.46670000"},{"id":"08263b70-04d9-40d4-8584-bb59369bec6d","name":"Washḩah","ru":"Washḩah","country":"87ee5005-9465-4be9-bdda-f31070489b99","countryCode":"YE","state":"251cbaae-9da4-4647-a84b-5827e4481a7d","stateCode":"HJ","latitude":"16.32158000","longitude":"43.37555000"},{"id":"25ff993d-3e0d-4c0f-b57e-1460eeb16f7d","name":"Al ‘Udayn","ru":"Al ‘Udayn","country":"87ee5005-9465-4be9-bdda-f31070489b99","countryCode":"YE","state":"5abd5284-8a71-43e3-b8b5-7d1b8181b12f","stateCode":"IB","latitude":"13.96112000","longitude":"43.96608000"},{"id":"a30b9480-252f-4343-8fe9-7825970c370b","name":"Al Dhihar","ru":"Al Dhihar","country":"87ee5005-9465-4be9-bdda-f31070489b99","countryCode":"YE","state":"5abd5284-8a71-43e3-b8b5-7d1b8181b12f","stateCode":"IB","latitude":"13.97900000","longitude":"44.15260000"},{"id":"d2ddbdb3-a8bd-46b1-9164-4daf0b31984b","name":"Al Makhādir","ru":"Al Makhādir","country":"87ee5005-9465-4be9-bdda-f31070489b99","countryCode":"YE","state":"5abd5284-8a71-43e3-b8b5-7d1b8181b12f","stateCode":"IB","latitude":"14.13965000","longitude":"44.20330000"},{"id":"785adcfb-f550-4923-9aab-16e91547f2a6","name":"Al Mashannah","ru":"Al Mashannah","country":"87ee5005-9465-4be9-bdda-f31070489b99","countryCode":"YE","state":"5abd5284-8a71-43e3-b8b5-7d1b8181b12f","stateCode":"IB","latitude":"13.95730000","longitude":"44.17000000"},{"id":"9736fe08-bc60-403d-bc73-3d567ed7a005","name":"Al Qafr","ru":"Al Qafr","country":"87ee5005-9465-4be9-bdda-f31070489b99","countryCode":"YE","state":"5abd5284-8a71-43e3-b8b5-7d1b8181b12f","stateCode":"IB","latitude":"14.31290000","longitude":"44.03000000"},{"id":"ac198d22-b70e-4662-aacd-6ac220ac3dd6","name":"An Nādirah","ru":"An Nādirah","country":"87ee5005-9465-4be9-bdda-f31070489b99","countryCode":"YE","state":"5abd5284-8a71-43e3-b8b5-7d1b8181b12f","stateCode":"IB","latitude":"14.07398000","longitude":"44.49925000"},{"id":"ad22764a-47e4-4cd7-8957-5ff5b67d8a92","name":"Ar Radmah","ru":"Ar Radmah","country":"87ee5005-9465-4be9-bdda-f31070489b99","countryCode":"YE","state":"5abd5284-8a71-43e3-b8b5-7d1b8181b12f","stateCode":"IB","latitude":"14.21200000","longitude":"44.56420000"},{"id":"97c575da-6d2b-42ba-9037-1c99ad29d771","name":"As Sabrah","ru":"As Sabrah","country":"87ee5005-9465-4be9-bdda-f31070489b99","countryCode":"YE","state":"5abd5284-8a71-43e3-b8b5-7d1b8181b12f","stateCode":"IB","latitude":"13.84270000","longitude":"44.33860000"},{"id":"d8848038-0af3-4ab6-9ce3-f18cba9dd354","name":"As Saddah","ru":"As Saddah","country":"87ee5005-9465-4be9-bdda-f31070489b99","countryCode":"YE","state":"5abd5284-8a71-43e3-b8b5-7d1b8181b12f","stateCode":"IB","latitude":"14.16610000","longitude":"44.37510000"},{"id":"d78fbc51-1e99-4ca3-b6cd-6d3390504a1f","name":"As Sayyani","ru":"As Sayyani","country":"87ee5005-9465-4be9-bdda-f31070489b99","countryCode":"YE","state":"5abd5284-8a71-43e3-b8b5-7d1b8181b12f","stateCode":"IB","latitude":"13.82240000","longitude":"44.21180000"},{"id":"79bf45fe-2d5c-4c6d-9086-657c6d36ff0e","name":"Ash Sha'ir","ru":"Ash Sha'ir","country":"87ee5005-9465-4be9-bdda-f31070489b99","countryCode":"YE","state":"5abd5284-8a71-43e3-b8b5-7d1b8181b12f","stateCode":"IB","latitude":"14.03180000","longitude":"44.36190000"},{"id":"6bc07aa2-2bf9-4723-bc3c-0c345241f740","name":"Ba'dan","ru":"Ba'dan","country":"87ee5005-9465-4be9-bdda-f31070489b99","countryCode":"YE","state":"5abd5284-8a71-43e3-b8b5-7d1b8181b12f","stateCode":"IB","latitude":"13.98870000","longitude":"44.32360000"},{"id":"cb3a5e79-2aad-413a-bdb3-3076f98ba28d","name":"Dhī as Sufāl","ru":"Dhī as Sufāl","country":"87ee5005-9465-4be9-bdda-f31070489b99","countryCode":"YE","state":"5abd5284-8a71-43e3-b8b5-7d1b8181b12f","stateCode":"IB","latitude":"13.82137000","longitude":"44.07775000"},{"id":"c5242217-c120-44b2-94ca-45ebc62be583","name":"Far Al Udayn","ru":"Far Al Udayn","country":"87ee5005-9465-4be9-bdda-f31070489b99","countryCode":"YE","state":"5abd5284-8a71-43e3-b8b5-7d1b8181b12f","stateCode":"IB","latitude":"13.95780000","longitude":"43.78270000"},{"id":"ef5ad03a-4c65-48b2-bc62-f7b85879b46e","name":"Hazm Al Udayn","ru":"Hazm Al Udayn","country":"87ee5005-9465-4be9-bdda-f31070489b99","countryCode":"YE","state":"5abd5284-8a71-43e3-b8b5-7d1b8181b12f","stateCode":"IB","latitude":"14.16984000","longitude":"43.93814000"},{"id":"8f38a029-a20a-43c2-8858-fcb48ba2e8cc","name":"Hubaysh","ru":"Hubaysh","country":"87ee5005-9465-4be9-bdda-f31070489b99","countryCode":"YE","state":"5abd5284-8a71-43e3-b8b5-7d1b8181b12f","stateCode":"IB","latitude":"14.11600000","longitude":"44.08240000"},{"id":"ac024359-2dd2-4909-b89b-009b769fdae3","name":"Ibb","ru":"Ibb","country":"87ee5005-9465-4be9-bdda-f31070489b99","countryCode":"YE","state":"5abd5284-8a71-43e3-b8b5-7d1b8181b12f","stateCode":"IB","latitude":"13.96667000","longitude":"44.18333000"},{"id":"a61494c7-0d2a-4ebb-ad23-ee32ecc4aaa1","name":"Jiblah","ru":"Jiblah","country":"87ee5005-9465-4be9-bdda-f31070489b99","countryCode":"YE","state":"5abd5284-8a71-43e3-b8b5-7d1b8181b12f","stateCode":"IB","latitude":"13.91480000","longitude":"44.12130000"},{"id":"a7db85cf-e5af-4152-9117-515cf09be67b","name":"Mudhaykhirah","ru":"Mudhaykhirah","country":"87ee5005-9465-4be9-bdda-f31070489b99","countryCode":"YE","state":"5abd5284-8a71-43e3-b8b5-7d1b8181b12f","stateCode":"IB","latitude":"13.86608000","longitude":"43.96866000"},{"id":"5ef2cd6d-6562-4635-abb0-ed26561ffd17","name":"Yarīm","ru":"Yarīm","country":"87ee5005-9465-4be9-bdda-f31070489b99","countryCode":"YE","state":"5abd5284-8a71-43e3-b8b5-7d1b8181b12f","stateCode":"IB","latitude":"14.25388000","longitude":"44.31176000"},{"id":"6b5d2347-8f03-4591-a4a5-2a45db396dfe","name":"Al  Hawtah","ru":"Al  Hawtah","country":"87ee5005-9465-4be9-bdda-f31070489b99","countryCode":"YE","state":"634c07ff-3ae7-4629-abad-99e21279bcab","stateCode":"LA","latitude":"13.06240000","longitude":"44.88160000"},{"id":"9a68fad7-4ca6-46be-8b63-f672a5c05c0f","name":"Al Ḩabīlayn","ru":"Al Ḩabīlayn","country":"87ee5005-9465-4be9-bdda-f31070489b99","countryCode":"YE","state":"634c07ff-3ae7-4629-abad-99e21279bcab","stateCode":"LA","latitude":"13.52002000","longitude":"44.85076000"},{"id":"14c0d171-4f63-4eb7-986b-c7916ddf0931","name":"Al Had","ru":"Al Had","country":"87ee5005-9465-4be9-bdda-f31070489b99","countryCode":"YE","state":"634c07ff-3ae7-4629-abad-99e21279bcab","stateCode":"LA","latitude":"13.97830000","longitude":"45.25530000"},{"id":"50b26208-7d92-4564-835d-112fc8dea21c","name":"Al Madaribah Wa Al Arah","ru":"Al Madaribah Wa Al Arah","country":"87ee5005-9465-4be9-bdda-f31070489b99","countryCode":"YE","state":"634c07ff-3ae7-4629-abad-99e21279bcab","stateCode":"LA","latitude":"12.85690000","longitude":"43.99060000"},{"id":"107dcf35-51d8-4da2-94be-663b93137fce","name":"Al Maflahy","ru":"Al Maflahy","country":"87ee5005-9465-4be9-bdda-f31070489b99","countryCode":"YE","state":"634c07ff-3ae7-4629-abad-99e21279bcab","stateCode":"LA","latitude":"13.77670000","longitude":"45.10880000"},{"id":"b7fbfac1-168b-4025-9b78-592e4125c522","name":"Al Maqatirah","ru":"Al Maqatirah","country":"87ee5005-9465-4be9-bdda-f31070489b99","countryCode":"YE","state":"634c07ff-3ae7-4629-abad-99e21279bcab","stateCode":"LA","latitude":"13.13720000","longitude":"44.14040000"},{"id":"61c731c6-15a0-4c79-80ba-5cbe06cfedf9","name":"Al Milah","ru":"Al Milah","country":"87ee5005-9465-4be9-bdda-f31070489b99","countryCode":"YE","state":"634c07ff-3ae7-4629-abad-99e21279bcab","stateCode":"LA","latitude":"13.32020000","longitude":"44.92670000"},{"id":"42d1a524-eff3-42f0-9e20-26d09912b931","name":"Al Musaymīr","ru":"Al Musaymīr","country":"87ee5005-9465-4be9-bdda-f31070489b99","countryCode":"YE","state":"634c07ff-3ae7-4629-abad-99e21279bcab","stateCode":"LA","latitude":"13.44389000","longitude":"44.61528000"},{"id":"8c1bff9a-2823-46e4-aed9-623bc658cf2d","name":"Al Musaymir","ru":"Al Musaymir","country":"87ee5005-9465-4be9-bdda-f31070489b99","countryCode":"YE","state":"634c07ff-3ae7-4629-abad-99e21279bcab","stateCode":"LA","latitude":"13.42910000","longitude":"44.59140000"},{"id":"441c9c31-fe37-4879-8348-dbd702b46473","name":"Al Qabbaytah","ru":"Al Qabbaytah","country":"87ee5005-9465-4be9-bdda-f31070489b99","countryCode":"YE","state":"634c07ff-3ae7-4629-abad-99e21279bcab","stateCode":"LA","latitude":"13.32750000","longitude":"44.50250000"},{"id":"af1cd6ce-d2b9-4dc4-9265-182f89712b24","name":"Habil Jabr","ru":"Habil Jabr","country":"87ee5005-9465-4be9-bdda-f31070489b99","countryCode":"YE","state":"634c07ff-3ae7-4629-abad-99e21279bcab","stateCode":"LA","latitude":"13.59210000","longitude":"45.07370000"},{"id":"94aa0aaa-e158-4bed-b9c5-9401253b27cf","name":"Halimayn","ru":"Halimayn","country":"87ee5005-9465-4be9-bdda-f31070489b99","countryCode":"YE","state":"634c07ff-3ae7-4629-abad-99e21279bcab","stateCode":"LA","latitude":"13.70880000","longitude":"44.94430000"},{"id":"e6e02379-e952-4ac4-9b43-3e120617e527","name":"Laḩij","ru":"Laḩij","country":"87ee5005-9465-4be9-bdda-f31070489b99","countryCode":"YE","state":"634c07ff-3ae7-4629-abad-99e21279bcab","stateCode":"LA","latitude":"13.05667000","longitude":"44.88194000"},{"id":"40e52d2e-a19d-4b8e-9fb6-e6b86c1699b8","name":"Radfan","ru":"Radfan","country":"87ee5005-9465-4be9-bdda-f31070489b99","countryCode":"YE","state":"634c07ff-3ae7-4629-abad-99e21279bcab","stateCode":"LA","latitude":"13.46670000","longitude":"44.99000000"},{"id":"59aab82e-00d9-4120-b35c-5b58bfc02e61","name":"Tuban","ru":"Tuban","country":"87ee5005-9465-4be9-bdda-f31070489b99","countryCode":"YE","state":"634c07ff-3ae7-4629-abad-99e21279bcab","stateCode":"LA","latitude":"13.09210000","longitude":"44.87840000"},{"id":"5fac2174-8e3a-43fa-96e9-3e89c68eb0d7","name":"Tur Al Bahah","ru":"Tur Al Bahah","country":"87ee5005-9465-4be9-bdda-f31070489b99","countryCode":"YE","state":"634c07ff-3ae7-4629-abad-99e21279bcab","stateCode":"LA","latitude":"13.04269000","longitude":"44.41154000"},{"id":"4c92ddbe-5da5-4372-8e4b-97a55ce41c36","name":"Yafa'a","ru":"Yafa'a","country":"87ee5005-9465-4be9-bdda-f31070489b99","countryCode":"YE","state":"634c07ff-3ae7-4629-abad-99e21279bcab","stateCode":"LA","latitude":"13.86200000","longitude":"45.20140000"},{"id":"f5974634-4ad5-4544-b21a-395aac8cb1a6","name":"Yahr","ru":"Yahr","country":"87ee5005-9465-4be9-bdda-f31070489b99","countryCode":"YE","state":"634c07ff-3ae7-4629-abad-99e21279bcab","stateCode":"LA","latitude":"13.72270000","longitude":"45.13050000"},{"id":"ef0c02e2-72d2-47c8-97e1-8ae8116fd526","name":"Al Abdiyah","ru":"Al Abdiyah","country":"87ee5005-9465-4be9-bdda-f31070489b99","countryCode":"YE","state":"d8e3635b-5904-41f3-ba5a-45ebff3e322a","stateCode":"MA","latitude":"14.71700000","longitude":"45.39340000"},{"id":"ce46a062-7772-46cf-a5bf-b1c7a3ac92d3","name":"Al Jubah","ru":"Al Jubah","country":"87ee5005-9465-4be9-bdda-f31070489b99","countryCode":"YE","state":"d8e3635b-5904-41f3-ba5a-45ebff3e322a","stateCode":"MA","latitude":"15.12490000","longitude":"45.28680000"},{"id":"8a240eb2-5344-4537-8cac-f4e80ad77bda","name":"Ḩarīb","ru":"Ḩarīb","country":"87ee5005-9465-4be9-bdda-f31070489b99","countryCode":"YE","state":"d8e3635b-5904-41f3-ba5a-45ebff3e322a","stateCode":"MA","latitude":"14.93045000","longitude":"45.36820000"},{"id":"6e087f50-0955-4541-873b-6c68cfa7cbba","name":"Bidbadah","ru":"Bidbadah","country":"87ee5005-9465-4be9-bdda-f31070489b99","countryCode":"YE","state":"d8e3635b-5904-41f3-ba5a-45ebff3e322a","stateCode":"MA","latitude":"15.39810000","longitude":"44.74730000"},{"id":"edfd6193-e915-4c70-85ac-1915f44af56c","name":"Harib Al Qaramish","ru":"Harib Al Qaramish","country":"87ee5005-9465-4be9-bdda-f31070489b99","countryCode":"YE","state":"d8e3635b-5904-41f3-ba5a-45ebff3e322a","stateCode":"MA","latitude":"15.47350000","longitude":"44.61530000"},{"id":"ee7e15e7-011a-4fb1-8cac-870ef44a0cac","name":"Jabal Murad","ru":"Jabal Murad","country":"87ee5005-9465-4be9-bdda-f31070489b99","countryCode":"YE","state":"d8e3635b-5904-41f3-ba5a-45ebff3e322a","stateCode":"MA","latitude":"15.04740000","longitude":"45.18870000"},{"id":"4fa1fc9a-49f3-4f78-b6e8-84b25e9144ac","name":"Ma'rib","ru":"Ma'rib","country":"87ee5005-9465-4be9-bdda-f31070489b99","countryCode":"YE","state":"d8e3635b-5904-41f3-ba5a-45ebff3e322a","stateCode":"MA","latitude":"15.46253000","longitude":"45.32581000"},{"id":"08e94a39-e112-498a-9ebd-8a353ee160b7","name":"Mahliyah","ru":"Mahliyah","country":"87ee5005-9465-4be9-bdda-f31070489b99","countryCode":"YE","state":"d8e3635b-5904-41f3-ba5a-45ebff3e322a","stateCode":"MA","latitude":"14.68210000","longitude":"45.18320000"},{"id":"21c8f057-56b2-4902-8bcb-3a85c3f57ad0","name":"Majzar","ru":"Majzar","country":"87ee5005-9465-4be9-bdda-f31070489b99","countryCode":"YE","state":"d8e3635b-5904-41f3-ba5a-45ebff3e322a","stateCode":"MA","latitude":"15.82770000","longitude":"44.79410000"},{"id":"d577f989-5b5b-446f-bfa8-72cae68256ad","name":"Marib","ru":"Marib","country":"87ee5005-9465-4be9-bdda-f31070489b99","countryCode":"YE","state":"d8e3635b-5904-41f3-ba5a-45ebff3e322a","stateCode":"MA","latitude":"15.62130000","longitude":"46.01110000"},{"id":"24eb6352-9719-4c6d-b653-75240e843969","name":"Marib City","ru":"Marib City","country":"87ee5005-9465-4be9-bdda-f31070489b99","countryCode":"YE","state":"d8e3635b-5904-41f3-ba5a-45ebff3e322a","stateCode":"MA","latitude":"15.41560000","longitude":"45.30340000"},{"id":"a1724279-6ac6-4dba-9ecd-9ed2648af985","name":"Medghal","ru":"Medghal","country":"87ee5005-9465-4be9-bdda-f31070489b99","countryCode":"YE","state":"d8e3635b-5904-41f3-ba5a-45ebff3e322a","stateCode":"MA","latitude":"15.63840000","longitude":"45.00380000"},{"id":"b0bc333f-0f61-4898-a2c7-baa49c772a9c","name":"Raghwan","ru":"Raghwan","country":"87ee5005-9465-4be9-bdda-f31070489b99","countryCode":"YE","state":"d8e3635b-5904-41f3-ba5a-45ebff3e322a","stateCode":"MA","latitude":"15.79020000","longitude":"45.06940000"},{"id":"9cae04cc-b1f7-4ec2-8617-02eaaae9226c","name":"Rahabah","ru":"Rahabah","country":"87ee5005-9465-4be9-bdda-f31070489b99","countryCode":"YE","state":"d8e3635b-5904-41f3-ba5a-45ebff3e322a","stateCode":"MA","latitude":"14.95100000","longitude":"45.08850000"},{"id":"0bd03506-4cf1-46b3-87ce-d0d147eb884b","name":"Sirwah","ru":"Sirwah","country":"87ee5005-9465-4be9-bdda-f31070489b99","countryCode":"YE","state":"d8e3635b-5904-41f3-ba5a-45ebff3e322a","stateCode":"MA","latitude":"15.43690000","longitude":"45.01150000"},{"id":"3cd05cd1-51c7-48ab-8983-bb294f5ad451","name":"Al Jabin","ru":"Al Jabin","country":"87ee5005-9465-4be9-bdda-f31070489b99","countryCode":"YE","state":"9770e087-f4b0-4260-9e85-1fb1ca3c6819","stateCode":"RA","latitude":"14.68990000","longitude":"43.61960000"},{"id":"4ef21097-3fe4-45a4-b2b8-fa1e440ac7b9","name":"Al Jafariyah","ru":"Al Jafariyah","country":"87ee5005-9465-4be9-bdda-f31070489b99","countryCode":"YE","state":"9770e087-f4b0-4260-9e85-1fb1ca3c6819","stateCode":"RA","latitude":"14.51960000","longitude":"43.58170000"},{"id":"540c8b59-d837-466f-b96d-1ab5a5bcb4f8","name":"As Salafiyah","ru":"As Salafiyah","country":"87ee5005-9465-4be9-bdda-f31070489b99","countryCode":"YE","state":"9770e087-f4b0-4260-9e85-1fb1ca3c6819","stateCode":"RA","latitude":"14.68660000","longitude":"43.82160000"},{"id":"a3d85a67-a624-4dff-8bed-629b9f894aca","name":"Bilad At Ta'am","ru":"Bilad At Ta'am","country":"87ee5005-9465-4be9-bdda-f31070489b99","countryCode":"YE","state":"9770e087-f4b0-4260-9e85-1fb1ca3c6819","stateCode":"RA","latitude":"14.83820000","longitude":"43.60780000"},{"id":"2e35dd35-4601-4359-b670-26548557b280","name":"Kusmah","ru":"Kusmah","country":"87ee5005-9465-4be9-bdda-f31070489b99","countryCode":"YE","state":"9770e087-f4b0-4260-9e85-1fb1ca3c6819","stateCode":"RA","latitude":"14.54740000","longitude":"43.68330000"},{"id":"c500c2d9-c79a-4518-a917-49d78dfd5aec","name":"Mazhar","ru":"Mazhar","country":"87ee5005-9465-4be9-bdda-f31070489b99","countryCode":"YE","state":"9770e087-f4b0-4260-9e85-1fb1ca3c6819","stateCode":"RA","latitude":"14.57090000","longitude":"43.76070000"},{"id":"9281919b-894f-48d9-9737-1f12474705d5","name":"Al Dhaher","ru":"Al Dhaher","country":"87ee5005-9465-4be9-bdda-f31070489b99","countryCode":"YE","state":"4829f6aa-2c8c-43b8-9f4a-e593d310941d","stateCode":"SD","latitude":"16.73140000","longitude":"43.27530000"},{"id":"1d520729-ebc7-4018-82b3-f941159d362b","name":"Al Hashwah","ru":"Al Hashwah","country":"87ee5005-9465-4be9-bdda-f31070489b99","countryCode":"YE","state":"4829f6aa-2c8c-43b8-9f4a-e593d310941d","stateCode":"SD","latitude":"16.88840000","longitude":"44.27380000"},{"id":"52d729ca-844b-4cd9-95ba-d2c629be3405","name":"As Safra","ru":"As Safra","country":"87ee5005-9465-4be9-bdda-f31070489b99","countryCode":"YE","state":"4829f6aa-2c8c-43b8-9f4a-e593d310941d","stateCode":"SD","latitude":"17.01420000","longitude":"43.85660000"},{"id":"c17985e5-f109-4bab-bbc7-2b44e2b26bad","name":"Ash Shawātī","ru":"Ash Shawātī","country":"87ee5005-9465-4be9-bdda-f31070489b99","countryCode":"YE","state":"4829f6aa-2c8c-43b8-9f4a-e593d310941d","stateCode":"SD","latitude":"16.78314000","longitude":"43.81265000"},{"id":"d4dffeab-bf64-4130-b203-3aaf5092d346","name":"Şa‘dah","ru":"Şa‘dah","country":"87ee5005-9465-4be9-bdda-f31070489b99","countryCode":"YE","state":"4829f6aa-2c8c-43b8-9f4a-e593d310941d","stateCode":"SD","latitude":"16.91733000","longitude":"43.76000000"},{"id":"33bdfcb0-f820-49df-8bb6-4ae15ce69e9f","name":"Baqim","ru":"Baqim","country":"87ee5005-9465-4be9-bdda-f31070489b99","countryCode":"YE","state":"4829f6aa-2c8c-43b8-9f4a-e593d310941d","stateCode":"SD","latitude":"17.37810000","longitude":"43.46350000"},{"id":"224880fc-1a22-454e-bfed-a7505efede68","name":"Ghamr","ru":"Ghamr","country":"87ee5005-9465-4be9-bdda-f31070489b99","countryCode":"YE","state":"4829f6aa-2c8c-43b8-9f4a-e593d310941d","stateCode":"SD","latitude":"16.98301000","longitude":"43.31608000"},{"id":"e8777a9a-bc74-44ee-a421-95fc1a8a0bd8","name":"Haydan","ru":"Haydan","country":"87ee5005-9465-4be9-bdda-f31070489b99","countryCode":"YE","state":"4829f6aa-2c8c-43b8-9f4a-e593d310941d","stateCode":"SD","latitude":"16.72870000","longitude":"43.48490000"},{"id":"6a92e83f-81f2-47e0-a2b2-7f03b4fa7534","name":"Kitaf wa Al Boqe'e","ru":"Kitaf wa Al Boqe'e","country":"87ee5005-9465-4be9-bdda-f31070489b99","countryCode":"YE","state":"4829f6aa-2c8c-43b8-9f4a-e593d310941d","stateCode":"SD","latitude":"17.08080000","longitude":"44.39620000"},{"id":"4d436cd6-9cef-46a6-87e0-138726d64d7b","name":"Majz","ru":"Majz","country":"87ee5005-9465-4be9-bdda-f31070489b99","countryCode":"YE","state":"4829f6aa-2c8c-43b8-9f4a-e593d310941d","stateCode":"SD","latitude":"17.09230000","longitude":"43.51040000"},{"id":"35c535a0-fc62-4072-b0c3-a1cb27f2f0a9","name":"Monabbih","ru":"Monabbih","country":"87ee5005-9465-4be9-bdda-f31070489b99","countryCode":"YE","state":"4829f6aa-2c8c-43b8-9f4a-e593d310941d","stateCode":"SD","latitude":"17.16930000","longitude":"43.27910000"},{"id":"66752941-686f-42ac-8c6a-45db17fc06aa","name":"Qatabir","ru":"Qatabir","country":"87ee5005-9465-4be9-bdda-f31070489b99","countryCode":"YE","state":"4829f6aa-2c8c-43b8-9f4a-e593d310941d","stateCode":"SD","latitude":"17.33680000","longitude":"43.33110000"},{"id":"d654b7b7-d8fc-44b4-9258-0fef58005a22","name":"Rāziḩ","ru":"Rāziḩ","country":"87ee5005-9465-4be9-bdda-f31070489b99","countryCode":"YE","state":"4829f6aa-2c8c-43b8-9f4a-e593d310941d","stateCode":"SD","latitude":"16.93704000","longitude":"43.26080000"},{"id":"9b9289ba-b384-4589-9b7c-b19a0358f3ea","name":"Sa'dah","ru":"Sa'dah","country":"87ee5005-9465-4be9-bdda-f31070489b99","countryCode":"YE","state":"4829f6aa-2c8c-43b8-9f4a-e593d310941d","stateCode":"SD","latitude":"16.94021000","longitude":"43.76393000"},{"id":"0546f5f8-6a29-49b6-b688-dbf6093de5bf","name":"Saḩār","ru":"Saḩār","country":"87ee5005-9465-4be9-bdda-f31070489b99","countryCode":"YE","state":"4829f6aa-2c8c-43b8-9f4a-e593d310941d","stateCode":"SD","latitude":"16.88522000","longitude":"43.68306000"},{"id":"52638cd6-78ce-4a50-84fe-99aac220b854","name":"Saqayn","ru":"Saqayn","country":"87ee5005-9465-4be9-bdda-f31070489b99","countryCode":"YE","state":"4829f6aa-2c8c-43b8-9f4a-e593d310941d","stateCode":"SD","latitude":"16.86010000","longitude":"43.47160000"},{"id":"f662f82a-9870-4375-ab94-9c95c3a3fe4c","name":"Sāqayn","ru":"Sāqayn","country":"87ee5005-9465-4be9-bdda-f31070489b99","countryCode":"YE","state":"4829f6aa-2c8c-43b8-9f4a-e593d310941d","stateCode":"SD","latitude":"16.87700000","longitude":"43.52499000"},{"id":"fd8c872b-0477-4914-a2ad-5685bcfdfda8","name":"Shada'a","ru":"Shada'a","country":"87ee5005-9465-4be9-bdda-f31070489b99","countryCode":"YE","state":"4829f6aa-2c8c-43b8-9f4a-e593d310941d","stateCode":"SD","latitude":"16.89130000","longitude":"43.18710000"},{"id":"76c7ffeb-67b3-4c49-b06e-5c88c2d31ee0","name":"Al Haymah Ad Dakhiliyah","ru":"Al Haymah Ad Dakhiliyah","country":"87ee5005-9465-4be9-bdda-f31070489b99","countryCode":"YE","state":"060bc831-7595-4123-9ccc-ecbf1a886f37","stateCode":"SN","latitude":"15.27220000","longitude":"43.83930000"},{"id":"28f48b2b-cb4c-4ea0-a725-7d82eaf88f26","name":"Al Haymah Al Kharijiyah","ru":"Al Haymah Al Kharijiyah","country":"87ee5005-9465-4be9-bdda-f31070489b99","countryCode":"YE","state":"060bc831-7595-4123-9ccc-ecbf1a886f37","stateCode":"SN","latitude":"15.02670000","longitude":"43.85000000"},{"id":"38794f4b-a4d6-45d3-81bd-fec4855720c8","name":"Al Husn","ru":"Al Husn","country":"87ee5005-9465-4be9-bdda-f31070489b99","countryCode":"YE","state":"060bc831-7595-4123-9ccc-ecbf1a886f37","stateCode":"SN","latitude":"15.02060000","longitude":"44.50440000"},{"id":"70cdd540-ac99-40a3-aad7-5a2d61cc3ee1","name":"Al Khāniq","ru":"Al Khāniq","country":"87ee5005-9465-4be9-bdda-f31070489b99","countryCode":"YE","state":"060bc831-7595-4123-9ccc-ecbf1a886f37","stateCode":"SN","latitude":"15.50253000","longitude":"44.18158000"},{"id":"7d1520ba-0c37-473b-a090-4a4990b41a96","name":"Arhab","ru":"Arhab","country":"87ee5005-9465-4be9-bdda-f31070489b99","countryCode":"YE","state":"060bc831-7595-4123-9ccc-ecbf1a886f37","stateCode":"SN","latitude":"15.79950000","longitude":"44.24660000"},{"id":"88cbefc8-7988-43fa-b753-829fffe9fdbf","name":"Attyal","ru":"Attyal","country":"87ee5005-9465-4be9-bdda-f31070489b99","countryCode":"YE","state":"060bc831-7595-4123-9ccc-ecbf1a886f37","stateCode":"SN","latitude":"15.32931000","longitude":"44.57739000"},{"id":"2f9f8ff1-becd-4474-ab41-11a3db7dec9e","name":"Bani Dhabyan","ru":"Bani Dhabyan","country":"87ee5005-9465-4be9-bdda-f31070489b99","countryCode":"YE","state":"060bc831-7595-4123-9ccc-ecbf1a886f37","stateCode":"SN","latitude":"15.04810000","longitude":"44.87180000"},{"id":"f79e132d-cf87-4b43-a9a2-5d09924baff1","name":"Bani Hushaysh","ru":"Bani Hushaysh","country":"87ee5005-9465-4be9-bdda-f31070489b99","countryCode":"YE","state":"060bc831-7595-4123-9ccc-ecbf1a886f37","stateCode":"SN","latitude":"15.45050000","longitude":"44.37820000"},{"id":"fc2eb9d6-1d0f-493a-9f25-81d857b5d6d8","name":"Bani Matar","ru":"Bani Matar","country":"87ee5005-9465-4be9-bdda-f31070489b99","countryCode":"YE","state":"060bc831-7595-4123-9ccc-ecbf1a886f37","stateCode":"SN","latitude":"15.21500000","longitude":"44.04980000"},{"id":"2f4ec572-04ea-4613-b532-b587d2bdb41b","name":"Bilad Ar Rus","ru":"Bilad Ar Rus","country":"87ee5005-9465-4be9-bdda-f31070489b99","countryCode":"YE","state":"060bc831-7595-4123-9ccc-ecbf1a886f37","stateCode":"SN","latitude":"15.03510000","longitude":"44.25140000"},{"id":"020d76fc-ab97-4853-842f-80074f8b57b8","name":"Hamdān","ru":"Hamdān","country":"87ee5005-9465-4be9-bdda-f31070489b99","countryCode":"YE","state":"060bc831-7595-4123-9ccc-ecbf1a886f37","stateCode":"SN","latitude":"15.50662000","longitude":"44.06030000"},{"id":"222d56ca-c688-4156-8264-b28e5caaf1ea","name":"Jihanah","ru":"Jihanah","country":"87ee5005-9465-4be9-bdda-f31070489b99","countryCode":"YE","state":"060bc831-7595-4123-9ccc-ecbf1a886f37","stateCode":"SN","latitude":"15.19190000","longitude":"44.51950000"},{"id":"0ed92e1f-eb6d-44c9-9eb9-bfd83c271a1b","name":"Khwlan","ru":"Khwlan","country":"87ee5005-9465-4be9-bdda-f31070489b99","countryCode":"YE","state":"060bc831-7595-4123-9ccc-ecbf1a886f37","stateCode":"SN","latitude":"15.27490000","longitude":"44.76860000"},{"id":"5dd2e417-b4fc-40db-979c-7262b3e21ef4","name":"Manakhah","ru":"Manakhah","country":"87ee5005-9465-4be9-bdda-f31070489b99","countryCode":"YE","state":"060bc831-7595-4123-9ccc-ecbf1a886f37","stateCode":"SN","latitude":"15.07170000","longitude":"43.68620000"},{"id":"fc07187f-dcdf-40ae-a42a-5ca35d100ede","name":"Manākhah","ru":"Manākhah","country":"87ee5005-9465-4be9-bdda-f31070489b99","countryCode":"YE","state":"060bc831-7595-4123-9ccc-ecbf1a886f37","stateCode":"SN","latitude":"15.07422000","longitude":"43.74156000"},{"id":"5762b264-819d-49e1-8079-f83a5e7b0aab","name":"Nihm","ru":"Nihm","country":"87ee5005-9465-4be9-bdda-f31070489b99","countryCode":"YE","state":"060bc831-7595-4123-9ccc-ecbf1a886f37","stateCode":"SN","latitude":"15.75160000","longitude":"44.57460000"},{"id":"fe6a046e-05bb-4f99-aec3-326382764441","name":"Sa'fan","ru":"Sa'fan","country":"87ee5005-9465-4be9-bdda-f31070489b99","countryCode":"YE","state":"060bc831-7595-4123-9ccc-ecbf1a886f37","stateCode":"SN","latitude":"15.07120000","longitude":"43.58270000"},{"id":"b349833b-85cf-48cd-ab77-c9620ab00741","name":"Saḩar","ru":"Saḩar","country":"87ee5005-9465-4be9-bdda-f31070489b99","countryCode":"YE","state":"060bc831-7595-4123-9ccc-ecbf1a886f37","stateCode":"SN","latitude":"15.31637000","longitude":"44.30880000"},{"id":"9c85784c-c056-4a5e-a510-b11cee6ec812","name":"Sanaa","ru":"Sanaa","country":"87ee5005-9465-4be9-bdda-f31070489b99","countryCode":"YE","state":"060bc831-7595-4123-9ccc-ecbf1a886f37","stateCode":"SN","latitude":"15.35472000","longitude":"44.20667000"},{"id":"3ce17863-a8d8-4df4-974c-1611162691cc","name":"Sanhan","ru":"Sanhan","country":"87ee5005-9465-4be9-bdda-f31070489b99","countryCode":"YE","state":"060bc831-7595-4123-9ccc-ecbf1a886f37","stateCode":"SN","latitude":"15.22520000","longitude":"44.30570000"},{"id":"63ff8cad-1714-454b-b2ab-5107551c1ab3","name":"Sayyān","ru":"Sayyān","country":"87ee5005-9465-4be9-bdda-f31070489b99","countryCode":"YE","state":"060bc831-7595-4123-9ccc-ecbf1a886f37","stateCode":"SN","latitude":"15.17177000","longitude":"44.32442000"},{"id":"c8d6dcd6-e543-42c3-961d-1932f866ca21","name":"Ain","ru":"Ain","country":"87ee5005-9465-4be9-bdda-f31070489b99","countryCode":"YE","state":"ace5f24b-b4ad-4783-ab4e-9dc099b850f3","stateCode":"SH","latitude":"14.95030000","longitude":"45.60040000"},{"id":"853874ee-30bf-4adb-aab0-48c7016837e3","name":"Al ‘Āqir","ru":"Al ‘Āqir","country":"87ee5005-9465-4be9-bdda-f31070489b99","countryCode":"YE","state":"ace5f24b-b4ad-4783-ab4e-9dc099b850f3","stateCode":"SH","latitude":"14.56816000","longitude":"45.91156000"},{"id":"7d1fa2a0-a662-435d-8832-87fbd4187256","name":"Al Talh","ru":"Al Talh","country":"87ee5005-9465-4be9-bdda-f31070489b99","countryCode":"YE","state":"ace5f24b-b4ad-4783-ab4e-9dc099b850f3","stateCode":"SH","latitude":"15.08260000","longitude":"47.35140000"},{"id":"5ddabe3f-0d4c-4dba-903a-e119d75ec458","name":"AL-khashā upper","ru":"AL-khashā upper","country":"87ee5005-9465-4be9-bdda-f31070489b99","countryCode":"YE","state":"ace5f24b-b4ad-4783-ab4e-9dc099b850f3","stateCode":"SH","latitude":"14.34044000","longitude":"46.71365000"},{"id":"4adfed49-a794-42e0-a79e-5a60fff2abe1","name":"Ar Rawdah","ru":"Ar Rawdah","country":"87ee5005-9465-4be9-bdda-f31070489b99","countryCode":"YE","state":"ace5f24b-b4ad-4783-ab4e-9dc099b850f3","stateCode":"SH","latitude":"14.49560000","longitude":"47.27460000"},{"id":"b9e168bb-f6a8-4959-b51b-20a067a45bdd","name":"Arma","ru":"Arma","country":"87ee5005-9465-4be9-bdda-f31070489b99","countryCode":"YE","state":"ace5f24b-b4ad-4783-ab4e-9dc099b850f3","stateCode":"SH","latitude":"15.41270000","longitude":"47.23450000"},{"id":"87da666c-1bda-42f2-b9e1-124877362a4b","name":"As Said","ru":"As Said","country":"87ee5005-9465-4be9-bdda-f31070489b99","countryCode":"YE","state":"ace5f24b-b4ad-4783-ab4e-9dc099b850f3","stateCode":"SH","latitude":"14.27660000","longitude":"46.86930000"},{"id":"0d451603-66e0-46b1-a03f-d1e84d683e05","name":"Ataq","ru":"Ataq","country":"87ee5005-9465-4be9-bdda-f31070489b99","countryCode":"YE","state":"ace5f24b-b4ad-4783-ab4e-9dc099b850f3","stateCode":"SH","latitude":"14.53767000","longitude":"46.83187000"},{"id":"c9a2e3c4-8dbd-4b7c-9e3c-6f36813bb2cf","name":"Bayhan","ru":"Bayhan","country":"87ee5005-9465-4be9-bdda-f31070489b99","countryCode":"YE","state":"ace5f24b-b4ad-4783-ab4e-9dc099b850f3","stateCode":"SH","latitude":"14.76190000","longitude":"45.74820000"},{"id":"02895c35-38ed-4154-8153-f9f1da25be0b","name":"Dhar","ru":"Dhar","country":"87ee5005-9465-4be9-bdda-f31070489b99","countryCode":"YE","state":"ace5f24b-b4ad-4783-ab4e-9dc099b850f3","stateCode":"SH","latitude":"15.50360000","longitude":"47.60580000"},{"id":"e2ac4f16-4f02-439c-b7e4-d6bce75a86a3","name":"Habban","ru":"Habban","country":"87ee5005-9465-4be9-bdda-f31070489b99","countryCode":"YE","state":"ace5f24b-b4ad-4783-ab4e-9dc099b850f3","stateCode":"SH","latitude":"14.28780000","longitude":"47.13610000"},{"id":"c5ec57d5-de30-4767-afb5-a21e288d54bc","name":"Hatib","ru":"Hatib","country":"87ee5005-9465-4be9-bdda-f31070489b99","countryCode":"YE","state":"ace5f24b-b4ad-4783-ab4e-9dc099b850f3","stateCode":"SH","latitude":"14.18020000","longitude":"46.44390000"},{"id":"1a752c06-6c3a-43ba-9aa4-227607aa9789","name":"Jardan","ru":"Jardan","country":"87ee5005-9465-4be9-bdda-f31070489b99","countryCode":"YE","state":"ace5f24b-b4ad-4783-ab4e-9dc099b850f3","stateCode":"SH","latitude":"15.19000000","longitude":"46.73380000"},{"id":"29fb9574-f891-4fdb-9a1c-ecea73f24823","name":"Khimār","ru":"Khimār","country":"87ee5005-9465-4be9-bdda-f31070489b99","countryCode":"YE","state":"ace5f24b-b4ad-4783-ab4e-9dc099b850f3","stateCode":"SH","latitude":"14.31980000","longitude":"46.73922000"},{"id":"d66d2b49-d305-4b46-b9d5-b690981c5d5b","name":"Mayfa'a","ru":"Mayfa'a","country":"87ee5005-9465-4be9-bdda-f31070489b99","countryCode":"YE","state":"ace5f24b-b4ad-4783-ab4e-9dc099b850f3","stateCode":"SH","latitude":"14.39780000","longitude":"47.74040000"},{"id":"f09af4d5-12ca-4cb3-9ef4-09458ed704f1","name":"Merkhah Al Ulya","ru":"Merkhah Al Ulya","country":"87ee5005-9465-4be9-bdda-f31070489b99","countryCode":"YE","state":"ace5f24b-b4ad-4783-ab4e-9dc099b850f3","stateCode":"SH","latitude":"14.48470000","longitude":"45.92990000"},{"id":"941cbef4-daf0-48a8-be6d-756dd10cd4ef","name":"Merkhah As Sufla","ru":"Merkhah As Sufla","country":"87ee5005-9465-4be9-bdda-f31070489b99","countryCode":"YE","state":"ace5f24b-b4ad-4783-ab4e-9dc099b850f3","stateCode":"SH","latitude":"14.69990000","longitude":"46.15630000"},{"id":"14d29e4a-27e3-4ae1-a4b6-07c07d225739","name":"Nisab","ru":"Nisab","country":"87ee5005-9465-4be9-bdda-f31070489b99","countryCode":"YE","state":"ace5f24b-b4ad-4783-ab4e-9dc099b850f3","stateCode":"SH","latitude":"14.52570000","longitude":"46.44770000"},{"id":"75f01bed-4053-47e3-a5d8-344ee83ffb8d","name":"Rudum","ru":"Rudum","country":"87ee5005-9465-4be9-bdda-f31070489b99","countryCode":"YE","state":"ace5f24b-b4ad-4783-ab4e-9dc099b850f3","stateCode":"SH","latitude":"14.03759000","longitude":"47.83824000"},{"id":"1528431a-97ac-4d3d-b725-c9da869664cb","name":"Usaylan","ru":"Usaylan","country":"87ee5005-9465-4be9-bdda-f31070489b99","countryCode":"YE","state":"ace5f24b-b4ad-4783-ab4e-9dc099b850f3","stateCode":"SH","latitude":"15.17030000","longitude":"46.02740000"},{"id":"339a761d-f91b-4463-8dbe-93658f229fdd","name":"Hadibu","ru":"Hadibu","country":"87ee5005-9465-4be9-bdda-f31070489b99","countryCode":"YE","state":"009382b8-4984-4c79-9e88-13a684b9dedf","stateCode":"SU","latitude":"12.64881000","longitude":"54.01895000"},{"id":"7ee7334c-eb8d-4f4e-a8c4-40408cdf51fa","name":"Hidaybu","ru":"Hidaybu","country":"87ee5005-9465-4be9-bdda-f31070489b99","countryCode":"YE","state":"009382b8-4984-4c79-9e88-13a684b9dedf","stateCode":"SU","latitude":"12.50250000","longitude":"54.00820000"},{"id":"6beb635e-7c3a-438e-ba96-797b984e5be1","name":"Qalansīyah","ru":"Qalansīyah","country":"87ee5005-9465-4be9-bdda-f31070489b99","countryCode":"YE","state":"009382b8-4984-4c79-9e88-13a684b9dedf","stateCode":"SU","latitude":"12.68958000","longitude":"53.48709000"},{"id":"857027e7-f9f6-4cd4-98f5-267273a70e34","name":"Qulensya Wa Abd Al Kuri","ru":"Qulensya Wa Abd Al Kuri","country":"87ee5005-9465-4be9-bdda-f31070489b99","countryCode":"YE","state":"009382b8-4984-4c79-9e88-13a684b9dedf","stateCode":"SU","latitude":"12.55479000","longitude":"53.58671000"},{"id":"2cf610e7-7274-4ae4-9cc4-3aca6c72a20b","name":"Al Ma'afer","ru":"Al Ma'afer","country":"87ee5005-9465-4be9-bdda-f31070489b99","countryCode":"YE","state":"930ec4b3-25ec-4e07-9ea5-193a34a42f7b","stateCode":"TA","latitude":"13.37420000","longitude":"43.92620000"},{"id":"41e204b4-8a59-416d-baa4-8a169f1fbc3b","name":"Al Mawasit","ru":"Al Mawasit","country":"87ee5005-9465-4be9-bdda-f31070489b99","countryCode":"YE","state":"930ec4b3-25ec-4e07-9ea5-193a34a42f7b","stateCode":"TA","latitude":"13.30420000","longitude":"44.10050000"},{"id":"58d91c4b-93c3-4a6c-91d6-c8b7b63bac97","name":"Al Misrakh","ru":"Al Misrakh","country":"87ee5005-9465-4be9-bdda-f31070489b99","countryCode":"YE","state":"930ec4b3-25ec-4e07-9ea5-193a34a42f7b","stateCode":"TA","latitude":"13.47020000","longitude":"44.03770000"},{"id":"583ab8a1-0178-4683-ac67-286d54564099","name":"Al Mudhaffar","ru":"Al Mudhaffar","country":"87ee5005-9465-4be9-bdda-f31070489b99","countryCode":"YE","state":"930ec4b3-25ec-4e07-9ea5-193a34a42f7b","stateCode":"TA","latitude":"13.58310000","longitude":"43.99270000"},{"id":"a4dfc8a9-71c5-43c3-9ab9-6713feac5de8","name":"Al Mukhā’","ru":"Al Mukhā’","country":"87ee5005-9465-4be9-bdda-f31070489b99","countryCode":"YE","state":"930ec4b3-25ec-4e07-9ea5-193a34a42f7b","stateCode":"TA","latitude":"13.51998000","longitude":"43.42798000"},{"id":"4bb15d25-7d5d-4b04-87f7-1ed2f690cd65","name":"Al Qahirah","ru":"Al Qahirah","country":"87ee5005-9465-4be9-bdda-f31070489b99","countryCode":"YE","state":"930ec4b3-25ec-4e07-9ea5-193a34a42f7b","stateCode":"TA","latitude":"13.58490000","longitude":"44.01010000"},{"id":"de59cd29-6e78-4e89-8fae-088c57317b31","name":"Al Wazi'iyah","ru":"Al Wazi'iyah","country":"87ee5005-9465-4be9-bdda-f31070489b99","countryCode":"YE","state":"930ec4b3-25ec-4e07-9ea5-193a34a42f7b","stateCode":"TA","latitude":"13.18460000","longitude":"43.72980000"},{"id":"c4437933-e4e8-4299-9330-4907b047c1a6","name":"As Silw","ru":"As Silw","country":"87ee5005-9465-4be9-bdda-f31070489b99","countryCode":"YE","state":"930ec4b3-25ec-4e07-9ea5-193a34a42f7b","stateCode":"TA","latitude":"13.34590000","longitude":"44.20720000"},{"id":"2603ad52-cbe0-41ac-95fe-d2d99ab17e05","name":"Ash Shamayatayn","ru":"Ash Shamayatayn","country":"87ee5005-9465-4be9-bdda-f31070489b99","countryCode":"YE","state":"930ec4b3-25ec-4e07-9ea5-193a34a42f7b","stateCode":"TA","latitude":"13.18220000","longitude":"43.98000000"},{"id":"d4f2f69b-53ae-45b9-955b-8ebf8ac7af43","name":"At Ta‘izzīyah","ru":"At Ta‘izzīyah","country":"87ee5005-9465-4be9-bdda-f31070489b99","countryCode":"YE","state":"930ec4b3-25ec-4e07-9ea5-193a34a42f7b","stateCode":"TA","latitude":"13.69479000","longitude":"44.00941000"},{"id":"c4ee7485-8ac8-4811-9bac-9eaa7095857b","name":"Dhubab","ru":"Dhubab","country":"87ee5005-9465-4be9-bdda-f31070489b99","countryCode":"YE","state":"930ec4b3-25ec-4e07-9ea5-193a34a42f7b","stateCode":"TA","latitude":"12.96590000","longitude":"43.47240000"},{"id":"aa2e5380-3ec0-44ed-a75c-9e8da92c5eae","name":"Dimnat Khadir","ru":"Dimnat Khadir","country":"87ee5005-9465-4be9-bdda-f31070489b99","countryCode":"YE","state":"930ec4b3-25ec-4e07-9ea5-193a34a42f7b","stateCode":"TA","latitude":"13.43860000","longitude":"44.25420000"},{"id":"de07102b-ba6c-43fe-a1e2-9045888b6b18","name":"Hayfan","ru":"Hayfan","country":"87ee5005-9465-4be9-bdda-f31070489b99","countryCode":"YE","state":"930ec4b3-25ec-4e07-9ea5-193a34a42f7b","stateCode":"TA","latitude":"13.29060000","longitude":"44.26070000"},{"id":"bd32d5dd-f44f-4027-adfc-36aacc5ee3e7","name":"Jabal Habashy","ru":"Jabal Habashy","country":"87ee5005-9465-4be9-bdda-f31070489b99","countryCode":"YE","state":"930ec4b3-25ec-4e07-9ea5-193a34a42f7b","stateCode":"TA","latitude":"13.46650000","longitude":"43.88100000"},{"id":"3e5263f6-9996-4369-a02f-f2c489f5d6a7","name":"Maqbanah","ru":"Maqbanah","country":"87ee5005-9465-4be9-bdda-f31070489b99","countryCode":"YE","state":"930ec4b3-25ec-4e07-9ea5-193a34a42f7b","stateCode":"TA","latitude":"13.62120000","longitude":"43.66740000"},{"id":"e697ea7a-1241-4d9c-b795-1875a812edd0","name":"Mashra'a Wa Hadnan","ru":"Mashra'a Wa Hadnan","country":"87ee5005-9465-4be9-bdda-f31070489b99","countryCode":"YE","state":"930ec4b3-25ec-4e07-9ea5-193a34a42f7b","stateCode":"TA","latitude":"13.54170000","longitude":"43.99830000"},{"id":"5c888212-a07f-429b-be8c-76cb8705c979","name":"Mawza","ru":"Mawza","country":"87ee5005-9465-4be9-bdda-f31070489b99","countryCode":"YE","state":"930ec4b3-25ec-4e07-9ea5-193a34a42f7b","stateCode":"TA","latitude":"13.37820000","longitude":"43.61450000"},{"id":"74b14326-8ce9-4364-a729-ce70764a5ee1","name":"Māwīyah","ru":"Māwīyah","country":"87ee5005-9465-4be9-bdda-f31070489b99","countryCode":"YE","state":"930ec4b3-25ec-4e07-9ea5-193a34a42f7b","stateCode":"TA","latitude":"13.58461000","longitude":"44.31912000"},{"id":"7e7ffdac-049b-416f-9112-db0cad539841","name":"Sabir Al Mawadim","ru":"Sabir Al Mawadim","country":"87ee5005-9465-4be9-bdda-f31070489b99","countryCode":"YE","state":"930ec4b3-25ec-4e07-9ea5-193a34a42f7b","stateCode":"TA","latitude":"13.53180000","longitude":"44.04620000"},{"id":"2f95e607-be2c-4863-b815-ac9e7156e4f8","name":"Salh","ru":"Salh","country":"87ee5005-9465-4be9-bdda-f31070489b99","countryCode":"YE","state":"930ec4b3-25ec-4e07-9ea5-193a34a42f7b","stateCode":"TA","latitude":"13.58390000","longitude":"44.04020000"},{"id":"c09bae42-e99a-4bbc-a264-7915f2b7d95a","name":"Sama","ru":"Sama","country":"87ee5005-9465-4be9-bdda-f31070489b99","countryCode":"YE","state":"930ec4b3-25ec-4e07-9ea5-193a34a42f7b","stateCode":"TA","latitude":"13.38090000","longitude":"44.11660000"},{"id":"f6201921-71c3-4057-9ce4-ba95d6a157fe","name":"Shara'b Ar Rawnah","ru":"Shara'b Ar Rawnah","country":"87ee5005-9465-4be9-bdda-f31070489b99","countryCode":"YE","state":"930ec4b3-25ec-4e07-9ea5-193a34a42f7b","stateCode":"TA","latitude":"13.73360000","longitude":"43.76720000"},{"id":"c4f7fc89-52fe-4a7f-89c8-b47741020c16","name":"Shara'b As Salam","ru":"Shara'b As Salam","country":"87ee5005-9465-4be9-bdda-f31070489b99","countryCode":"YE","state":"930ec4b3-25ec-4e07-9ea5-193a34a42f7b","stateCode":"TA","latitude":"13.78320000","longitude":"43.88610000"},{"id":"e324f1a1-81a0-4c08-8fdd-2f0125da8d70","name":"Ta‘izz","ru":"Ta‘izz","country":"87ee5005-9465-4be9-bdda-f31070489b99","countryCode":"YE","state":"930ec4b3-25ec-4e07-9ea5-193a34a42f7b","stateCode":"TA","latitude":"13.57952000","longitude":"44.02091000"},{"id":"a7283c60-f9ec-4bbe-94f9-f8310a54faf7","name":"Village of ALAMRAH","ru":"Village of ALAMRAH","country":"87ee5005-9465-4be9-bdda-f31070489b99","countryCode":"YE","state":"930ec4b3-25ec-4e07-9ea5-193a34a42f7b","stateCode":"TA","latitude":"13.74318000","longitude":"43.72992000"}]