[{"id":"c05506f3-52f5-4fb2-9045-e1f79ad13d70","name":"Airdrie","ru":"Airdrie","country":"3e89aecc-4937-4f97-a65e-1bdc23429277","countryCode":"CA","state":"c370b527-ab59-43f0-8d3a-03cfc7ebbb91","stateCode":"AB","latitude":"51.30011000","longitude":"-114.03528000"},{"id":"e8501e77-e720-44c9-809a-cf030cb8f05f","name":"Athabasca","ru":"Athabasca","country":"3e89aecc-4937-4f97-a65e-1bdc23429277","countryCode":"CA","state":"c370b527-ab59-43f0-8d3a-03cfc7ebbb91","stateCode":"AB","latitude":"54.71687000","longitude":"-113.28537000"},{"id":"0c8c7785-a143-493e-b72b-173dccf2c17f","name":"Banff","ru":"Banff","country":"3e89aecc-4937-4f97-a65e-1bdc23429277","countryCode":"CA","state":"c370b527-ab59-43f0-8d3a-03cfc7ebbb91","stateCode":"AB","latitude":"51.17622000","longitude":"-115.56982000"},{"id":"357a6f1a-6d29-4c60-a842-ccd03d5a448a","name":"Barrhead","ru":"Barrhead","country":"3e89aecc-4937-4f97-a65e-1bdc23429277","countryCode":"CA","state":"c370b527-ab59-43f0-8d3a-03cfc7ebbb91","stateCode":"AB","latitude":"54.13345000","longitude":"-114.40211000"},{"id":"0dbe6611-eb7e-4c77-a761-5791ab090e7a","name":"Bassano","ru":"Bassano","country":"3e89aecc-4937-4f97-a65e-1bdc23429277","countryCode":"CA","state":"c370b527-ab59-43f0-8d3a-03cfc7ebbb91","stateCode":"AB","latitude":"50.78342000","longitude":"-112.46854000"},{"id":"259afbcd-8235-4942-b0af-7bf4e47cd0ef","name":"Beaumont","ru":"Beaumont","country":"3e89aecc-4937-4f97-a65e-1bdc23429277","countryCode":"CA","state":"c370b527-ab59-43f0-8d3a-03cfc7ebbb91","stateCode":"AB","latitude":"53.35013000","longitude":"-113.41871000"},{"id":"f1824408-0db1-40ec-af9a-723f5f2865c1","name":"Beaverlodge","ru":"Beaverlodge","country":"3e89aecc-4937-4f97-a65e-1bdc23429277","countryCode":"CA","state":"c370b527-ab59-43f0-8d3a-03cfc7ebbb91","stateCode":"AB","latitude":"55.21664000","longitude":"-119.43605000"},{"id":"729bf7ee-327d-4d9e-a1d3-fdff2fcc8290","name":"Black Diamond","ru":"Black Diamond","country":"3e89aecc-4937-4f97-a65e-1bdc23429277","countryCode":"CA","state":"c370b527-ab59-43f0-8d3a-03cfc7ebbb91","stateCode":"AB","latitude":"50.70011000","longitude":"-114.23530000"},{"id":"8d21b9ec-c7df-4643-891e-eb764b0e2569","name":"Blackfalds","ru":"Blackfalds","country":"3e89aecc-4937-4f97-a65e-1bdc23429277","countryCode":"CA","state":"c370b527-ab59-43f0-8d3a-03cfc7ebbb91","stateCode":"AB","latitude":"52.38342000","longitude":"-113.78530000"},{"id":"32286cc0-82c7-433a-900b-b17bf4a5f525","name":"Bon Accord","ru":"Bon Accord","country":"3e89aecc-4937-4f97-a65e-1bdc23429277","countryCode":"CA","state":"c370b527-ab59-43f0-8d3a-03cfc7ebbb91","stateCode":"AB","latitude":"53.83345000","longitude":"-113.41872000"},{"id":"52f92650-f8f6-43ca-b535-2024888112ec","name":"Bonnyville","ru":"Bonnyville","country":"3e89aecc-4937-4f97-a65e-1bdc23429277","countryCode":"CA","state":"c370b527-ab59-43f0-8d3a-03cfc7ebbb91","stateCode":"AB","latitude":"54.26684000","longitude":"-110.73505000"},{"id":"9d408716-fe4c-4604-a13c-bc529225284a","name":"Bow Island","ru":"Bow Island","country":"3e89aecc-4937-4f97-a65e-1bdc23429277","countryCode":"CA","state":"c370b527-ab59-43f0-8d3a-03cfc7ebbb91","stateCode":"AB","latitude":"49.86676000","longitude":"-111.36843000"},{"id":"396e54d1-7f30-4807-b7e9-c73e9e6f0adc","name":"Brooks","ru":"Brooks","country":"3e89aecc-4937-4f97-a65e-1bdc23429277","countryCode":"CA","state":"c370b527-ab59-43f0-8d3a-03cfc7ebbb91","stateCode":"AB","latitude":"50.58341000","longitude":"-111.88509000"},{"id":"8b4cf279-3802-4bb9-8b4e-982d426921df","name":"Calgary","ru":"Calgary","country":"3e89aecc-4937-4f97-a65e-1bdc23429277","countryCode":"CA","state":"c370b527-ab59-43f0-8d3a-03cfc7ebbb91","stateCode":"AB","latitude":"51.05011000","longitude":"-114.08529000"},{"id":"7efbb64d-8bc8-4295-b3b8-87546758f05b","name":"Calmar","ru":"Calmar","country":"3e89aecc-4937-4f97-a65e-1bdc23429277","countryCode":"CA","state":"c370b527-ab59-43f0-8d3a-03cfc7ebbb91","stateCode":"AB","latitude":"53.26683000","longitude":"-113.81874000"},{"id":"c74f26ce-ce4a-498c-9188-90e840f25e21","name":"Camrose","ru":"Camrose","country":"3e89aecc-4937-4f97-a65e-1bdc23429277","countryCode":"CA","state":"c370b527-ab59-43f0-8d3a-03cfc7ebbb91","stateCode":"AB","latitude":"53.01684000","longitude":"-112.83525000"},{"id":"7b540bbe-3cd0-40a8-b1f9-2571fd663e00","name":"Canmore","ru":"Canmore","country":"3e89aecc-4937-4f97-a65e-1bdc23429277","countryCode":"CA","state":"c370b527-ab59-43f0-8d3a-03cfc7ebbb91","stateCode":"AB","latitude":"51.08335000","longitude":"-115.35206000"},{"id":"ff0a7e81-561b-4086-9528-e1950e26d430","name":"Cardston","ru":"Cardston","country":"3e89aecc-4937-4f97-a65e-1bdc23429277","countryCode":"CA","state":"c370b527-ab59-43f0-8d3a-03cfc7ebbb91","stateCode":"AB","latitude":"49.19998000","longitude":"-113.30190000"},{"id":"7d92564f-fe5d-4154-abf0-1f8d75c69f9b","name":"Carstairs","ru":"Carstairs","country":"3e89aecc-4937-4f97-a65e-1bdc23429277","countryCode":"CA","state":"c370b527-ab59-43f0-8d3a-03cfc7ebbb91","stateCode":"AB","latitude":"51.56681000","longitude":"-114.10200000"},{"id":"975704d1-ba9d-40e4-b3a9-2be2090acb34","name":"Chestermere","ru":"Chestermere","country":"3e89aecc-4937-4f97-a65e-1bdc23429277","countryCode":"CA","state":"c370b527-ab59-43f0-8d3a-03cfc7ebbb91","stateCode":"AB","latitude":"51.03341000","longitude":"-113.81867000"},{"id":"ce11ad80-6870-40e5-bd8b-dd6df1667577","name":"Claresholm","ru":"Claresholm","country":"3e89aecc-4937-4f97-a65e-1bdc23429277","countryCode":"CA","state":"c370b527-ab59-43f0-8d3a-03cfc7ebbb91","stateCode":"AB","latitude":"50.03332000","longitude":"-113.58524000"},{"id":"53316d11-c215-4562-85f0-e7b4239aafd5","name":"Coaldale","ru":"Coaldale","country":"3e89aecc-4937-4f97-a65e-1bdc23429277","countryCode":"CA","state":"c370b527-ab59-43f0-8d3a-03cfc7ebbb91","stateCode":"AB","latitude":"49.71670000","longitude":"-112.61854000"},{"id":"79156e7c-6922-48b4-a2d5-41d9c0e402d6","name":"Coalhurst","ru":"Coalhurst","country":"3e89aecc-4937-4f97-a65e-1bdc23429277","countryCode":"CA","state":"c370b527-ab59-43f0-8d3a-03cfc7ebbb91","stateCode":"AB","latitude":"49.74640000","longitude":"-112.93246000"},{"id":"16bc7909-2da4-4d9d-ad8d-316674203364","name":"Cochrane","ru":"Cochrane","country":"3e89aecc-4937-4f97-a65e-1bdc23429277","countryCode":"CA","state":"c370b527-ab59-43f0-8d3a-03cfc7ebbb91","stateCode":"AB","latitude":"51.18341000","longitude":"-114.46871000"},{"id":"a054aa26-e7c3-451e-a857-850c2c505ad0","name":"Cold Lake","ru":"Cold Lake","country":"3e89aecc-4937-4f97-a65e-1bdc23429277","countryCode":"CA","state":"c370b527-ab59-43f0-8d3a-03cfc7ebbb91","stateCode":"AB","latitude":"54.46525000","longitude":"-110.18154000"},{"id":"07109566-2edc-4087-87e3-4d065ac81aa6","name":"Crossfield","ru":"Crossfield","country":"3e89aecc-4937-4f97-a65e-1bdc23429277","countryCode":"CA","state":"c370b527-ab59-43f0-8d3a-03cfc7ebbb91","stateCode":"AB","latitude":"51.43341000","longitude":"-114.03528000"},{"id":"dcf10dd3-1013-4a14-beb8-62d561702f96","name":"Devon","ru":"Devon","country":"3e89aecc-4937-4f97-a65e-1bdc23429277","countryCode":"CA","state":"c370b527-ab59-43f0-8d3a-03cfc7ebbb91","stateCode":"AB","latitude":"53.36683000","longitude":"-113.73533000"},{"id":"e26e8ef5-1c79-41b7-9390-d10a222a3536","name":"Didsbury","ru":"Didsbury","country":"3e89aecc-4937-4f97-a65e-1bdc23429277","countryCode":"CA","state":"c370b527-ab59-43f0-8d3a-03cfc7ebbb91","stateCode":"AB","latitude":"51.66681000","longitude":"-114.13529000"},{"id":"feb05ca1-7a7a-4333-b629-50f9322e4403","name":"Drayton Valley","ru":"Drayton Valley","country":"3e89aecc-4937-4f97-a65e-1bdc23429277","countryCode":"CA","state":"c370b527-ab59-43f0-8d3a-03cfc7ebbb91","stateCode":"AB","latitude":"53.21682000","longitude":"-114.98544000"},{"id":"0a784876-698e-44dc-8fdd-c376f9e2be47","name":"Edmonton","ru":"Edmonton","country":"3e89aecc-4937-4f97-a65e-1bdc23429277","countryCode":"CA","state":"c370b527-ab59-43f0-8d3a-03cfc7ebbb91","stateCode":"AB","latitude":"53.55014000","longitude":"-113.46871000"},{"id":"469542dc-d207-46be-af32-7a7760a4f586","name":"Edson","ru":"Edson","country":"3e89aecc-4937-4f97-a65e-1bdc23429277","countryCode":"CA","state":"c370b527-ab59-43f0-8d3a-03cfc7ebbb91","stateCode":"AB","latitude":"53.58345000","longitude":"-116.43559000"},{"id":"4cd36b9c-2206-468e-8bdc-0b4e8bf79496","name":"Elk Point","ru":"Elk Point","country":"3e89aecc-4937-4f97-a65e-1bdc23429277","countryCode":"CA","state":"c370b527-ab59-43f0-8d3a-03cfc7ebbb91","stateCode":"AB","latitude":"53.90017000","longitude":"-110.90170000"},{"id":"82893f81-75aa-47f6-bcae-7b5ffa2fc254","name":"Fairview","ru":"Fairview","country":"3e89aecc-4937-4f97-a65e-1bdc23429277","countryCode":"CA","state":"c370b527-ab59-43f0-8d3a-03cfc7ebbb91","stateCode":"AB","latitude":"56.06675000","longitude":"-118.38606000"},{"id":"a4b3c2d9-020a-42dc-aa6d-dfa2154ae976","name":"Falher","ru":"Falher","country":"3e89aecc-4937-4f97-a65e-1bdc23429277","countryCode":"CA","state":"c370b527-ab59-43f0-8d3a-03cfc7ebbb91","stateCode":"AB","latitude":"55.73339000","longitude":"-117.20262000"},{"id":"d016bb79-06b0-464e-b209-855437c1f4c0","name":"Fort Macleod","ru":"Fort Macleod","country":"3e89aecc-4937-4f97-a65e-1bdc23429277","countryCode":"CA","state":"c370b527-ab59-43f0-8d3a-03cfc7ebbb91","stateCode":"AB","latitude":"49.71671000","longitude":"-113.41857000"},{"id":"45bdaa16-2029-427a-a0bb-89944d3bf487","name":"Fort McMurray","ru":"Fort McMurray","country":"3e89aecc-4937-4f97-a65e-1bdc23429277","countryCode":"CA","state":"c370b527-ab59-43f0-8d3a-03cfc7ebbb91","stateCode":"AB","latitude":"56.72676000","longitude":"-111.38103000"},{"id":"145b78ff-132d-40d2-8329-cfffd9ba4b7d","name":"Fort Saskatchewan","ru":"Fort Saskatchewan","country":"3e89aecc-4937-4f97-a65e-1bdc23429277","countryCode":"CA","state":"c370b527-ab59-43f0-8d3a-03cfc7ebbb91","stateCode":"AB","latitude":"53.71684000","longitude":"-113.21870000"},{"id":"2c2ff79f-2540-42aa-8ac6-654b170464a5","name":"Fox Creek","ru":"Fox Creek","country":"3e89aecc-4937-4f97-a65e-1bdc23429277","countryCode":"CA","state":"c370b527-ab59-43f0-8d3a-03cfc7ebbb91","stateCode":"AB","latitude":"54.40007000","longitude":"-116.80238000"},{"id":"288b8483-465a-4917-98c6-1f742ed213d1","name":"Gibbons","ru":"Gibbons","country":"3e89aecc-4937-4f97-a65e-1bdc23429277","countryCode":"CA","state":"c370b527-ab59-43f0-8d3a-03cfc7ebbb91","stateCode":"AB","latitude":"53.83345000","longitude":"-113.33531000"},{"id":"bb3b1af7-a1b6-4087-a3f3-c07aaf7f299c","name":"Grand Centre","ru":"Grand Centre","country":"3e89aecc-4937-4f97-a65e-1bdc23429277","countryCode":"CA","state":"c370b527-ab59-43f0-8d3a-03cfc7ebbb91","stateCode":"AB","latitude":"54.41628000","longitude":"-110.21304000"},{"id":"3be3fa55-ff5f-4009-ba6a-f7df277ee7a0","name":"Grande Cache","ru":"Grande Cache","country":"3e89aecc-4937-4f97-a65e-1bdc23429277","countryCode":"CA","state":"c370b527-ab59-43f0-8d3a-03cfc7ebbb91","stateCode":"AB","latitude":"53.88335000","longitude":"-119.13585000"},{"id":"b972abc8-05e9-471e-b489-5746b93d5193","name":"Grande Prairie","ru":"Grande Prairie","country":"3e89aecc-4937-4f97-a65e-1bdc23429277","countryCode":"CA","state":"c370b527-ab59-43f0-8d3a-03cfc7ebbb91","stateCode":"AB","latitude":"55.16667000","longitude":"-118.80271000"},{"id":"af3b4b80-1085-4162-b034-0c0a27b829a0","name":"Grimshaw","ru":"Grimshaw","country":"3e89aecc-4937-4f97-a65e-1bdc23429277","countryCode":"CA","state":"c370b527-ab59-43f0-8d3a-03cfc7ebbb91","stateCode":"AB","latitude":"56.18339000","longitude":"-117.60270000"},{"id":"c1365d31-9be5-4229-9655-9e4ba588d194","name":"Hanna","ru":"Hanna","country":"3e89aecc-4937-4f97-a65e-1bdc23429277","countryCode":"CA","state":"c370b527-ab59-43f0-8d3a-03cfc7ebbb91","stateCode":"AB","latitude":"51.63343000","longitude":"-111.90181000"},{"id":"0329401a-66bc-4fd5-a104-6030e3bc39eb","name":"Heritage Pointe","ru":"Heritage Pointe","country":"3e89aecc-4937-4f97-a65e-1bdc23429277","countryCode":"CA","state":"c370b527-ab59-43f0-8d3a-03cfc7ebbb91","stateCode":"AB","latitude":"50.84213000","longitude":"-114.00493000"},{"id":"8bf5ab8d-472f-4484-9424-11fdf2d50198","name":"High Level","ru":"High Level","country":"3e89aecc-4937-4f97-a65e-1bdc23429277","countryCode":"CA","state":"c370b527-ab59-43f0-8d3a-03cfc7ebbb91","stateCode":"AB","latitude":"58.51688000","longitude":"-117.13605000"},{"id":"89df6c95-8e8f-44a7-8428-d70cdb54ea40","name":"High Prairie","ru":"High Prairie","country":"3e89aecc-4937-4f97-a65e-1bdc23429277","countryCode":"CA","state":"c370b527-ab59-43f0-8d3a-03cfc7ebbb91","stateCode":"AB","latitude":"55.43340000","longitude":"-116.48580000"},{"id":"c929c8d2-9818-4264-8e15-bd9c6fac26f2","name":"High River","ru":"High River","country":"3e89aecc-4937-4f97-a65e-1bdc23429277","countryCode":"CA","state":"c370b527-ab59-43f0-8d3a-03cfc7ebbb91","stateCode":"AB","latitude":"50.58341000","longitude":"-113.86867000"},{"id":"519e4ed7-3687-4f6c-8276-aa42470b8ca3","name":"Hinton","ru":"Hinton","country":"3e89aecc-4937-4f97-a65e-1bdc23429277","countryCode":"CA","state":"c370b527-ab59-43f0-8d3a-03cfc7ebbb91","stateCode":"AB","latitude":"53.40009000","longitude":"-117.58567000"},{"id":"a5aa7078-6a34-4ba5-b6b7-a0c3fd6db5d9","name":"Irricana","ru":"Irricana","country":"3e89aecc-4937-4f97-a65e-1bdc23429277","countryCode":"CA","state":"c370b527-ab59-43f0-8d3a-03cfc7ebbb91","stateCode":"AB","latitude":"51.32372000","longitude":"-113.60475000"},{"id":"b397399a-9140-423e-a0d8-f03d7c226e91","name":"Jasper Park Lodge","ru":"Jasper Park Lodge","country":"3e89aecc-4937-4f97-a65e-1bdc23429277","countryCode":"CA","state":"c370b527-ab59-43f0-8d3a-03cfc7ebbb91","stateCode":"AB","latitude":"52.88633000","longitude":"-118.05625000"},{"id":"ba2fe58c-98c3-4293-a5e5-cfa748e86dcd","name":"Killam","ru":"Killam","country":"3e89aecc-4937-4f97-a65e-1bdc23429277","countryCode":"CA","state":"c370b527-ab59-43f0-8d3a-03cfc7ebbb91","stateCode":"AB","latitude":"52.78344000","longitude":"-111.85175000"},{"id":"97605051-8f9c-48f3-8b66-0364f999d353","name":"Lac La Biche","ru":"Lac La Biche","country":"3e89aecc-4937-4f97-a65e-1bdc23429277","countryCode":"CA","state":"c370b527-ab59-43f0-8d3a-03cfc7ebbb91","stateCode":"AB","latitude":"54.76690000","longitude":"-111.96861000"},{"id":"64a86844-3187-4e36-94de-b33b22d23136","name":"Lacombe","ru":"Lacombe","country":"3e89aecc-4937-4f97-a65e-1bdc23429277","countryCode":"CA","state":"c370b527-ab59-43f0-8d3a-03cfc7ebbb91","stateCode":"AB","latitude":"52.46681000","longitude":"-113.73530000"},{"id":"795ca747-6475-43a5-a807-29fe9b4ebf77","name":"Lamont","ru":"Lamont","country":"3e89aecc-4937-4f97-a65e-1bdc23429277","countryCode":"CA","state":"c370b527-ab59-43f0-8d3a-03cfc7ebbb91","stateCode":"AB","latitude":"53.76686000","longitude":"-112.80195000"},{"id":"edb52b75-d3e7-4ee4-b34b-d30c711d01f1","name":"Larkspur","ru":"Larkspur","country":"3e89aecc-4937-4f97-a65e-1bdc23429277","countryCode":"CA","state":"c370b527-ab59-43f0-8d3a-03cfc7ebbb91","stateCode":"AB","latitude":"53.47942000","longitude":"-113.38142000"},{"id":"30d9c038-c697-49e0-97e4-3d990ce71883","name":"Laurel","ru":"Laurel","country":"3e89aecc-4937-4f97-a65e-1bdc23429277","countryCode":"CA","state":"c370b527-ab59-43f0-8d3a-03cfc7ebbb91","stateCode":"AB","latitude":"53.44667000","longitude":"-113.38197000"},{"id":"64cc5a90-d6b6-4182-a740-27262b5aca0a","name":"Leduc","ru":"Leduc","country":"3e89aecc-4937-4f97-a65e-1bdc23429277","countryCode":"CA","state":"c370b527-ab59-43f0-8d3a-03cfc7ebbb91","stateCode":"AB","latitude":"53.26682000","longitude":"-113.55201000"},{"id":"8a3bf5d2-f9f7-46e8-a433-7da97205efb3","name":"Lethbridge","ru":"Lethbridge","country":"3e89aecc-4937-4f97-a65e-1bdc23429277","countryCode":"CA","state":"c370b527-ab59-43f0-8d3a-03cfc7ebbb91","stateCode":"AB","latitude":"49.69999000","longitude":"-112.81856000"},{"id":"5cf6c5f9-4e01-4fbb-aab4-9fd14f455aa5","name":"Lloydminster","ru":"Lloydminster","country":"3e89aecc-4937-4f97-a65e-1bdc23429277","countryCode":"CA","state":"c370b527-ab59-43f0-8d3a-03cfc7ebbb91","stateCode":"AB","latitude":"53.27237000","longitude":"-110.02256000"},{"id":"c749f13c-aa11-4be9-aff3-46f31a5f9e56","name":"Magrath","ru":"Magrath","country":"3e89aecc-4937-4f97-a65e-1bdc23429277","countryCode":"CA","state":"c370b527-ab59-43f0-8d3a-03cfc7ebbb91","stateCode":"AB","latitude":"49.41668000","longitude":"-112.86856000"},{"id":"7dca70ee-b125-44a9-b0c8-cde1de0c8670","name":"Manning","ru":"Manning","country":"3e89aecc-4937-4f97-a65e-1bdc23429277","countryCode":"CA","state":"c370b527-ab59-43f0-8d3a-03cfc7ebbb91","stateCode":"AB","latitude":"56.91683000","longitude":"-117.61945000"},{"id":"8e8abdb5-5656-4273-8694-ca97319e7550","name":"Mannville","ru":"Mannville","country":"3e89aecc-4937-4f97-a65e-1bdc23429277","countryCode":"CA","state":"c370b527-ab59-43f0-8d3a-03cfc7ebbb91","stateCode":"AB","latitude":"53.33764000","longitude":"-111.17750000"},{"id":"4866d165-cffb-4f97-9c23-565cf2865b95","name":"Maple Ridge","ru":"Maple Ridge","country":"3e89aecc-4937-4f97-a65e-1bdc23429277","countryCode":"CA","state":"c370b527-ab59-43f0-8d3a-03cfc7ebbb91","stateCode":"AB","latitude":"53.50172000","longitude":"-113.36274000"},{"id":"11bf50ba-d9f5-425c-87e6-f416cdd952f6","name":"Mayerthorpe","ru":"Mayerthorpe","country":"3e89aecc-4937-4f97-a65e-1bdc23429277","countryCode":"CA","state":"c370b527-ab59-43f0-8d3a-03cfc7ebbb91","stateCode":"AB","latitude":"53.95015000","longitude":"-115.13547000"},{"id":"f858350a-1143-4a9e-a104-50d277be1778","name":"Medicine Hat","ru":"Medicine Hat","country":"3e89aecc-4937-4f97-a65e-1bdc23429277","countryCode":"CA","state":"c370b527-ab59-43f0-8d3a-03cfc7ebbb91","stateCode":"AB","latitude":"50.03928000","longitude":"-110.67661000"},{"id":"3554abc3-6c71-4ab6-8153-3ae31a3fa3cb","name":"Mill Woods Town Centre","ru":"Mill Woods Town Centre","country":"3e89aecc-4937-4f97-a65e-1bdc23429277","countryCode":"CA","state":"c370b527-ab59-43f0-8d3a-03cfc7ebbb91","stateCode":"AB","latitude":"53.45639000","longitude":"-113.42751000"},{"id":"bd209608-e011-494e-a400-4afc9459807d","name":"Millet","ru":"Millet","country":"3e89aecc-4937-4f97-a65e-1bdc23429277","countryCode":"CA","state":"c370b527-ab59-43f0-8d3a-03cfc7ebbb91","stateCode":"AB","latitude":"53.10013000","longitude":"-113.46870000"},{"id":"9db820ad-dc51-49eb-ab5f-4a7edea2bb0a","name":"Morinville","ru":"Morinville","country":"3e89aecc-4937-4f97-a65e-1bdc23429277","countryCode":"CA","state":"c370b527-ab59-43f0-8d3a-03cfc7ebbb91","stateCode":"AB","latitude":"53.80014000","longitude":"-113.65203000"},{"id":"de5f1e97-9bcf-4e77-b29b-10cc9bb55fd1","name":"Nanton","ru":"Nanton","country":"3e89aecc-4937-4f97-a65e-1bdc23429277","countryCode":"CA","state":"c370b527-ab59-43f0-8d3a-03cfc7ebbb91","stateCode":"AB","latitude":"50.35008000","longitude":"-113.76866000"},{"id":"ba0c7ebd-4869-4620-9144-59408f3e89fd","name":"Okotoks","ru":"Okotoks","country":"3e89aecc-4937-4f97-a65e-1bdc23429277","countryCode":"CA","state":"c370b527-ab59-43f0-8d3a-03cfc7ebbb91","stateCode":"AB","latitude":"50.72885000","longitude":"-113.98281000"},{"id":"2f003f05-f10b-4898-8e82-7b6dad388ed5","name":"Olds","ru":"Olds","country":"3e89aecc-4937-4f97-a65e-1bdc23429277","countryCode":"CA","state":"c370b527-ab59-43f0-8d3a-03cfc7ebbb91","stateCode":"AB","latitude":"51.78341000","longitude":"-114.10199000"},{"id":"cd514a79-2ab3-4899-a158-515873ab6bf7","name":"Peace River","ru":"Peace River","country":"3e89aecc-4937-4f97-a65e-1bdc23429277","countryCode":"CA","state":"c370b527-ab59-43f0-8d3a-03cfc7ebbb91","stateCode":"AB","latitude":"56.23715000","longitude":"-117.29176000"},{"id":"af61cd60-8046-4c2c-af40-ba1cd3d54a1e","name":"Penhold","ru":"Penhold","country":"3e89aecc-4937-4f97-a65e-1bdc23429277","countryCode":"CA","state":"c370b527-ab59-43f0-8d3a-03cfc7ebbb91","stateCode":"AB","latitude":"52.13342000","longitude":"-113.86870000"},{"id":"9f4e6ca7-da52-48d6-b78a-ca61e023c8cb","name":"Picture Butte","ru":"Picture Butte","country":"3e89aecc-4937-4f97-a65e-1bdc23429277","countryCode":"CA","state":"c370b527-ab59-43f0-8d3a-03cfc7ebbb91","stateCode":"AB","latitude":"49.88330000","longitude":"-112.78516000"},{"id":"491d0fc1-5c5d-423e-b8c0-0da30557f9d6","name":"Pincher Creek","ru":"Pincher Creek","country":"3e89aecc-4937-4f97-a65e-1bdc23429277","countryCode":"CA","state":"c370b527-ab59-43f0-8d3a-03cfc7ebbb91","stateCode":"AB","latitude":"49.48328000","longitude":"-113.95195000"},{"id":"2cfd57d5-fd91-443e-9f8f-10a2f12747c2","name":"Ponoka","ru":"Ponoka","country":"3e89aecc-4937-4f97-a65e-1bdc23429277","countryCode":"CA","state":"c370b527-ab59-43f0-8d3a-03cfc7ebbb91","stateCode":"AB","latitude":"52.67680000","longitude":"-113.58147000"},{"id":"4e9a6bed-a1aa-4673-a002-b580b5021d54","name":"Provost","ru":"Provost","country":"3e89aecc-4937-4f97-a65e-1bdc23429277","countryCode":"CA","state":"c370b527-ab59-43f0-8d3a-03cfc7ebbb91","stateCode":"AB","latitude":"52.35014000","longitude":"-110.26828000"},{"id":"bc461586-30ef-4575-856d-f7ee8535e4db","name":"Raymond","ru":"Raymond","country":"3e89aecc-4937-4f97-a65e-1bdc23429277","countryCode":"CA","state":"c370b527-ab59-43f0-8d3a-03cfc7ebbb91","stateCode":"AB","latitude":"49.44998000","longitude":"-112.65185000"},{"id":"7c274b8c-8fde-42af-9fa4-35feffe4839d","name":"Red Deer","ru":"Red Deer","country":"3e89aecc-4937-4f97-a65e-1bdc23429277","countryCode":"CA","state":"c370b527-ab59-43f0-8d3a-03cfc7ebbb91","stateCode":"AB","latitude":"52.26682000","longitude":"-113.80200000"},{"id":"8277afb5-6eff-4259-a2de-30a7608cdb10","name":"Rideau Park","ru":"Rideau Park","country":"3e89aecc-4937-4f97-a65e-1bdc23429277","countryCode":"CA","state":"c370b527-ab59-43f0-8d3a-03cfc7ebbb91","stateCode":"AB","latitude":"53.47899000","longitude":"-113.50470000"},{"id":"39a743ec-5a79-4457-951e-523739081eb8","name":"Rimbey","ru":"Rimbey","country":"3e89aecc-4937-4f97-a65e-1bdc23429277","countryCode":"CA","state":"c370b527-ab59-43f0-8d3a-03cfc7ebbb91","stateCode":"AB","latitude":"52.63340000","longitude":"-114.23532000"},{"id":"ad0b6f60-22c8-4576-9add-b290a71f632f","name":"Rocky Mountain House","ru":"Rocky Mountain House","country":"3e89aecc-4937-4f97-a65e-1bdc23429277","countryCode":"CA","state":"c370b527-ab59-43f0-8d3a-03cfc7ebbb91","stateCode":"AB","latitude":"52.36683000","longitude":"-114.91880000"},{"id":"912af55e-01ff-4e56-9208-8667111b7618","name":"Sexsmith","ru":"Sexsmith","country":"3e89aecc-4937-4f97-a65e-1bdc23429277","countryCode":"CA","state":"c370b527-ab59-43f0-8d3a-03cfc7ebbb91","stateCode":"AB","latitude":"55.34998000","longitude":"-118.78602000"},{"id":"310895b7-5d39-47a8-9c4e-47d9bf9e59f3","name":"Sherwood Park","ru":"Sherwood Park","country":"3e89aecc-4937-4f97-a65e-1bdc23429277","countryCode":"CA","state":"c370b527-ab59-43f0-8d3a-03cfc7ebbb91","stateCode":"AB","latitude":"53.51684000","longitude":"-113.31870000"},{"id":"a636bf10-47a5-44c3-a503-b4dd13b81ae9","name":"Silver Berry","ru":"Silver Berry","country":"3e89aecc-4937-4f97-a65e-1bdc23429277","countryCode":"CA","state":"c370b527-ab59-43f0-8d3a-03cfc7ebbb91","stateCode":"AB","latitude":"53.45787000","longitude":"-113.38170000"},{"id":"8be2525b-ab82-4914-98af-19c25a3a88fc","name":"Slave Lake","ru":"Slave Lake","country":"3e89aecc-4937-4f97-a65e-1bdc23429277","countryCode":"CA","state":"c370b527-ab59-43f0-8d3a-03cfc7ebbb91","stateCode":"AB","latitude":"55.28344000","longitude":"-114.76896000"},{"id":"7d8fbd8e-9090-4675-bd73-5d7fe0799a73","name":"Smoky Lake","ru":"Smoky Lake","country":"3e89aecc-4937-4f97-a65e-1bdc23429277","countryCode":"CA","state":"c370b527-ab59-43f0-8d3a-03cfc7ebbb91","stateCode":"AB","latitude":"54.11687000","longitude":"-112.46863000"},{"id":"642360dc-c486-4d8d-aa09-c7d80f492a19","name":"Spirit River","ru":"Spirit River","country":"3e89aecc-4937-4f97-a65e-1bdc23429277","countryCode":"CA","state":"c370b527-ab59-43f0-8d3a-03cfc7ebbb91","stateCode":"AB","latitude":"55.78327000","longitude":"-118.83607000"},{"id":"7ff80d0f-ca48-444f-9f7c-cfa1fb4ef3a2","name":"Springbrook","ru":"Springbrook","country":"3e89aecc-4937-4f97-a65e-1bdc23429277","countryCode":"CA","state":"c370b527-ab59-43f0-8d3a-03cfc7ebbb91","stateCode":"AB","latitude":"52.17920000","longitude":"-113.87981000"},{"id":"974ba71a-89bf-42ed-86ca-9f82e95d2d79","name":"Spruce Grove","ru":"Spruce Grove","country":"3e89aecc-4937-4f97-a65e-1bdc23429277","countryCode":"CA","state":"c370b527-ab59-43f0-8d3a-03cfc7ebbb91","stateCode":"AB","latitude":"53.53344000","longitude":"-113.91874000"},{"id":"a5617065-f2d3-4aac-b904-f4541df49215","name":"St. Albert","ru":"St. Albert","country":"3e89aecc-4937-4f97-a65e-1bdc23429277","countryCode":"CA","state":"c370b527-ab59-43f0-8d3a-03cfc7ebbb91","stateCode":"AB","latitude":"53.63344000","longitude":"-113.63533000"},{"id":"e0ce27ce-95cc-4f4f-a4b4-0490badece39","name":"Stettler","ru":"Stettler","country":"3e89aecc-4937-4f97-a65e-1bdc23429277","countryCode":"CA","state":"c370b527-ab59-43f0-8d3a-03cfc7ebbb91","stateCode":"AB","latitude":"52.31683000","longitude":"-112.71861000"},{"id":"7ba55039-f660-425c-9fda-8f41d6efa612","name":"Stony Plain","ru":"Stony Plain","country":"3e89aecc-4937-4f97-a65e-1bdc23429277","countryCode":"CA","state":"c370b527-ab59-43f0-8d3a-03cfc7ebbb91","stateCode":"AB","latitude":"53.53343000","longitude":"-114.00205000"},{"id":"fe2fdb04-fffc-4d38-8780-94d1e5a25234","name":"Strathmore","ru":"Strathmore","country":"3e89aecc-4937-4f97-a65e-1bdc23429277","countryCode":"CA","state":"c370b527-ab59-43f0-8d3a-03cfc7ebbb91","stateCode":"AB","latitude":"51.05011000","longitude":"-113.38523000"},{"id":"4cc06b0f-8394-4a9c-9a01-c00d5c545973","name":"Sundre","ru":"Sundre","country":"3e89aecc-4937-4f97-a65e-1bdc23429277","countryCode":"CA","state":"c370b527-ab59-43f0-8d3a-03cfc7ebbb91","stateCode":"AB","latitude":"51.80010000","longitude":"-114.63532000"},{"id":"35f79141-cece-4fbc-85ed-21538859fa6f","name":"Swan Hills","ru":"Swan Hills","country":"3e89aecc-4937-4f97-a65e-1bdc23429277","countryCode":"CA","state":"c370b527-ab59-43f0-8d3a-03cfc7ebbb91","stateCode":"AB","latitude":"54.71681000","longitude":"-115.40226000"},{"id":"238168c0-f0e5-4756-b097-7ab017fd1560","name":"Sylvan Lake","ru":"Sylvan Lake","country":"3e89aecc-4937-4f97-a65e-1bdc23429277","countryCode":"CA","state":"c370b527-ab59-43f0-8d3a-03cfc7ebbb91","stateCode":"AB","latitude":"52.31100000","longitude":"-114.08375000"},{"id":"671fb33a-4ca2-43c6-b9de-7bf33170a493","name":"Taber","ru":"Taber","country":"3e89aecc-4937-4f97-a65e-1bdc23429277","countryCode":"CA","state":"c370b527-ab59-43f0-8d3a-03cfc7ebbb91","stateCode":"AB","latitude":"49.78703000","longitude":"-112.14603000"},{"id":"7f9015b3-c6a9-4b33-9359-905678ee237d","name":"Tamarack","ru":"Tamarack","country":"3e89aecc-4937-4f97-a65e-1bdc23429277","countryCode":"CA","state":"c370b527-ab59-43f0-8d3a-03cfc7ebbb91","stateCode":"AB","latitude":"53.46441000","longitude":"-113.36235000"},{"id":"ceb0e10c-f0fa-4e1c-9864-6b5743191953","name":"Three Hills","ru":"Three Hills","country":"3e89aecc-4937-4f97-a65e-1bdc23429277","countryCode":"CA","state":"c370b527-ab59-43f0-8d3a-03cfc7ebbb91","stateCode":"AB","latitude":"51.70012000","longitude":"-113.26863000"},{"id":"9fb51bc3-d14d-457d-a546-b168d0f5bdd6","name":"Tofield","ru":"Tofield","country":"3e89aecc-4937-4f97-a65e-1bdc23429277","countryCode":"CA","state":"c370b527-ab59-43f0-8d3a-03cfc7ebbb91","stateCode":"AB","latitude":"53.36684000","longitude":"-112.66862000"},{"id":"ca8e9214-fa86-415d-8e14-63d93f55ca8f","name":"Two Hills","ru":"Two Hills","country":"3e89aecc-4937-4f97-a65e-1bdc23429277","countryCode":"CA","state":"c370b527-ab59-43f0-8d3a-03cfc7ebbb91","stateCode":"AB","latitude":"53.71686000","longitude":"-111.75181000"},{"id":"5952ed4a-f49f-483f-a4c1-3934ca9c86d6","name":"Valleyview","ru":"Valleyview","country":"3e89aecc-4937-4f97-a65e-1bdc23429277","countryCode":"CA","state":"c370b527-ab59-43f0-8d3a-03cfc7ebbb91","stateCode":"AB","latitude":"55.06673000","longitude":"-117.28585000"},{"id":"2dc8fdea-9b81-400c-a332-8f8d20ace381","name":"Vegreville","ru":"Vegreville","country":"3e89aecc-4937-4f97-a65e-1bdc23429277","countryCode":"CA","state":"c370b527-ab59-43f0-8d3a-03cfc7ebbb91","stateCode":"AB","latitude":"53.50015000","longitude":"-112.05182000"},{"id":"188781ba-82f9-4682-ab83-2ab1a6a4c4d1","name":"Vermilion","ru":"Vermilion","country":"3e89aecc-4937-4f97-a65e-1bdc23429277","countryCode":"CA","state":"c370b527-ab59-43f0-8d3a-03cfc7ebbb91","stateCode":"AB","latitude":"53.35409000","longitude":"-110.85849000"},{"id":"84bbbc2b-fe00-416c-8a52-5230fa668462","name":"Viking","ru":"Viking","country":"3e89aecc-4937-4f97-a65e-1bdc23429277","countryCode":"CA","state":"c370b527-ab59-43f0-8d3a-03cfc7ebbb91","stateCode":"AB","latitude":"53.10014000","longitude":"-111.76844000"},{"id":"f259da54-0de5-48ba-bcaf-bf62001d8910","name":"Vulcan","ru":"Vulcan","country":"3e89aecc-4937-4f97-a65e-1bdc23429277","countryCode":"CA","state":"c370b527-ab59-43f0-8d3a-03cfc7ebbb91","stateCode":"AB","latitude":"50.40008000","longitude":"-113.25189000"},{"id":"f3efbb56-5d53-4e07-a7e7-ab4edc30656f","name":"Wainwright","ru":"Wainwright","country":"3e89aecc-4937-4f97-a65e-1bdc23429277","countryCode":"CA","state":"c370b527-ab59-43f0-8d3a-03cfc7ebbb91","stateCode":"AB","latitude":"52.83482000","longitude":"-110.85342000"},{"id":"9c727c54-b508-4f80-a4c8-6e254a7a556d","name":"Wembley","ru":"Wembley","country":"3e89aecc-4937-4f97-a65e-1bdc23429277","countryCode":"CA","state":"c370b527-ab59-43f0-8d3a-03cfc7ebbb91","stateCode":"AB","latitude":"55.14995000","longitude":"-119.13602000"},{"id":"abbb6f21-044f-4534-97f1-a150a93487fc","name":"Westlake","ru":"Westlake","country":"3e89aecc-4937-4f97-a65e-1bdc23429277","countryCode":"CA","state":"c370b527-ab59-43f0-8d3a-03cfc7ebbb91","stateCode":"AB","latitude":"55.22228000","longitude":"-118.80415000"},{"id":"0d48a708-ff9b-48b0-aca7-7d391b804aba","name":"Westlock","ru":"Westlock","country":"3e89aecc-4937-4f97-a65e-1bdc23429277","countryCode":"CA","state":"c370b527-ab59-43f0-8d3a-03cfc7ebbb91","stateCode":"AB","latitude":"54.15016000","longitude":"-113.86876000"},{"id":"64404370-a8c0-45f9-8258-1577a90ad977","name":"Wetaskiwin","ru":"Wetaskiwin","country":"3e89aecc-4937-4f97-a65e-1bdc23429277","countryCode":"CA","state":"c370b527-ab59-43f0-8d3a-03cfc7ebbb91","stateCode":"AB","latitude":"52.96683000","longitude":"-113.36869000"},{"id":"bf52b97f-9760-4e88-97a0-c0471a270813","name":"Whitecourt","ru":"Whitecourt","country":"3e89aecc-4937-4f97-a65e-1bdc23429277","countryCode":"CA","state":"c370b527-ab59-43f0-8d3a-03cfc7ebbb91","stateCode":"AB","latitude":"54.15015000","longitude":"-115.68548000"},{"id":"1df91cd2-fe02-4437-b764-1ff062686101","name":"Wild Rose","ru":"Wild Rose","country":"3e89aecc-4937-4f97-a65e-1bdc23429277","countryCode":"CA","state":"c370b527-ab59-43f0-8d3a-03cfc7ebbb91","stateCode":"AB","latitude":"53.47080000","longitude":"-113.38119000"},{"id":"5e34a4c0-411a-4371-922b-9ce2ac47d1e3","name":"Abbotsford","ru":"Abbotsford","country":"3e89aecc-4937-4f97-a65e-1bdc23429277","countryCode":"CA","state":"e5b3546e-9391-43e3-bbab-da4e14585edb","stateCode":"BC","latitude":"49.05798000","longitude":"-122.25257000"},{"id":"7be13d40-1b17-48a7-b6c3-6fbb43c3b596","name":"Agassiz","ru":"Agassiz","country":"3e89aecc-4937-4f97-a65e-1bdc23429277","countryCode":"CA","state":"e5b3546e-9391-43e3-bbab-da4e14585edb","stateCode":"BC","latitude":"49.23298000","longitude":"-121.76926000"},{"id":"f3701874-a4d7-4a99-af10-031e709833ba","name":"Aldergrove","ru":"Aldergrove","country":"3e89aecc-4937-4f97-a65e-1bdc23429277","countryCode":"CA","state":"e5b3546e-9391-43e3-bbab-da4e14585edb","stateCode":"BC","latitude":"49.05801000","longitude":"-122.47087000"},{"id":"b8025ec1-5b6d-4c25-af8c-134ea3362023","name":"Aldergrove East","ru":"Aldergrove East","country":"3e89aecc-4937-4f97-a65e-1bdc23429277","countryCode":"CA","state":"e5b3546e-9391-43e3-bbab-da4e14585edb","stateCode":"BC","latitude":"49.05593000","longitude":"-122.42299000"},{"id":"0b42f853-a00d-4449-a3c5-be35c7239390","name":"Anmore","ru":"Anmore","country":"3e89aecc-4937-4f97-a65e-1bdc23429277","countryCode":"CA","state":"e5b3546e-9391-43e3-bbab-da4e14585edb","stateCode":"BC","latitude":"49.31637000","longitude":"-122.85263000"},{"id":"358f840d-f4d3-4b05-9acf-16a6c88265d9","name":"Arbutus Ridge","ru":"Arbutus Ridge","country":"3e89aecc-4937-4f97-a65e-1bdc23429277","countryCode":"CA","state":"e5b3546e-9391-43e3-bbab-da4e14585edb","stateCode":"BC","latitude":"49.24966000","longitude":"-123.16934000"},{"id":"94617811-aa43-48ea-8cfa-de51b98056fe","name":"Armstrong","ru":"Armstrong","country":"3e89aecc-4937-4f97-a65e-1bdc23429277","countryCode":"CA","state":"e5b3546e-9391-43e3-bbab-da4e14585edb","stateCode":"BC","latitude":"50.44979000","longitude":"-119.20235000"},{"id":"bd8e1f70-2910-4c13-b8be-46e0895b88c3","name":"Ashcroft","ru":"Ashcroft","country":"3e89aecc-4937-4f97-a65e-1bdc23429277","countryCode":"CA","state":"e5b3546e-9391-43e3-bbab-da4e14585edb","stateCode":"BC","latitude":"50.72372000","longitude":"-121.28207000"},{"id":"33fa2630-8d7b-486e-8823-b605ff270a89","name":"Barrière","ru":"Barrière","country":"3e89aecc-4937-4f97-a65e-1bdc23429277","countryCode":"CA","state":"e5b3546e-9391-43e3-bbab-da4e14585edb","stateCode":"BC","latitude":"51.18308000","longitude":"-120.11920000"},{"id":"5f8a44e7-d477-4cb9-92ef-e77f26c04214","name":"Bowen Island","ru":"Bowen Island","country":"3e89aecc-4937-4f97-a65e-1bdc23429277","countryCode":"CA","state":"e5b3546e-9391-43e3-bbab-da4e14585edb","stateCode":"BC","latitude":"49.38470000","longitude":"-123.33622000"},{"id":"f682ea7e-ae53-49d3-937c-4c1cb56e96ae","name":"Burnaby","ru":"Burnaby","country":"3e89aecc-4937-4f97-a65e-1bdc23429277","countryCode":"CA","state":"e5b3546e-9391-43e3-bbab-da4e14585edb","stateCode":"BC","latitude":"49.26636000","longitude":"-122.95263000"},{"id":"b7a0e195-febf-4602-8644-bb2fb23be27f","name":"Burns Lake","ru":"Burns Lake","country":"3e89aecc-4937-4f97-a65e-1bdc23429277","countryCode":"CA","state":"e5b3546e-9391-43e3-bbab-da4e14585edb","stateCode":"BC","latitude":"54.22972000","longitude":"-125.76084000"},{"id":"1bc28427-faa4-4b8a-be5f-74d8e624df40","name":"Cache Creek","ru":"Cache Creek","country":"3e89aecc-4937-4f97-a65e-1bdc23429277","countryCode":"CA","state":"e5b3546e-9391-43e3-bbab-da4e14585edb","stateCode":"BC","latitude":"50.81011000","longitude":"-121.32460000"},{"id":"9aa3bfba-5437-4862-b573-28469bd02101","name":"Campbell River","ru":"Campbell River","country":"3e89aecc-4937-4f97-a65e-1bdc23429277","countryCode":"CA","state":"e5b3546e-9391-43e3-bbab-da4e14585edb","stateCode":"BC","latitude":"50.01634000","longitude":"-125.24459000"},{"id":"551bce23-5d09-4359-a242-5551fccee59c","name":"Castlegar","ru":"Castlegar","country":"3e89aecc-4937-4f97-a65e-1bdc23429277","countryCode":"CA","state":"e5b3546e-9391-43e3-bbab-da4e14585edb","stateCode":"BC","latitude":"49.32317000","longitude":"-117.65831000"},{"id":"7af02bc7-f9b8-44fe-9f8c-84858a22d010","name":"Cedar","ru":"Cedar","country":"3e89aecc-4937-4f97-a65e-1bdc23429277","countryCode":"CA","state":"e5b3546e-9391-43e3-bbab-da4e14585edb","stateCode":"BC","latitude":"49.11633000","longitude":"-123.85270000"},{"id":"390a320e-163b-4e00-be7c-1a9cd5636346","name":"Central Coast Regional District","ru":"Central Coast Regional District","country":"3e89aecc-4937-4f97-a65e-1bdc23429277","countryCode":"CA","state":"e5b3546e-9391-43e3-bbab-da4e14585edb","stateCode":"BC","latitude":"52.16638000","longitude":"-127.00323000"},{"id":"de403097-b2ad-408c-9c6f-2ddc9c8339fa","name":"Chase","ru":"Chase","country":"3e89aecc-4937-4f97-a65e-1bdc23429277","countryCode":"CA","state":"e5b3546e-9391-43e3-bbab-da4e14585edb","stateCode":"BC","latitude":"50.81650000","longitude":"-119.68571000"},{"id":"67ec0480-c260-4ca2-a1bc-12fbd8777016","name":"Chemainus","ru":"Chemainus","country":"3e89aecc-4937-4f97-a65e-1bdc23429277","countryCode":"CA","state":"e5b3546e-9391-43e3-bbab-da4e14585edb","stateCode":"BC","latitude":"48.91633000","longitude":"-123.71937000"},{"id":"3dddd21f-dbdc-4269-b3e5-10231aeb9049","name":"Chetwynd","ru":"Chetwynd","country":"3e89aecc-4937-4f97-a65e-1bdc23429277","countryCode":"CA","state":"e5b3546e-9391-43e3-bbab-da4e14585edb","stateCode":"BC","latitude":"55.69988000","longitude":"-121.63627000"},{"id":"2922eb2a-dc78-4299-b787-43d4f7ed48b8","name":"Chilliwack","ru":"Chilliwack","country":"3e89aecc-4937-4f97-a65e-1bdc23429277","countryCode":"CA","state":"e5b3546e-9391-43e3-bbab-da4e14585edb","stateCode":"BC","latitude":"49.16638000","longitude":"-121.95257000"},{"id":"ef20cc5a-3216-433e-82e8-dc7667ae3f8f","name":"Colwood","ru":"Colwood","country":"3e89aecc-4937-4f97-a65e-1bdc23429277","countryCode":"CA","state":"e5b3546e-9391-43e3-bbab-da4e14585edb","stateCode":"BC","latitude":"48.43293000","longitude":"-123.48591000"},{"id":"8f7d4dce-caaf-498a-8ea3-920a373f7a63","name":"Coombs","ru":"Coombs","country":"3e89aecc-4937-4f97-a65e-1bdc23429277","countryCode":"CA","state":"e5b3546e-9391-43e3-bbab-da4e14585edb","stateCode":"BC","latitude":"49.29963000","longitude":"-124.41946000"},{"id":"c9e1d3bc-aa7b-4c09-b6b9-c515f4f2eb3a","name":"Coquitlam","ru":"Coquitlam","country":"3e89aecc-4937-4f97-a65e-1bdc23429277","countryCode":"CA","state":"e5b3546e-9391-43e3-bbab-da4e14585edb","stateCode":"BC","latitude":"49.28460000","longitude":"-122.78217000"},{"id":"d97647de-ff10-4497-a8df-e9c400cb8202","name":"Courtenay","ru":"Courtenay","country":"3e89aecc-4937-4f97-a65e-1bdc23429277","countryCode":"CA","state":"e5b3546e-9391-43e3-bbab-da4e14585edb","stateCode":"BC","latitude":"49.68657000","longitude":"-124.99360000"},{"id":"ec12a5bd-4976-43a1-b4c1-a86ef41dd325","name":"Cowichan Bay","ru":"Cowichan Bay","country":"3e89aecc-4937-4f97-a65e-1bdc23429277","countryCode":"CA","state":"e5b3546e-9391-43e3-bbab-da4e14585edb","stateCode":"BC","latitude":"48.73366000","longitude":"-123.61739000"},{"id":"9c062d00-fd58-4cf5-9953-59e32938146b","name":"Cranbrook","ru":"Cranbrook","country":"3e89aecc-4937-4f97-a65e-1bdc23429277","countryCode":"CA","state":"e5b3546e-9391-43e3-bbab-da4e14585edb","stateCode":"BC","latitude":"49.49991000","longitude":"-115.76879000"},{"id":"09b07a85-4d6d-41f9-89e6-0771b35cdfbd","name":"Creston","ru":"Creston","country":"3e89aecc-4937-4f97-a65e-1bdc23429277","countryCode":"CA","state":"e5b3546e-9391-43e3-bbab-da4e14585edb","stateCode":"BC","latitude":"49.09987000","longitude":"-116.50211000"},{"id":"ddf24bc2-1279-45d5-b922-98a5a5f3e039","name":"Cumberland","ru":"Cumberland","country":"3e89aecc-4937-4f97-a65e-1bdc23429277","countryCode":"CA","state":"e5b3546e-9391-43e3-bbab-da4e14585edb","stateCode":"BC","latitude":"49.61634000","longitude":"-125.03613000"},{"id":"c98cfff2-e949-4b1f-90d2-9974dc925b7d","name":"Dawson Creek","ru":"Dawson Creek","country":"3e89aecc-4937-4f97-a65e-1bdc23429277","countryCode":"CA","state":"e5b3546e-9391-43e3-bbab-da4e14585edb","stateCode":"BC","latitude":"55.75984000","longitude":"-120.24030000"},{"id":"ad4711cb-221a-457d-bd99-2a0c089f6999","name":"Delta","ru":"Delta","country":"3e89aecc-4937-4f97-a65e-1bdc23429277","countryCode":"CA","state":"e5b3546e-9391-43e3-bbab-da4e14585edb","stateCode":"BC","latitude":"49.14399000","longitude":"-122.90680000"},{"id":"072a669d-e84b-40de-84ab-5878437b1a40","name":"Denman Island","ru":"Denman Island","country":"3e89aecc-4937-4f97-a65e-1bdc23429277","countryCode":"CA","state":"e5b3546e-9391-43e3-bbab-da4e14585edb","stateCode":"BC","latitude":"49.53294000","longitude":"-124.81950000"},{"id":"9f00b98b-ce89-445c-bd3f-7804d9150fee","name":"Denman Island Trust Area","ru":"Denman Island Trust Area","country":"3e89aecc-4937-4f97-a65e-1bdc23429277","countryCode":"CA","state":"e5b3546e-9391-43e3-bbab-da4e14585edb","stateCode":"BC","latitude":"49.55189000","longitude":"-124.79881000"},{"id":"7f5a3cdf-89c2-4b01-ac03-c2c0f5834ff7","name":"Duck Lake","ru":"Duck Lake","country":"3e89aecc-4937-4f97-a65e-1bdc23429277","countryCode":"CA","state":"e5b3546e-9391-43e3-bbab-da4e14585edb","stateCode":"BC","latitude":"50.00880000","longitude":"-119.39672000"},{"id":"52edaf3a-e185-4680-acdb-54da74996e5d","name":"Duncan","ru":"Duncan","country":"3e89aecc-4937-4f97-a65e-1bdc23429277","countryCode":"CA","state":"e5b3546e-9391-43e3-bbab-da4e14585edb","stateCode":"BC","latitude":"48.78293000","longitude":"-123.70266000"},{"id":"dee317de-2670-4016-a1d5-30e3bed3202a","name":"East Wellington","ru":"East Wellington","country":"3e89aecc-4937-4f97-a65e-1bdc23429277","countryCode":"CA","state":"e5b3546e-9391-43e3-bbab-da4e14585edb","stateCode":"BC","latitude":"49.17385000","longitude":"-124.01745000"},{"id":"0b5f1337-c35f-437e-87a6-9ab33c31de79","name":"Elkford","ru":"Elkford","country":"3e89aecc-4937-4f97-a65e-1bdc23429277","countryCode":"CA","state":"e5b3546e-9391-43e3-bbab-da4e14585edb","stateCode":"BC","latitude":"50.05007000","longitude":"-114.88540000"},{"id":"95687e52-8320-4f5a-b990-f2bcde4ba682","name":"Ellison","ru":"Ellison","country":"3e89aecc-4937-4f97-a65e-1bdc23429277","countryCode":"CA","state":"e5b3546e-9391-43e3-bbab-da4e14585edb","stateCode":"BC","latitude":"49.93307000","longitude":"-119.36907000"},{"id":"aecba098-7b79-4d60-8512-c0b78117bef3","name":"Enderby","ru":"Enderby","country":"3e89aecc-4937-4f97-a65e-1bdc23429277","countryCode":"CA","state":"e5b3546e-9391-43e3-bbab-da4e14585edb","stateCode":"BC","latitude":"50.54980000","longitude":"-119.15234000"},{"id":"5fe2e61b-650e-4bc1-9f24-2a66e873c0be","name":"Fairwinds","ru":"Fairwinds","country":"3e89aecc-4937-4f97-a65e-1bdc23429277","countryCode":"CA","state":"e5b3546e-9391-43e3-bbab-da4e14585edb","stateCode":"BC","latitude":"49.27588000","longitude":"-124.12782000"},{"id":"a35675e3-8b45-4b0f-b007-1d8ffdfed21b","name":"Fernie","ru":"Fernie","country":"3e89aecc-4937-4f97-a65e-1bdc23429277","countryCode":"CA","state":"e5b3546e-9391-43e3-bbab-da4e14585edb","stateCode":"BC","latitude":"49.49996000","longitude":"-115.06871000"},{"id":"35cd7911-1119-44d0-86b9-bd89782399bc","name":"Fort Nelson","ru":"Fort Nelson","country":"3e89aecc-4937-4f97-a65e-1bdc23429277","countryCode":"CA","state":"e5b3546e-9391-43e3-bbab-da4e14585edb","stateCode":"BC","latitude":"58.80533000","longitude":"-122.70020000"},{"id":"3132d119-6f42-4a83-977d-ecbd6774a921","name":"Fort St. John","ru":"Fort St. John","country":"3e89aecc-4937-4f97-a65e-1bdc23429277","countryCode":"CA","state":"e5b3546e-9391-43e3-bbab-da4e14585edb","stateCode":"BC","latitude":"56.24988000","longitude":"-120.85292000"},{"id":"942568d2-0f25-4c0f-ac51-6d64786032d0","name":"Fraser Valley Regional District","ru":"Fraser Valley Regional District","country":"3e89aecc-4937-4f97-a65e-1bdc23429277","countryCode":"CA","state":"e5b3546e-9391-43e3-bbab-da4e14585edb","stateCode":"BC","latitude":"49.58299000","longitude":"-121.83587000"},{"id":"950c3f79-c903-4dc1-b13d-29dd8cb8ce9f","name":"French Creek","ru":"French Creek","country":"3e89aecc-4937-4f97-a65e-1bdc23429277","countryCode":"CA","state":"e5b3546e-9391-43e3-bbab-da4e14585edb","stateCode":"BC","latitude":"49.34123000","longitude":"-124.35541000"},{"id":"e64a25d0-23ac-4de9-b7aa-e064f341d6a5","name":"Fruitvale","ru":"Fruitvale","country":"3e89aecc-4937-4f97-a65e-1bdc23429277","countryCode":"CA","state":"e5b3546e-9391-43e3-bbab-da4e14585edb","stateCode":"BC","latitude":"49.11654000","longitude":"-117.55222000"},{"id":"b02418ba-3836-48d3-800e-006528055048","name":"Gibsons","ru":"Gibsons","country":"3e89aecc-4937-4f97-a65e-1bdc23429277","countryCode":"CA","state":"e5b3546e-9391-43e3-bbab-da4e14585edb","stateCode":"BC","latitude":"49.39539000","longitude":"-123.50555000"},{"id":"8b0a1cad-695a-4229-9128-c8d4c6ac9d21","name":"Golden","ru":"Golden","country":"3e89aecc-4937-4f97-a65e-1bdc23429277","countryCode":"CA","state":"e5b3546e-9391-43e3-bbab-da4e14585edb","stateCode":"BC","latitude":"51.29995000","longitude":"-116.96890000"},{"id":"1fc6f454-2b84-460b-90a0-fafb8dc426b4","name":"Grand Forks","ru":"Grand Forks","country":"3e89aecc-4937-4f97-a65e-1bdc23429277","countryCode":"CA","state":"e5b3546e-9391-43e3-bbab-da4e14585edb","stateCode":"BC","latitude":"49.03309000","longitude":"-118.43560000"},{"id":"ea5cb803-8161-4082-b809-58fe9096fa9c","name":"Hanceville","ru":"Hanceville","country":"3e89aecc-4937-4f97-a65e-1bdc23429277","countryCode":"CA","state":"e5b3546e-9391-43e3-bbab-da4e14585edb","stateCode":"BC","latitude":"51.91922000","longitude":"-123.04458000"},{"id":"81159c58-86b1-43a5-923a-906c611cf152","name":"Hope","ru":"Hope","country":"3e89aecc-4937-4f97-a65e-1bdc23429277","countryCode":"CA","state":"e5b3546e-9391-43e3-bbab-da4e14585edb","stateCode":"BC","latitude":"49.38299000","longitude":"-121.44144000"},{"id":"1598e592-ae53-439d-b984-1bf443ff2bdb","name":"Hornby Island","ru":"Hornby Island","country":"3e89aecc-4937-4f97-a65e-1bdc23429277","countryCode":"CA","state":"e5b3546e-9391-43e3-bbab-da4e14585edb","stateCode":"BC","latitude":"49.53448000","longitude":"-124.66923000"},{"id":"76deec43-f907-41e3-9128-bad7aa0a652d","name":"Houston","ru":"Houston","country":"3e89aecc-4937-4f97-a65e-1bdc23429277","countryCode":"CA","state":"e5b3546e-9391-43e3-bbab-da4e14585edb","stateCode":"BC","latitude":"54.39976000","longitude":"-126.67008000"},{"id":"f559aaf7-b0d9-4c12-a834-38de3d956b4a","name":"Invermere","ru":"Invermere","country":"3e89aecc-4937-4f97-a65e-1bdc23429277","countryCode":"CA","state":"e5b3546e-9391-43e3-bbab-da4e14585edb","stateCode":"BC","latitude":"50.51666000","longitude":"-116.03538000"},{"id":"454e48e2-23c9-4166-b623-721d0e2e4db1","name":"Kamloops","ru":"Kamloops","country":"3e89aecc-4937-4f97-a65e-1bdc23429277","countryCode":"CA","state":"e5b3546e-9391-43e3-bbab-da4e14585edb","stateCode":"BC","latitude":"50.66648000","longitude":"-120.31920000"},{"id":"4ad0e0b7-a6bf-4cf6-a354-70143e8f7c7b","name":"Kelowna","ru":"Kelowna","country":"3e89aecc-4937-4f97-a65e-1bdc23429277","countryCode":"CA","state":"e5b3546e-9391-43e3-bbab-da4e14585edb","stateCode":"BC","latitude":"49.88307000","longitude":"-119.48568000"},{"id":"a778d706-7093-43f5-b5f1-e9c405e786d2","name":"Kimberley","ru":"Kimberley","country":"3e89aecc-4937-4f97-a65e-1bdc23429277","countryCode":"CA","state":"e5b3546e-9391-43e3-bbab-da4e14585edb","stateCode":"BC","latitude":"49.67071000","longitude":"-115.97760000"},{"id":"0fcaf349-4d9b-481f-96f4-1b6dd35862bb","name":"Kitimat","ru":"Kitimat","country":"3e89aecc-4937-4f97-a65e-1bdc23429277","countryCode":"CA","state":"e5b3546e-9391-43e3-bbab-da4e14585edb","stateCode":"BC","latitude":"54.05244000","longitude":"-128.65342000"},{"id":"207b5ec2-badb-4a13-a6cf-48765c8ebf29","name":"Ladner","ru":"Ladner","country":"3e89aecc-4937-4f97-a65e-1bdc23429277","countryCode":"CA","state":"e5b3546e-9391-43e3-bbab-da4e14585edb","stateCode":"BC","latitude":"49.08938000","longitude":"-123.08241000"},{"id":"5f632dd2-496d-49a5-ad60-fd91d46278ba","name":"Ladysmith","ru":"Ladysmith","country":"3e89aecc-4937-4f97-a65e-1bdc23429277","countryCode":"CA","state":"e5b3546e-9391-43e3-bbab-da4e14585edb","stateCode":"BC","latitude":"48.99016000","longitude":"-123.81699000"},{"id":"4c642b16-19b8-40a2-b915-3449cb5259fb","name":"Lake Cowichan","ru":"Lake Cowichan","country":"3e89aecc-4937-4f97-a65e-1bdc23429277","countryCode":"CA","state":"e5b3546e-9391-43e3-bbab-da4e14585edb","stateCode":"BC","latitude":"48.82495000","longitude":"-124.05461000"},{"id":"c528209b-6b18-4fef-bb4a-db073c235333","name":"Langford","ru":"Langford","country":"3e89aecc-4937-4f97-a65e-1bdc23429277","countryCode":"CA","state":"e5b3546e-9391-43e3-bbab-da4e14585edb","stateCode":"BC","latitude":"48.44963000","longitude":"-123.50261000"},{"id":"071ad0ec-d0b3-498d-86e5-fbdc3d641178","name":"Langley","ru":"Langley","country":"3e89aecc-4937-4f97-a65e-1bdc23429277","countryCode":"CA","state":"e5b3546e-9391-43e3-bbab-da4e14585edb","stateCode":"BC","latitude":"49.10107000","longitude":"-122.65883000"},{"id":"b8ad4552-2e40-4a05-b673-f4bee2ed6b3d","name":"Lillooet","ru":"Lillooet","country":"3e89aecc-4937-4f97-a65e-1bdc23429277","countryCode":"CA","state":"e5b3546e-9391-43e3-bbab-da4e14585edb","stateCode":"BC","latitude":"50.68560000","longitude":"-121.94200000"},{"id":"89c209d4-c539-4b7d-bf20-1864d9231803","name":"Lions Bay","ru":"Lions Bay","country":"3e89aecc-4937-4f97-a65e-1bdc23429277","countryCode":"CA","state":"e5b3546e-9391-43e3-bbab-da4e14585edb","stateCode":"BC","latitude":"49.45218000","longitude":"-123.23760000"},{"id":"0d2d2c96-96a4-48ea-b86e-7a39126a7386","name":"Logan Lake","ru":"Logan Lake","country":"3e89aecc-4937-4f97-a65e-1bdc23429277","countryCode":"CA","state":"e5b3546e-9391-43e3-bbab-da4e14585edb","stateCode":"BC","latitude":"50.49976000","longitude":"-120.80253000"},{"id":"0c2bccc3-52be-4c0c-9fac-18d67d94bf79","name":"Lumby","ru":"Lumby","country":"3e89aecc-4937-4f97-a65e-1bdc23429277","countryCode":"CA","state":"e5b3546e-9391-43e3-bbab-da4e14585edb","stateCode":"BC","latitude":"50.24979000","longitude":"-118.96904000"},{"id":"63cbcd9a-c480-4acc-b634-6feae7bd1701","name":"Mackenzie","ru":"Mackenzie","country":"3e89aecc-4937-4f97-a65e-1bdc23429277","countryCode":"CA","state":"e5b3546e-9391-43e3-bbab-da4e14585edb","stateCode":"BC","latitude":"55.33637000","longitude":"-123.09374000"},{"id":"f801c44f-5f98-4a7d-b135-6c4f26034571","name":"Maple Ridge","ru":"Maple Ridge","country":"3e89aecc-4937-4f97-a65e-1bdc23429277","countryCode":"CA","state":"e5b3546e-9391-43e3-bbab-da4e14585edb","stateCode":"BC","latitude":"49.21939000","longitude":"-122.60193000"},{"id":"7d69ad77-b152-4002-8e92-43d1f9d3b3c5","name":"Merritt","ru":"Merritt","country":"3e89aecc-4937-4f97-a65e-1bdc23429277","countryCode":"CA","state":"e5b3546e-9391-43e3-bbab-da4e14585edb","stateCode":"BC","latitude":"50.11225000","longitude":"-120.79420000"},{"id":"9ec481b5-78d4-485d-a6fe-649445a159e5","name":"Metchosin","ru":"Metchosin","country":"3e89aecc-4937-4f97-a65e-1bdc23429277","countryCode":"CA","state":"e5b3546e-9391-43e3-bbab-da4e14585edb","stateCode":"BC","latitude":"48.38293000","longitude":"-123.53591000"},{"id":"6adc9ac4-c495-411b-8949-4b53162f26a4","name":"Metro Vancouver Regional District","ru":"Metro Vancouver Regional District","country":"3e89aecc-4937-4f97-a65e-1bdc23429277","countryCode":"CA","state":"e5b3546e-9391-43e3-bbab-da4e14585edb","stateCode":"BC","latitude":"49.33296000","longitude":"-123.00264000"},{"id":"d0ca2d2b-9c9e-439b-a3f6-35491f9d50e6","name":"Mission","ru":"Mission","country":"3e89aecc-4937-4f97-a65e-1bdc23429277","countryCode":"CA","state":"e5b3546e-9391-43e3-bbab-da4e14585edb","stateCode":"BC","latitude":"49.13298000","longitude":"-122.30258000"},{"id":"a768c7ad-9d2d-4bef-8361-30eff318d545","name":"Nakusp","ru":"Nakusp","country":"3e89aecc-4937-4f97-a65e-1bdc23429277","countryCode":"CA","state":"e5b3546e-9391-43e3-bbab-da4e14585edb","stateCode":"BC","latitude":"50.24987000","longitude":"-117.80226000"},{"id":"56635241-d962-4f18-b58a-79b036ae5afa","name":"Nanaimo","ru":"Nanaimo","country":"3e89aecc-4937-4f97-a65e-1bdc23429277","countryCode":"CA","state":"e5b3546e-9391-43e3-bbab-da4e14585edb","stateCode":"BC","latitude":"49.16638000","longitude":"-123.94003000"},{"id":"4941ce4f-fc06-44f9-aec5-fb491fba794a","name":"Nelson","ru":"Nelson","country":"3e89aecc-4937-4f97-a65e-1bdc23429277","countryCode":"CA","state":"e5b3546e-9391-43e3-bbab-da4e14585edb","stateCode":"BC","latitude":"49.49985000","longitude":"-117.28553000"},{"id":"27bb2288-8510-485f-8107-8611724120c5","name":"New Westminster","ru":"New Westminster","country":"3e89aecc-4937-4f97-a65e-1bdc23429277","countryCode":"CA","state":"e5b3546e-9391-43e3-bbab-da4e14585edb","stateCode":"BC","latitude":"49.20678000","longitude":"-122.91092000"},{"id":"387bef6e-53e8-45d2-b6ec-663e766350a8","name":"North Cowichan","ru":"North Cowichan","country":"3e89aecc-4937-4f97-a65e-1bdc23429277","countryCode":"CA","state":"e5b3546e-9391-43e3-bbab-da4e14585edb","stateCode":"BC","latitude":"48.84133000","longitude":"-123.68596000"},{"id":"9faf5737-3ac4-4b3b-be2c-c52048516247","name":"North Oyster/Yellow Point","ru":"North Oyster/Yellow Point","country":"3e89aecc-4937-4f97-a65e-1bdc23429277","countryCode":"CA","state":"e5b3546e-9391-43e3-bbab-da4e14585edb","stateCode":"BC","latitude":"49.04807000","longitude":"-123.83395000"},{"id":"6f2d6cfd-9c56-4888-beb2-93f94a819781","name":"North Saanich","ru":"North Saanich","country":"3e89aecc-4937-4f97-a65e-1bdc23429277","countryCode":"CA","state":"e5b3546e-9391-43e3-bbab-da4e14585edb","stateCode":"BC","latitude":"48.66634000","longitude":"-123.41933000"},{"id":"97737cc2-1dd4-42e9-9cad-7f79534163ba","name":"North Vancouver","ru":"North Vancouver","country":"3e89aecc-4937-4f97-a65e-1bdc23429277","countryCode":"CA","state":"e5b3546e-9391-43e3-bbab-da4e14585edb","stateCode":"BC","latitude":"49.31636000","longitude":"-123.06934000"},{"id":"64565f14-5526-4155-bb06-9e61ce1d21c1","name":"Oak Bay","ru":"Oak Bay","country":"3e89aecc-4937-4f97-a65e-1bdc23429277","countryCode":"CA","state":"e5b3546e-9391-43e3-bbab-da4e14585edb","stateCode":"BC","latitude":"48.44964000","longitude":"-123.30260000"},{"id":"c09b5f69-3b3f-4ba2-a1f7-b54837dfe0b6","name":"Okanagan","ru":"Okanagan","country":"3e89aecc-4937-4f97-a65e-1bdc23429277","countryCode":"CA","state":"e5b3546e-9391-43e3-bbab-da4e14585edb","stateCode":"BC","latitude":"50.36386000","longitude":"-119.34997000"},{"id":"348f3e5a-46ad-437f-b752-41a76c160526","name":"Okanagan Falls","ru":"Okanagan Falls","country":"3e89aecc-4937-4f97-a65e-1bdc23429277","countryCode":"CA","state":"e5b3546e-9391-43e3-bbab-da4e14585edb","stateCode":"BC","latitude":"49.35000000","longitude":"-119.56667000"},{"id":"7b66fb6e-9991-441d-ac1b-ae07e7507a9b","name":"Oliver","ru":"Oliver","country":"3e89aecc-4937-4f97-a65e-1bdc23429277","countryCode":"CA","state":"e5b3546e-9391-43e3-bbab-da4e14585edb","stateCode":"BC","latitude":"49.18306000","longitude":"-119.55240000"},{"id":"60f737ab-e0a0-4014-8aa9-dc11d1c1306a","name":"Osoyoos","ru":"Osoyoos","country":"3e89aecc-4937-4f97-a65e-1bdc23429277","countryCode":"CA","state":"e5b3546e-9391-43e3-bbab-da4e14585edb","stateCode":"BC","latitude":"49.03306000","longitude":"-119.45237000"},{"id":"3a1086e9-fd73-490a-85d3-fbe86d4117ae","name":"Parksville","ru":"Parksville","country":"3e89aecc-4937-4f97-a65e-1bdc23429277","countryCode":"CA","state":"e5b3546e-9391-43e3-bbab-da4e14585edb","stateCode":"BC","latitude":"49.31947000","longitude":"-124.31575000"},{"id":"36361fc3-0531-4b30-9583-d42c44f4e25e","name":"Peace River Regional District","ru":"Peace River Regional District","country":"3e89aecc-4937-4f97-a65e-1bdc23429277","countryCode":"CA","state":"e5b3546e-9391-43e3-bbab-da4e14585edb","stateCode":"BC","latitude":"56.66650000","longitude":"-122.75302000"},{"id":"c8a5f78a-d797-4aa9-8a26-3eacfdad2b5e","name":"Peachland","ru":"Peachland","country":"3e89aecc-4937-4f97-a65e-1bdc23429277","countryCode":"CA","state":"e5b3546e-9391-43e3-bbab-da4e14585edb","stateCode":"BC","latitude":"49.76647000","longitude":"-119.73568000"},{"id":"dd56a0a4-77b7-44f0-9868-19d9f87a9459","name":"Pemberton","ru":"Pemberton","country":"3e89aecc-4937-4f97-a65e-1bdc23429277","countryCode":"CA","state":"e5b3546e-9391-43e3-bbab-da4e14585edb","stateCode":"BC","latitude":"50.31641000","longitude":"-122.80273000"},{"id":"635c3613-71cb-47c5-b775-22548a1af148","name":"Penticton","ru":"Penticton","country":"3e89aecc-4937-4f97-a65e-1bdc23429277","countryCode":"CA","state":"e5b3546e-9391-43e3-bbab-da4e14585edb","stateCode":"BC","latitude":"49.48062000","longitude":"-119.58584000"},{"id":"04c47097-110b-49bb-9354-57630e5c0e3b","name":"Pitt Meadows","ru":"Pitt Meadows","country":"3e89aecc-4937-4f97-a65e-1bdc23429277","countryCode":"CA","state":"e5b3546e-9391-43e3-bbab-da4e14585edb","stateCode":"BC","latitude":"49.22119000","longitude":"-122.68965000"},{"id":"281c3d3a-ada0-4567-93d2-6a8fed6c38ef","name":"Port Alberni","ru":"Port Alberni","country":"3e89aecc-4937-4f97-a65e-1bdc23429277","countryCode":"CA","state":"e5b3546e-9391-43e3-bbab-da4e14585edb","stateCode":"BC","latitude":"49.24133000","longitude":"-124.80280000"},{"id":"16b42b74-fa3e-466b-be9f-1dd96c27af4d","name":"Port Coquitlam","ru":"Port Coquitlam","country":"3e89aecc-4937-4f97-a65e-1bdc23429277","countryCode":"CA","state":"e5b3546e-9391-43e3-bbab-da4e14585edb","stateCode":"BC","latitude":"49.26637000","longitude":"-122.76932000"},{"id":"95e3d72d-ed28-479e-9835-c66199fa29ec","name":"Port McNeill","ru":"Port McNeill","country":"3e89aecc-4937-4f97-a65e-1bdc23429277","countryCode":"CA","state":"e5b3546e-9391-43e3-bbab-da4e14585edb","stateCode":"BC","latitude":"50.58716000","longitude":"-127.08053000"},{"id":"0df0ae49-c2df-4a43-ba55-76985e78c3d7","name":"Port Moody","ru":"Port Moody","country":"3e89aecc-4937-4f97-a65e-1bdc23429277","countryCode":"CA","state":"e5b3546e-9391-43e3-bbab-da4e14585edb","stateCode":"BC","latitude":"49.28124000","longitude":"-122.82457000"},{"id":"c8464732-1d70-4d45-bc6f-c57a2b26213b","name":"Powell River","ru":"Powell River","country":"3e89aecc-4937-4f97-a65e-1bdc23429277","countryCode":"CA","state":"e5b3546e-9391-43e3-bbab-da4e14585edb","stateCode":"BC","latitude":"49.83278000","longitude":"-124.52368000"},{"id":"99d54c0a-be65-45ab-941d-7b7c17215f3d","name":"Prince George","ru":"Prince George","country":"3e89aecc-4937-4f97-a65e-1bdc23429277","countryCode":"CA","state":"e5b3546e-9391-43e3-bbab-da4e14585edb","stateCode":"BC","latitude":"53.91660000","longitude":"-122.75301000"},{"id":"dc728abf-8ed5-4bee-93c6-7e026bfe51cd","name":"Prince Rupert","ru":"Prince Rupert","country":"3e89aecc-4937-4f97-a65e-1bdc23429277","countryCode":"CA","state":"e5b3546e-9391-43e3-bbab-da4e14585edb","stateCode":"BC","latitude":"54.31507000","longitude":"-130.32098000"},{"id":"f93682c1-f297-4fa1-b465-aa93b4738bcd","name":"Princeton","ru":"Princeton","country":"3e89aecc-4937-4f97-a65e-1bdc23429277","countryCode":"CA","state":"e5b3546e-9391-43e3-bbab-da4e14585edb","stateCode":"BC","latitude":"49.45802000","longitude":"-120.51076000"},{"id":"1fd4c8c9-931b-4f6d-a09b-17b03d36804c","name":"Puntledge","ru":"Puntledge","country":"3e89aecc-4937-4f97-a65e-1bdc23429277","countryCode":"CA","state":"e5b3546e-9391-43e3-bbab-da4e14585edb","stateCode":"BC","latitude":"49.66168000","longitude":"-125.05686000"},{"id":"5573dbb5-b55a-4c5a-8be8-22760eba846b","name":"Quesnel","ru":"Quesnel","country":"3e89aecc-4937-4f97-a65e-1bdc23429277","countryCode":"CA","state":"e5b3546e-9391-43e3-bbab-da4e14585edb","stateCode":"BC","latitude":"52.97842000","longitude":"-122.49310000"},{"id":"b5107327-aa85-47cd-a172-725ba9ac10c2","name":"Regional District of Alberni-Clayoquot","ru":"Regional District of Alberni-Clayoquot","country":"3e89aecc-4937-4f97-a65e-1bdc23429277","countryCode":"CA","state":"e5b3546e-9391-43e3-bbab-da4e14585edb","stateCode":"BC","latitude":"49.24962000","longitude":"-125.33615000"},{"id":"1a12c4ea-204d-43b3-908d-f5387b55aeda","name":"Regional District of Central Okanagan","ru":"Regional District of Central Okanagan","country":"3e89aecc-4937-4f97-a65e-1bdc23429277","countryCode":"CA","state":"e5b3546e-9391-43e3-bbab-da4e14585edb","stateCode":"BC","latitude":"49.99978000","longitude":"-119.41908000"},{"id":"e46eedd1-a686-480f-b0dc-485e2d28ee30","name":"Revelstoke","ru":"Revelstoke","country":"3e89aecc-4937-4f97-a65e-1bdc23429277","countryCode":"CA","state":"e5b3546e-9391-43e3-bbab-da4e14585edb","stateCode":"BC","latitude":"50.99712000","longitude":"-118.19530000"},{"id":"3da8dbf5-cdfd-45fe-ac52-527c2ec3337e","name":"Richmond","ru":"Richmond","country":"3e89aecc-4937-4f97-a65e-1bdc23429277","countryCode":"CA","state":"e5b3546e-9391-43e3-bbab-da4e14585edb","stateCode":"BC","latitude":"49.17003000","longitude":"-123.13683000"},{"id":"9171d90e-6077-47d6-b211-43199ef9ac5e","name":"Rossland","ru":"Rossland","country":"3e89aecc-4937-4f97-a65e-1bdc23429277","countryCode":"CA","state":"e5b3546e-9391-43e3-bbab-da4e14585edb","stateCode":"BC","latitude":"49.08313000","longitude":"-117.80224000"},{"id":"ffa5b22b-7658-43b2-96ac-cd33eabf6e4c","name":"Royston","ru":"Royston","country":"3e89aecc-4937-4f97-a65e-1bdc23429277","countryCode":"CA","state":"e5b3546e-9391-43e3-bbab-da4e14585edb","stateCode":"BC","latitude":"49.64703000","longitude":"-124.94670000"},{"id":"dd242c4e-e8d9-4fbc-9086-6bfb892a1c9a","name":"Salmo","ru":"Salmo","country":"3e89aecc-4937-4f97-a65e-1bdc23429277","countryCode":"CA","state":"e5b3546e-9391-43e3-bbab-da4e14585edb","stateCode":"BC","latitude":"49.19986000","longitude":"-117.26890000"},{"id":"a83c71bf-c817-43ec-9e43-9c9de5af78da","name":"Salmon Arm","ru":"Salmon Arm","country":"3e89aecc-4937-4f97-a65e-1bdc23429277","countryCode":"CA","state":"e5b3546e-9391-43e3-bbab-da4e14585edb","stateCode":"BC","latitude":"50.69980000","longitude":"-119.30237000"},{"id":"f6727ef8-a018-4145-a8c6-2bd91119b3ce","name":"Salt Spring Island","ru":"Salt Spring Island","country":"3e89aecc-4937-4f97-a65e-1bdc23429277","countryCode":"CA","state":"e5b3546e-9391-43e3-bbab-da4e14585edb","stateCode":"BC","latitude":"48.81852000","longitude":"-123.49061000"},{"id":"dfbd8f95-7738-44b5-9274-9c2ab4243cb0","name":"Saltair","ru":"Saltair","country":"3e89aecc-4937-4f97-a65e-1bdc23429277","countryCode":"CA","state":"e5b3546e-9391-43e3-bbab-da4e14585edb","stateCode":"BC","latitude":"48.94963000","longitude":"-123.76939000"},{"id":"548d7440-d8d6-42b3-8d10-2ba663b2a81b","name":"Sechelt","ru":"Sechelt","country":"3e89aecc-4937-4f97-a65e-1bdc23429277","countryCode":"CA","state":"e5b3546e-9391-43e3-bbab-da4e14585edb","stateCode":"BC","latitude":"49.47512000","longitude":"-123.75903000"},{"id":"d25c4304-0089-4ac4-8681-21c70998b510","name":"Sicamous","ru":"Sicamous","country":"3e89aecc-4937-4f97-a65e-1bdc23429277","countryCode":"CA","state":"e5b3546e-9391-43e3-bbab-da4e14585edb","stateCode":"BC","latitude":"50.83312000","longitude":"-118.98565000"},{"id":"3564b699-3d03-419a-8d5f-95f20953fdae","name":"Six Mile","ru":"Six Mile","country":"3e89aecc-4937-4f97-a65e-1bdc23429277","countryCode":"CA","state":"e5b3546e-9391-43e3-bbab-da4e14585edb","stateCode":"BC","latitude":"48.45767000","longitude":"-123.46088000"},{"id":"5a7e1dce-d607-4b5b-ab48-cf032a71237a","name":"Smithers","ru":"Smithers","country":"3e89aecc-4937-4f97-a65e-1bdc23429277","countryCode":"CA","state":"e5b3546e-9391-43e3-bbab-da4e14585edb","stateCode":"BC","latitude":"54.78036000","longitude":"-127.17428000"},{"id":"a49f4753-1172-4716-a8a5-bc324d603939","name":"Sooke","ru":"Sooke","country":"3e89aecc-4937-4f97-a65e-1bdc23429277","countryCode":"CA","state":"e5b3546e-9391-43e3-bbab-da4e14585edb","stateCode":"BC","latitude":"48.37463000","longitude":"-123.72762000"},{"id":"6b135a33-f0d1-447e-bdc7-9f5f8aa55d29","name":"South Pender Harbour","ru":"South Pender Harbour","country":"3e89aecc-4937-4f97-a65e-1bdc23429277","countryCode":"CA","state":"e5b3546e-9391-43e3-bbab-da4e14585edb","stateCode":"BC","latitude":"49.62202000","longitude":"-124.02484000"},{"id":"d3695a10-f092-4c72-bff1-3af8c21d2541","name":"Sparwood","ru":"Sparwood","country":"3e89aecc-4937-4f97-a65e-1bdc23429277","countryCode":"CA","state":"e5b3546e-9391-43e3-bbab-da4e14585edb","stateCode":"BC","latitude":"49.73332000","longitude":"-114.88532000"},{"id":"ffd9834c-53ea-4f8e-ada5-7a94169051b9","name":"Summerland","ru":"Summerland","country":"3e89aecc-4937-4f97-a65e-1bdc23429277","countryCode":"CA","state":"e5b3546e-9391-43e3-bbab-da4e14585edb","stateCode":"BC","latitude":"49.59977000","longitude":"-119.66911000"},{"id":"28d62484-374b-4ad1-9bf8-eb31ef149b48","name":"Surrey","ru":"Surrey","country":"3e89aecc-4937-4f97-a65e-1bdc23429277","countryCode":"CA","state":"e5b3546e-9391-43e3-bbab-da4e14585edb","stateCode":"BC","latitude":"49.10635000","longitude":"-122.82509000"},{"id":"2c3a7849-d88e-4e2e-8778-c31ec7df7c42","name":"Terrace","ru":"Terrace","country":"3e89aecc-4937-4f97-a65e-1bdc23429277","countryCode":"CA","state":"e5b3546e-9391-43e3-bbab-da4e14585edb","stateCode":"BC","latitude":"54.51634000","longitude":"-128.60345000"},{"id":"78ffa5fd-ee4b-4684-aad5-d861f6b2242e","name":"Tofino","ru":"Tofino","country":"3e89aecc-4937-4f97-a65e-1bdc23429277","countryCode":"CA","state":"e5b3546e-9391-43e3-bbab-da4e14585edb","stateCode":"BC","latitude":"49.15314000","longitude":"-125.90744000"},{"id":"d0f459bb-eb56-4bc0-8117-bf08cad9cc72","name":"Trail","ru":"Trail","country":"3e89aecc-4937-4f97-a65e-1bdc23429277","countryCode":"CA","state":"e5b3546e-9391-43e3-bbab-da4e14585edb","stateCode":"BC","latitude":"49.09983000","longitude":"-117.70223000"},{"id":"c96e0780-df8f-44db-b28c-d5f7850a33f2","name":"Tsawwassen","ru":"Tsawwassen","country":"3e89aecc-4937-4f97-a65e-1bdc23429277","countryCode":"CA","state":"e5b3546e-9391-43e3-bbab-da4e14585edb","stateCode":"BC","latitude":"49.01667000","longitude":"-123.08333000"},{"id":"71e02b0f-2df3-4f6f-8de6-cf068c7ad528","name":"Tumbler Ridge","ru":"Tumbler Ridge","country":"3e89aecc-4937-4f97-a65e-1bdc23429277","countryCode":"CA","state":"e5b3546e-9391-43e3-bbab-da4e14585edb","stateCode":"BC","latitude":"55.13027000","longitude":"-120.99415000"},{"id":"8274431a-9f09-4628-a167-52a744aa2399","name":"Ucluelet","ru":"Ucluelet","country":"3e89aecc-4937-4f97-a65e-1bdc23429277","countryCode":"CA","state":"e5b3546e-9391-43e3-bbab-da4e14585edb","stateCode":"BC","latitude":"48.94153000","longitude":"-125.54635000"},{"id":"3fc421dd-a2c0-49e8-a540-2a100090caa4","name":"Vancouver","ru":"Vancouver","country":"3e89aecc-4937-4f97-a65e-1bdc23429277","countryCode":"CA","state":"e5b3546e-9391-43e3-bbab-da4e14585edb","stateCode":"BC","latitude":"49.24966000","longitude":"-123.11934000"},{"id":"8fb878ad-09d6-48c7-a1bb-92e14ddfe556","name":"Vanderhoof","ru":"Vanderhoof","country":"3e89aecc-4937-4f97-a65e-1bdc23429277","countryCode":"CA","state":"e5b3546e-9391-43e3-bbab-da4e14585edb","stateCode":"BC","latitude":"54.01657000","longitude":"-124.01982000"},{"id":"d610cd09-fb67-4e24-9c11-7e0bd08f7aa4","name":"Vernon","ru":"Vernon","country":"3e89aecc-4937-4f97-a65e-1bdc23429277","countryCode":"CA","state":"e5b3546e-9391-43e3-bbab-da4e14585edb","stateCode":"BC","latitude":"50.26729000","longitude":"-119.27337000"},{"id":"74a80bfd-1016-474a-8fff-f87ea0916e66","name":"Victoria","ru":"Victoria","country":"3e89aecc-4937-4f97-a65e-1bdc23429277","countryCode":"CA","state":"e5b3546e-9391-43e3-bbab-da4e14585edb","stateCode":"BC","latitude":"48.43590000","longitude":"-123.35155000"},{"id":"33d06a4a-acc5-49fb-8047-5b43a63955d4","name":"Walnut Grove","ru":"Walnut Grove","country":"3e89aecc-4937-4f97-a65e-1bdc23429277","countryCode":"CA","state":"e5b3546e-9391-43e3-bbab-da4e14585edb","stateCode":"BC","latitude":"49.16473000","longitude":"-122.64042000"},{"id":"b930137e-4660-43bd-b6b6-775711d4375f","name":"Welcome Beach","ru":"Welcome Beach","country":"3e89aecc-4937-4f97-a65e-1bdc23429277","countryCode":"CA","state":"e5b3546e-9391-43e3-bbab-da4e14585edb","stateCode":"BC","latitude":"49.47959000","longitude":"-123.89239000"},{"id":"42393e1b-d61d-4da6-9a01-b4ba07aea8a9","name":"West End","ru":"West End","country":"3e89aecc-4937-4f97-a65e-1bdc23429277","countryCode":"CA","state":"e5b3546e-9391-43e3-bbab-da4e14585edb","stateCode":"BC","latitude":"49.28333000","longitude":"-123.13333000"},{"id":"680fb6c8-a6e9-45ca-9a96-0b12ac1a069a","name":"West Kelowna","ru":"West Kelowna","country":"3e89aecc-4937-4f97-a65e-1bdc23429277","countryCode":"CA","state":"e5b3546e-9391-43e3-bbab-da4e14585edb","stateCode":"BC","latitude":"49.86250000","longitude":"-119.58333000"},{"id":"ff4b982d-a5a7-4693-9b2a-a62551204bb8","name":"West Vancouver","ru":"West Vancouver","country":"3e89aecc-4937-4f97-a65e-1bdc23429277","countryCode":"CA","state":"e5b3546e-9391-43e3-bbab-da4e14585edb","stateCode":"BC","latitude":"49.36672000","longitude":"-123.16652000"},{"id":"1ffa842d-111a-430d-a5ea-566797c3aeb2","name":"Whistler","ru":"Whistler","country":"3e89aecc-4937-4f97-a65e-1bdc23429277","countryCode":"CA","state":"e5b3546e-9391-43e3-bbab-da4e14585edb","stateCode":"BC","latitude":"50.11817000","longitude":"-122.95396000"},{"id":"64ecb6ff-4820-4efe-80bd-19092345f0fc","name":"White Rock","ru":"White Rock","country":"3e89aecc-4937-4f97-a65e-1bdc23429277","countryCode":"CA","state":"e5b3546e-9391-43e3-bbab-da4e14585edb","stateCode":"BC","latitude":"49.01636000","longitude":"-122.80260000"},{"id":"d39c28f2-9ee7-4c18-a5a5-6048c63fc17b","name":"Williams Lake","ru":"Williams Lake","country":"3e89aecc-4937-4f97-a65e-1bdc23429277","countryCode":"CA","state":"e5b3546e-9391-43e3-bbab-da4e14585edb","stateCode":"BC","latitude":"52.14153000","longitude":"-122.14451000"},{"id":"7c08dcac-a07a-49a8-a2f0-7bdcef21a3b5","name":"Altona","ru":"Altona","country":"3e89aecc-4937-4f97-a65e-1bdc23429277","countryCode":"CA","state":"17b6d883-bbc5-4eab-aa30-365180d3a5a4","stateCode":"MB","latitude":"49.10469000","longitude":"-97.55961000"},{"id":"69a09ac1-cf3b-4980-9af8-a342f9022e04","name":"Beausejour","ru":"Beausejour","country":"3e89aecc-4937-4f97-a65e-1bdc23429277","countryCode":"CA","state":"17b6d883-bbc5-4eab-aa30-365180d3a5a4","stateCode":"MB","latitude":"50.06220000","longitude":"-96.51669000"},{"id":"34e6c95c-7a46-4311-a79a-2f3ac68426fd","name":"Boissevain","ru":"Boissevain","country":"3e89aecc-4937-4f97-a65e-1bdc23429277","countryCode":"CA","state":"17b6d883-bbc5-4eab-aa30-365180d3a5a4","stateCode":"MB","latitude":"49.23062000","longitude":"-100.05586000"},{"id":"adfd367d-6458-4fb5-acec-2dde44bc914e","name":"Brandon","ru":"Brandon","country":"3e89aecc-4937-4f97-a65e-1bdc23429277","countryCode":"CA","state":"17b6d883-bbc5-4eab-aa30-365180d3a5a4","stateCode":"MB","latitude":"49.84692000","longitude":"-99.95306000"},{"id":"5ea21981-d516-412c-9f5f-b2fb7ec6e506","name":"Carberry","ru":"Carberry","country":"3e89aecc-4937-4f97-a65e-1bdc23429277","countryCode":"CA","state":"17b6d883-bbc5-4eab-aa30-365180d3a5a4","stateCode":"MB","latitude":"49.86893000","longitude":"-99.36021000"},{"id":"4f63943a-3e5b-40c6-ba04-8b7e8d9ff3a2","name":"Carman","ru":"Carman","country":"3e89aecc-4937-4f97-a65e-1bdc23429277","countryCode":"CA","state":"17b6d883-bbc5-4eab-aa30-365180d3a5a4","stateCode":"MB","latitude":"49.49920000","longitude":"-98.00156000"},{"id":"d2763df9-3ac3-446e-932a-5172f963337a","name":"Cross Lake 19A","ru":"Cross Lake 19A","country":"3e89aecc-4937-4f97-a65e-1bdc23429277","countryCode":"CA","state":"17b6d883-bbc5-4eab-aa30-365180d3a5a4","stateCode":"MB","latitude":"54.65135000","longitude":"-97.76848000"},{"id":"c41bd30f-0d35-4d07-9771-cc1728998fe8","name":"Dauphin","ru":"Dauphin","country":"3e89aecc-4937-4f97-a65e-1bdc23429277","countryCode":"CA","state":"17b6d883-bbc5-4eab-aa30-365180d3a5a4","stateCode":"MB","latitude":"51.14941000","longitude":"-100.05023000"},{"id":"316b82c3-e746-4c3f-a406-9b3d8873abb9","name":"De Salaberry","ru":"De Salaberry","country":"3e89aecc-4937-4f97-a65e-1bdc23429277","countryCode":"CA","state":"17b6d883-bbc5-4eab-aa30-365180d3a5a4","stateCode":"MB","latitude":"49.39999000","longitude":"-97.00894000"},{"id":"67363b03-4580-4c9e-94f8-3269573d6957","name":"Deloraine","ru":"Deloraine","country":"3e89aecc-4937-4f97-a65e-1bdc23429277","countryCode":"CA","state":"17b6d883-bbc5-4eab-aa30-365180d3a5a4","stateCode":"MB","latitude":"49.19082000","longitude":"-100.49477000"},{"id":"ae7af136-3572-41b4-b413-ccddabfedff6","name":"Flin Flon","ru":"Flin Flon","country":"3e89aecc-4937-4f97-a65e-1bdc23429277","countryCode":"CA","state":"17b6d883-bbc5-4eab-aa30-365180d3a5a4","stateCode":"MB","latitude":"54.76703000","longitude":"-101.87433000"},{"id":"35644d00-dab2-4fef-a733-4f4df935a00f","name":"Gimli","ru":"Gimli","country":"3e89aecc-4937-4f97-a65e-1bdc23429277","countryCode":"CA","state":"17b6d883-bbc5-4eab-aa30-365180d3a5a4","stateCode":"MB","latitude":"50.63362000","longitude":"-96.99066000"},{"id":"1ec54be6-bb1d-4ffb-a040-c9da99ff7bd1","name":"Grunthal","ru":"Grunthal","country":"3e89aecc-4937-4f97-a65e-1bdc23429277","countryCode":"CA","state":"17b6d883-bbc5-4eab-aa30-365180d3a5a4","stateCode":"MB","latitude":"49.40668000","longitude":"-96.85873000"},{"id":"14d4f211-82fa-41db-8e5c-620dce4f64b2","name":"Headingley","ru":"Headingley","country":"3e89aecc-4937-4f97-a65e-1bdc23429277","countryCode":"CA","state":"17b6d883-bbc5-4eab-aa30-365180d3a5a4","stateCode":"MB","latitude":"49.87530000","longitude":"-97.40896000"},{"id":"d6165424-6571-42c2-8ace-a3bf57c476ca","name":"Ile des Chênes","ru":"Ile des Chênes","country":"3e89aecc-4937-4f97-a65e-1bdc23429277","countryCode":"CA","state":"17b6d883-bbc5-4eab-aa30-365180d3a5a4","stateCode":"MB","latitude":"49.71060000","longitude":"-96.98893000"},{"id":"55f29a36-41ed-49bd-a48f-c29ee5e4d5b0","name":"Killarney","ru":"Killarney","country":"3e89aecc-4937-4f97-a65e-1bdc23429277","countryCode":"CA","state":"17b6d883-bbc5-4eab-aa30-365180d3a5a4","stateCode":"MB","latitude":"49.18332000","longitude":"-99.66364000"},{"id":"369f064a-a102-43b2-8a59-2182a7729435","name":"La Broquerie","ru":"La Broquerie","country":"3e89aecc-4937-4f97-a65e-1bdc23429277","countryCode":"CA","state":"17b6d883-bbc5-4eab-aa30-365180d3a5a4","stateCode":"MB","latitude":"49.51688000","longitude":"-96.50029000"},{"id":"d2493a7f-5209-4381-9c78-91d975581f4e","name":"Lac du Bonnet","ru":"Lac du Bonnet","country":"3e89aecc-4937-4f97-a65e-1bdc23429277","countryCode":"CA","state":"17b6d883-bbc5-4eab-aa30-365180d3a5a4","stateCode":"MB","latitude":"50.25360000","longitude":"-96.06116000"},{"id":"f1dcb45d-eb85-4c65-a488-5d93d9a09653","name":"Landmark","ru":"Landmark","country":"3e89aecc-4937-4f97-a65e-1bdc23429277","countryCode":"CA","state":"17b6d883-bbc5-4eab-aa30-365180d3a5a4","stateCode":"MB","latitude":"49.67169000","longitude":"-96.82232000"},{"id":"df9ba674-5d64-4b7f-8955-ea157df85361","name":"Lorette","ru":"Lorette","country":"3e89aecc-4937-4f97-a65e-1bdc23429277","countryCode":"CA","state":"17b6d883-bbc5-4eab-aa30-365180d3a5a4","stateCode":"MB","latitude":"49.73919000","longitude":"-96.87232000"},{"id":"cdde3781-71b0-4b0e-a896-a86d53142a67","name":"Melita","ru":"Melita","country":"3e89aecc-4937-4f97-a65e-1bdc23429277","countryCode":"CA","state":"17b6d883-bbc5-4eab-aa30-365180d3a5a4","stateCode":"MB","latitude":"49.26811000","longitude":"-100.99669000"},{"id":"813db1e1-5804-4017-9edf-82e3411f4029","name":"Minnedosa","ru":"Minnedosa","country":"3e89aecc-4937-4f97-a65e-1bdc23429277","countryCode":"CA","state":"17b6d883-bbc5-4eab-aa30-365180d3a5a4","stateCode":"MB","latitude":"50.24532000","longitude":"-99.84364000"},{"id":"a8a1ca53-d4cb-4774-b07f-e9121629bc33","name":"Moose Lake","ru":"Moose Lake","country":"3e89aecc-4937-4f97-a65e-1bdc23429277","countryCode":"CA","state":"17b6d883-bbc5-4eab-aa30-365180d3a5a4","stateCode":"MB","latitude":"49.20559000","longitude":"-95.30629000"},{"id":"2518d7e4-9991-479b-a9bc-06686fa9eb52","name":"Morden","ru":"Morden","country":"3e89aecc-4937-4f97-a65e-1bdc23429277","countryCode":"CA","state":"17b6d883-bbc5-4eab-aa30-365180d3a5a4","stateCode":"MB","latitude":"49.19190000","longitude":"-98.10136000"},{"id":"aeafa441-994e-427f-a518-65e82c6e4bda","name":"Morris","ru":"Morris","country":"3e89aecc-4937-4f97-a65e-1bdc23429277","countryCode":"CA","state":"17b6d883-bbc5-4eab-aa30-365180d3a5a4","stateCode":"MB","latitude":"49.35499000","longitude":"-97.36567000"},{"id":"d8520232-3c8b-4a37-aa3c-bdd39c0d1063","name":"Neepawa","ru":"Neepawa","country":"3e89aecc-4937-4f97-a65e-1bdc23429277","countryCode":"CA","state":"17b6d883-bbc5-4eab-aa30-365180d3a5a4","stateCode":"MB","latitude":"50.22892000","longitude":"-99.46642000"},{"id":"12c0a4e7-7718-4d47-93d5-7d9c48c18702","name":"Niverville","ru":"Niverville","country":"3e89aecc-4937-4f97-a65e-1bdc23429277","countryCode":"CA","state":"17b6d883-bbc5-4eab-aa30-365180d3a5a4","stateCode":"MB","latitude":"49.60559000","longitude":"-97.04234000"},{"id":"1e2b36c2-37de-4c50-a935-3b9131586893","name":"Portage la Prairie","ru":"Portage la Prairie","country":"3e89aecc-4937-4f97-a65e-1bdc23429277","countryCode":"CA","state":"17b6d883-bbc5-4eab-aa30-365180d3a5a4","stateCode":"MB","latitude":"49.97282000","longitude":"-98.29263000"},{"id":"7e2000ad-e70b-4009-9c35-37631ecc6f14","name":"Rivers","ru":"Rivers","country":"3e89aecc-4937-4f97-a65e-1bdc23429277","countryCode":"CA","state":"17b6d883-bbc5-4eab-aa30-365180d3a5a4","stateCode":"MB","latitude":"50.03081000","longitude":"-100.24029000"},{"id":"04b66682-7ed5-4b21-a2fb-42bdd17589d3","name":"Roblin","ru":"Roblin","country":"3e89aecc-4937-4f97-a65e-1bdc23429277","countryCode":"CA","state":"17b6d883-bbc5-4eab-aa30-365180d3a5a4","stateCode":"MB","latitude":"51.22999000","longitude":"-101.35650000"},{"id":"fbb0d4e2-e4ae-49e1-8605-8d60b5ffbb01","name":"Selkirk","ru":"Selkirk","country":"3e89aecc-4937-4f97-a65e-1bdc23429277","countryCode":"CA","state":"17b6d883-bbc5-4eab-aa30-365180d3a5a4","stateCode":"MB","latitude":"50.14360000","longitude":"-96.88452000"},{"id":"2c9d9038-9ce1-41b5-bd01-306c980c4818","name":"Shilo","ru":"Shilo","country":"3e89aecc-4937-4f97-a65e-1bdc23429277","countryCode":"CA","state":"17b6d883-bbc5-4eab-aa30-365180d3a5a4","stateCode":"MB","latitude":"49.80509000","longitude":"-99.63175000"},{"id":"014f7d58-e04b-4d75-8348-dcaf0188a935","name":"Souris","ru":"Souris","country":"3e89aecc-4937-4f97-a65e-1bdc23429277","countryCode":"CA","state":"17b6d883-bbc5-4eab-aa30-365180d3a5a4","stateCode":"MB","latitude":"49.61720000","longitude":"-100.26120000"},{"id":"58714058-23ac-4d36-a081-affbab968f90","name":"St. Adolphe","ru":"St. Adolphe","country":"3e89aecc-4937-4f97-a65e-1bdc23429277","countryCode":"CA","state":"17b6d883-bbc5-4eab-aa30-365180d3a5a4","stateCode":"MB","latitude":"49.67440000","longitude":"-97.11124000"},{"id":"941a32f3-6718-4649-b739-aa5fa6739cd6","name":"Steinbach","ru":"Steinbach","country":"3e89aecc-4937-4f97-a65e-1bdc23429277","countryCode":"CA","state":"17b6d883-bbc5-4eab-aa30-365180d3a5a4","stateCode":"MB","latitude":"49.52579000","longitude":"-96.68451000"},{"id":"23d725e6-54b0-4931-ba75-4d4a62782ac3","name":"Stonewall","ru":"Stonewall","country":"3e89aecc-4937-4f97-a65e-1bdc23429277","countryCode":"CA","state":"17b6d883-bbc5-4eab-aa30-365180d3a5a4","stateCode":"MB","latitude":"50.13441000","longitude":"-97.32676000"},{"id":"a77d6f2d-0fd2-4805-8098-1dd1fe62b663","name":"Swan River","ru":"Swan River","country":"3e89aecc-4937-4f97-a65e-1bdc23429277","countryCode":"CA","state":"17b6d883-bbc5-4eab-aa30-365180d3a5a4","stateCode":"MB","latitude":"52.10580000","longitude":"-101.26759000"},{"id":"be586c66-299f-44b9-8fb7-6081b7edc740","name":"The Pas","ru":"The Pas","country":"3e89aecc-4937-4f97-a65e-1bdc23429277","countryCode":"CA","state":"17b6d883-bbc5-4eab-aa30-365180d3a5a4","stateCode":"MB","latitude":"53.82509000","longitude":"-101.25413000"},{"id":"f72b5f0f-7fe1-4e9e-82f7-f5e6ede3f917","name":"Thompson","ru":"Thompson","country":"3e89aecc-4937-4f97-a65e-1bdc23429277","countryCode":"CA","state":"17b6d883-bbc5-4eab-aa30-365180d3a5a4","stateCode":"MB","latitude":"55.74350000","longitude":"-97.85579000"},{"id":"674f97a6-41f1-4d88-b6b9-56a033a5a86e","name":"Virden","ru":"Virden","country":"3e89aecc-4937-4f97-a65e-1bdc23429277","countryCode":"CA","state":"17b6d883-bbc5-4eab-aa30-365180d3a5a4","stateCode":"MB","latitude":"49.85080000","longitude":"-100.93262000"},{"id":"7bb0e7da-c9e8-4837-b699-627a866923e5","name":"West St. Paul","ru":"West St. Paul","country":"3e89aecc-4937-4f97-a65e-1bdc23429277","countryCode":"CA","state":"17b6d883-bbc5-4eab-aa30-365180d3a5a4","stateCode":"MB","latitude":"49.99940000","longitude":"-97.16284000"},{"id":"d30025cc-753b-4c61-b464-b34f3093ce87","name":"Winkler","ru":"Winkler","country":"3e89aecc-4937-4f97-a65e-1bdc23429277","countryCode":"CA","state":"17b6d883-bbc5-4eab-aa30-365180d3a5a4","stateCode":"MB","latitude":"49.18170000","longitude":"-97.94104000"},{"id":"8d7d0a96-9401-402f-a826-bb71437cd5fa","name":"Winnipeg","ru":"Winnipeg","country":"3e89aecc-4937-4f97-a65e-1bdc23429277","countryCode":"CA","state":"17b6d883-bbc5-4eab-aa30-365180d3a5a4","stateCode":"MB","latitude":"49.88440000","longitude":"-97.14704000"},{"id":"786ad718-43ad-48a8-94d9-04591a19d291","name":"Baie Ste. Anne","ru":"Baie Ste. Anne","country":"3e89aecc-4937-4f97-a65e-1bdc23429277","countryCode":"CA","state":"94d9e04f-0d53-49a0-a66e-b8120ef76409","stateCode":"NB","latitude":"47.05231000","longitude":"-64.95355000"},{"id":"3a4e20d7-97a3-40bd-a9ff-ae83ba1c4d82","name":"Bathurst","ru":"Bathurst","country":"3e89aecc-4937-4f97-a65e-1bdc23429277","countryCode":"CA","state":"94d9e04f-0d53-49a0-a66e-b8120ef76409","stateCode":"NB","latitude":"47.61814000","longitude":"-65.65112000"},{"id":"11528d59-267b-4c8f-9825-cf296ccba456","name":"Bouctouche","ru":"Bouctouche","country":"3e89aecc-4937-4f97-a65e-1bdc23429277","countryCode":"CA","state":"94d9e04f-0d53-49a0-a66e-b8120ef76409","stateCode":"NB","latitude":"46.46844000","longitude":"-64.73905000"},{"id":"fd44b178-0a89-426a-9c3a-3a37bd818a26","name":"Campbellton","ru":"Campbellton","country":"3e89aecc-4937-4f97-a65e-1bdc23429277","countryCode":"CA","state":"94d9e04f-0d53-49a0-a66e-b8120ef76409","stateCode":"NB","latitude":"48.00751000","longitude":"-66.67272000"},{"id":"1bd935b6-a2c8-4057-8d36-a86e5883f5d7","name":"Dieppe","ru":"Dieppe","country":"3e89aecc-4937-4f97-a65e-1bdc23429277","countryCode":"CA","state":"94d9e04f-0d53-49a0-a66e-b8120ef76409","stateCode":"NB","latitude":"46.07844000","longitude":"-64.68735000"},{"id":"b5e294b4-82e5-4ac1-b1bc-bdbad3d568a0","name":"Edmundston","ru":"Edmundston","country":"3e89aecc-4937-4f97-a65e-1bdc23429277","countryCode":"CA","state":"94d9e04f-0d53-49a0-a66e-b8120ef76409","stateCode":"NB","latitude":"47.37370000","longitude":"-68.32512000"},{"id":"05007e52-9e88-43a4-873b-de0c6e6448ff","name":"Florenceville-Bristol","ru":"Florenceville-Bristol","country":"3e89aecc-4937-4f97-a65e-1bdc23429277","countryCode":"CA","state":"94d9e04f-0d53-49a0-a66e-b8120ef76409","stateCode":"NB","latitude":"46.44353000","longitude":"-67.61536000"},{"id":"9d205846-8933-4d47-a1f3-239b903a256b","name":"Fredericton","ru":"Fredericton","country":"3e89aecc-4937-4f97-a65e-1bdc23429277","countryCode":"CA","state":"94d9e04f-0d53-49a0-a66e-b8120ef76409","stateCode":"NB","latitude":"45.94541000","longitude":"-66.66558000"},{"id":"bd26dd80-8d10-4128-b59a-9fe0f720c2d8","name":"Fundy Bay","ru":"Fundy Bay","country":"3e89aecc-4937-4f97-a65e-1bdc23429277","countryCode":"CA","state":"94d9e04f-0d53-49a0-a66e-b8120ef76409","stateCode":"NB","latitude":"44.74100000","longitude":"-66.76041000"},{"id":"57e8cc1d-0914-4a85-a87a-b1582c840bbd","name":"Grande-Digue","ru":"Grande-Digue","country":"3e89aecc-4937-4f97-a65e-1bdc23429277","countryCode":"CA","state":"94d9e04f-0d53-49a0-a66e-b8120ef76409","stateCode":"NB","latitude":"46.30014000","longitude":"-64.56546000"},{"id":"b12172b7-799e-4b82-9e2f-cac5612d78fe","name":"Greater Lakeburn","ru":"Greater Lakeburn","country":"3e89aecc-4937-4f97-a65e-1bdc23429277","countryCode":"CA","state":"94d9e04f-0d53-49a0-a66e-b8120ef76409","stateCode":"NB","latitude":"46.07651000","longitude":"-64.66818000"},{"id":"1ba5f9ae-c2b5-42d9-9d60-119104502e95","name":"Hampton","ru":"Hampton","country":"3e89aecc-4937-4f97-a65e-1bdc23429277","countryCode":"CA","state":"94d9e04f-0d53-49a0-a66e-b8120ef76409","stateCode":"NB","latitude":"45.52876000","longitude":"-65.85354000"},{"id":"1ee66ace-91c9-45d9-aae0-de0fa39db1d3","name":"Harrison Brook","ru":"Harrison Brook","country":"3e89aecc-4937-4f97-a65e-1bdc23429277","countryCode":"CA","state":"94d9e04f-0d53-49a0-a66e-b8120ef76409","stateCode":"NB","latitude":"47.21304000","longitude":"-67.92847000"},{"id":"b3dc6976-a4b8-4c36-8f8d-c0914ab27ebb","name":"Keswick Ridge","ru":"Keswick Ridge","country":"3e89aecc-4937-4f97-a65e-1bdc23429277","countryCode":"CA","state":"94d9e04f-0d53-49a0-a66e-b8120ef76409","stateCode":"NB","latitude":"46.00011000","longitude":"-66.88218000"},{"id":"ba89cb5f-cad4-49d6-b0c1-56d1a288c982","name":"Lincoln","ru":"Lincoln","country":"3e89aecc-4937-4f97-a65e-1bdc23429277","countryCode":"CA","state":"94d9e04f-0d53-49a0-a66e-b8120ef76409","stateCode":"NB","latitude":"45.90012000","longitude":"-66.58218000"},{"id":"628ebbd6-9989-42c8-ac68-4aaf24f816cd","name":"Lutes Mountain","ru":"Lutes Mountain","country":"3e89aecc-4937-4f97-a65e-1bdc23429277","countryCode":"CA","state":"94d9e04f-0d53-49a0-a66e-b8120ef76409","stateCode":"NB","latitude":"46.13544000","longitude":"-64.90504000"},{"id":"dd451565-fbe9-44f9-9c2a-44089f88c066","name":"McEwen","ru":"McEwen","country":"3e89aecc-4937-4f97-a65e-1bdc23429277","countryCode":"CA","state":"94d9e04f-0d53-49a0-a66e-b8120ef76409","stateCode":"NB","latitude":"46.14520000","longitude":"-64.78615000"},{"id":"f412b39a-fbbd-4434-9fef-20d19eb5a161","name":"Miramichi","ru":"Miramichi","country":"3e89aecc-4937-4f97-a65e-1bdc23429277","countryCode":"CA","state":"94d9e04f-0d53-49a0-a66e-b8120ef76409","stateCode":"NB","latitude":"47.02895000","longitude":"-65.50186000"},{"id":"416ab2a3-4a6b-4761-8cf1-d5ad279d1804","name":"Moncton","ru":"Moncton","country":"3e89aecc-4937-4f97-a65e-1bdc23429277","countryCode":"CA","state":"94d9e04f-0d53-49a0-a66e-b8120ef76409","stateCode":"NB","latitude":"46.09454000","longitude":"-64.79650000"},{"id":"89cb0721-4976-4311-b526-60dcaa1b2048","name":"Nackawic","ru":"Nackawic","country":"3e89aecc-4937-4f97-a65e-1bdc23429277","countryCode":"CA","state":"94d9e04f-0d53-49a0-a66e-b8120ef76409","stateCode":"NB","latitude":"45.99666000","longitude":"-67.24028000"},{"id":"0de068ee-5775-4c72-a1c7-ddad9778b9f4","name":"New Maryland","ru":"New Maryland","country":"3e89aecc-4937-4f97-a65e-1bdc23429277","countryCode":"CA","state":"94d9e04f-0d53-49a0-a66e-b8120ef76409","stateCode":"NB","latitude":"45.87932000","longitude":"-66.66828000"},{"id":"e3b001ec-be55-4141-a029-1cd0f82c5359","name":"Noonan","ru":"Noonan","country":"3e89aecc-4937-4f97-a65e-1bdc23429277","countryCode":"CA","state":"94d9e04f-0d53-49a0-a66e-b8120ef76409","stateCode":"NB","latitude":"45.96682000","longitude":"-66.53218000"},{"id":"40243ea7-a9a6-498a-bd30-216e1903b548","name":"Oromocto","ru":"Oromocto","country":"3e89aecc-4937-4f97-a65e-1bdc23429277","countryCode":"CA","state":"94d9e04f-0d53-49a0-a66e-b8120ef76409","stateCode":"NB","latitude":"45.83512000","longitude":"-66.47917000"},{"id":"6b52dcfe-027a-468b-a56c-fc7ea843f594","name":"Richibucto","ru":"Richibucto","country":"3e89aecc-4937-4f97-a65e-1bdc23429277","countryCode":"CA","state":"94d9e04f-0d53-49a0-a66e-b8120ef76409","stateCode":"NB","latitude":"46.68073000","longitude":"-64.88044000"},{"id":"517041c0-2e56-4e93-b308-d6068c15e9f0","name":"Sackville","ru":"Sackville","country":"3e89aecc-4937-4f97-a65e-1bdc23429277","countryCode":"CA","state":"94d9e04f-0d53-49a0-a66e-b8120ef76409","stateCode":"NB","latitude":"45.91875000","longitude":"-64.38455000"},{"id":"3e5cfd43-dd54-4877-9150-4116bfe7fdf2","name":"Saint Andrews","ru":"Saint Andrews","country":"3e89aecc-4937-4f97-a65e-1bdc23429277","countryCode":"CA","state":"94d9e04f-0d53-49a0-a66e-b8120ef76409","stateCode":"NB","latitude":"45.07370000","longitude":"-67.05312000"},{"id":"12b34ff1-302a-4b63-ac80-4bbaec343b58","name":"Saint John","ru":"Saint John","country":"3e89aecc-4937-4f97-a65e-1bdc23429277","countryCode":"CA","state":"94d9e04f-0d53-49a0-a66e-b8120ef76409","stateCode":"NB","latitude":"45.27271000","longitude":"-66.06766000"},{"id":"bdf536b7-2faf-403a-bbb5-6767c94fd4b4","name":"Saint-Antoine","ru":"Saint-Antoine","country":"3e89aecc-4937-4f97-a65e-1bdc23429277","countryCode":"CA","state":"94d9e04f-0d53-49a0-a66e-b8120ef76409","stateCode":"NB","latitude":"46.36294000","longitude":"-64.74985000"},{"id":"9f31e3b4-6d47-4aa5-9e2f-d1891e077f63","name":"Saint-Léonard","ru":"Saint-Léonard","country":"3e89aecc-4937-4f97-a65e-1bdc23429277","countryCode":"CA","state":"94d9e04f-0d53-49a0-a66e-b8120ef76409","stateCode":"NB","latitude":"47.16317000","longitude":"-67.92460000"},{"id":"94db8e6f-3175-42fb-874c-24d9caf391c5","name":"Salisbury","ru":"Salisbury","country":"3e89aecc-4937-4f97-a65e-1bdc23429277","countryCode":"CA","state":"94d9e04f-0d53-49a0-a66e-b8120ef76409","stateCode":"NB","latitude":"46.03905000","longitude":"-65.04628000"},{"id":"45fbc8b1-a607-4dc9-8393-aacc2b7e7f36","name":"Shediac","ru":"Shediac","country":"3e89aecc-4937-4f97-a65e-1bdc23429277","countryCode":"CA","state":"94d9e04f-0d53-49a0-a66e-b8120ef76409","stateCode":"NB","latitude":"46.21981000","longitude":"-64.54107000"},{"id":"fd82d062-86f2-4024-81ed-1fad0999ed78","name":"Shediac Bridge-Shediac River","ru":"Shediac Bridge-Shediac River","country":"3e89aecc-4937-4f97-a65e-1bdc23429277","countryCode":"CA","state":"94d9e04f-0d53-49a0-a66e-b8120ef76409","stateCode":"NB","latitude":"46.26886000","longitude":"-64.60047000"},{"id":"6f83e6d9-6d41-4b42-bcec-f526f3cf41d2","name":"Shippagan","ru":"Shippagan","country":"3e89aecc-4937-4f97-a65e-1bdc23429277","countryCode":"CA","state":"94d9e04f-0d53-49a0-a66e-b8120ef76409","stateCode":"NB","latitude":"47.74424000","longitude":"-64.70804000"},{"id":"96da92de-f068-4f62-997d-fa67c9a5db3b","name":"Starlight Village","ru":"Starlight Village","country":"3e89aecc-4937-4f97-a65e-1bdc23429277","countryCode":"CA","state":"94d9e04f-0d53-49a0-a66e-b8120ef76409","stateCode":"NB","latitude":"45.88308000","longitude":"-66.76905000"},{"id":"e477f3f3-8d97-41fc-b4f6-def1c1d8441b","name":"Sussex","ru":"Sussex","country":"3e89aecc-4937-4f97-a65e-1bdc23429277","countryCode":"CA","state":"94d9e04f-0d53-49a0-a66e-b8120ef76409","stateCode":"NB","latitude":"45.72266000","longitude":"-65.50663000"},{"id":"68711d8b-ac0e-4788-9a7b-b0b9c75352e0","name":"Tracadie-Sheila","ru":"Tracadie-Sheila","country":"3e89aecc-4937-4f97-a65e-1bdc23429277","countryCode":"CA","state":"94d9e04f-0d53-49a0-a66e-b8120ef76409","stateCode":"NB","latitude":"47.51444000","longitude":"-64.91806000"},{"id":"342dee58-2484-4e05-ab34-9a0544433fac","name":"Wells","ru":"Wells","country":"3e89aecc-4937-4f97-a65e-1bdc23429277","countryCode":"CA","state":"94d9e04f-0d53-49a0-a66e-b8120ef76409","stateCode":"NB","latitude":"45.39274000","longitude":"-65.92313000"},{"id":"aa05c4d5-a066-4bda-81ed-56cba4858841","name":"Bay Roberts","ru":"Bay Roberts","country":"3e89aecc-4937-4f97-a65e-1bdc23429277","countryCode":"CA","state":"0d7a1b28-c848-477e-b681-6ebc318d9fd8","stateCode":"NL","latitude":"47.59989000","longitude":"-53.26478000"},{"id":"38380436-4886-4492-84b2-c02b94f2b234","name":"Bay St. George South","ru":"Bay St. George South","country":"3e89aecc-4937-4f97-a65e-1bdc23429277","countryCode":"CA","state":"0d7a1b28-c848-477e-b681-6ebc318d9fd8","stateCode":"NL","latitude":"48.22781000","longitude":"-58.84162000"},{"id":"98115059-3751-4bb7-b981-ded09174c792","name":"Bonavista","ru":"Bonavista","country":"3e89aecc-4937-4f97-a65e-1bdc23429277","countryCode":"CA","state":"0d7a1b28-c848-477e-b681-6ebc318d9fd8","stateCode":"NL","latitude":"48.64989000","longitude":"-53.11474000"},{"id":"f9c91e93-b183-4988-9ef1-416e420dd005","name":"Botwood","ru":"Botwood","country":"3e89aecc-4937-4f97-a65e-1bdc23429277","countryCode":"CA","state":"0d7a1b28-c848-477e-b681-6ebc318d9fd8","stateCode":"NL","latitude":"49.14994000","longitude":"-55.34819000"},{"id":"cb3832dc-19d2-4a47-b71a-ea4c6f0a89f5","name":"Burgeo","ru":"Burgeo","country":"3e89aecc-4937-4f97-a65e-1bdc23429277","countryCode":"CA","state":"0d7a1b28-c848-477e-b681-6ebc318d9fd8","stateCode":"NL","latitude":"47.61668000","longitude":"-57.61516000"},{"id":"df23b82b-1710-4ee4-ac0b-465e9b18e8c2","name":"Carbonear","ru":"Carbonear","country":"3e89aecc-4937-4f97-a65e-1bdc23429277","countryCode":"CA","state":"0d7a1b28-c848-477e-b681-6ebc318d9fd8","stateCode":"NL","latitude":"47.73319000","longitude":"-53.21478000"},{"id":"899cba8b-93bb-42b9-b278-6035d87cef42","name":"Catalina","ru":"Catalina","country":"3e89aecc-4937-4f97-a65e-1bdc23429277","countryCode":"CA","state":"0d7a1b28-c848-477e-b681-6ebc318d9fd8","stateCode":"NL","latitude":"48.51659000","longitude":"-53.08135000"},{"id":"58de6d66-00fc-4ede-8a12-993ec2583c80","name":"Channel-Port aux Basques","ru":"Channel-Port aux Basques","country":"3e89aecc-4937-4f97-a65e-1bdc23429277","countryCode":"CA","state":"0d7a1b28-c848-477e-b681-6ebc318d9fd8","stateCode":"NL","latitude":"47.57286000","longitude":"-59.13808000"},{"id":"a68edddd-753a-45cb-9140-a9bf8d838742","name":"Clarenville-Shoal Harbour","ru":"Clarenville-Shoal Harbour","country":"3e89aecc-4937-4f97-a65e-1bdc23429277","countryCode":"CA","state":"0d7a1b28-c848-477e-b681-6ebc318d9fd8","stateCode":"NL","latitude":"48.18050000","longitude":"-53.96982000"},{"id":"e0933038-d24e-4c75-982f-6964bd7e6453","name":"Conception Bay South","ru":"Conception Bay South","country":"3e89aecc-4937-4f97-a65e-1bdc23429277","countryCode":"CA","state":"0d7a1b28-c848-477e-b681-6ebc318d9fd8","stateCode":"NL","latitude":"47.49989000","longitude":"-52.99806000"},{"id":"4b25d581-3cc8-4bba-8bbd-8529aab60052","name":"Corner Brook","ru":"Corner Brook","country":"3e89aecc-4937-4f97-a65e-1bdc23429277","countryCode":"CA","state":"0d7a1b28-c848-477e-b681-6ebc318d9fd8","stateCode":"NL","latitude":"48.95001000","longitude":"-57.95202000"},{"id":"3372225b-980f-4db9-a5fb-afe3866553eb","name":"Deer Lake","ru":"Deer Lake","country":"3e89aecc-4937-4f97-a65e-1bdc23429277","countryCode":"CA","state":"0d7a1b28-c848-477e-b681-6ebc318d9fd8","stateCode":"NL","latitude":"49.16671000","longitude":"-57.43163000"},{"id":"09be54c7-1c61-493c-94d9-09f8ca1ad6f9","name":"Fogo Island","ru":"Fogo Island","country":"3e89aecc-4937-4f97-a65e-1bdc23429277","countryCode":"CA","state":"0d7a1b28-c848-477e-b681-6ebc318d9fd8","stateCode":"NL","latitude":"49.71649000","longitude":"-54.16981000"},{"id":"486e8067-4e88-4f07-a6a5-00c6e71fd496","name":"Gambo","ru":"Gambo","country":"3e89aecc-4937-4f97-a65e-1bdc23429277","countryCode":"CA","state":"0d7a1b28-c848-477e-b681-6ebc318d9fd8","stateCode":"NL","latitude":"48.78320000","longitude":"-54.21482000"},{"id":"bef9856a-8d38-4ff0-8975-1d3d6abcc65a","name":"Goulds","ru":"Goulds","country":"3e89aecc-4937-4f97-a65e-1bdc23429277","countryCode":"CA","state":"0d7a1b28-c848-477e-b681-6ebc318d9fd8","stateCode":"NL","latitude":"47.45532000","longitude":"-52.77552000"},{"id":"d196ec99-08cf-4a4d-9469-f11c8c6145d4","name":"Grand Bank","ru":"Grand Bank","country":"3e89aecc-4937-4f97-a65e-1bdc23429277","countryCode":"CA","state":"0d7a1b28-c848-477e-b681-6ebc318d9fd8","stateCode":"NL","latitude":"47.09995000","longitude":"-55.76504000"},{"id":"0b190f5d-5a1f-4639-9139-1854e37fb3a4","name":"Grand Falls-Windsor","ru":"Grand Falls-Windsor","country":"3e89aecc-4937-4f97-a65e-1bdc23429277","countryCode":"CA","state":"0d7a1b28-c848-477e-b681-6ebc318d9fd8","stateCode":"NL","latitude":"48.93324000","longitude":"-55.66492000"},{"id":"7e66d057-6eec-411b-bd79-e9a575e3aa82","name":"Happy Valley-Goose Bay","ru":"Happy Valley-Goose Bay","country":"3e89aecc-4937-4f97-a65e-1bdc23429277","countryCode":"CA","state":"0d7a1b28-c848-477e-b681-6ebc318d9fd8","stateCode":"NL","latitude":"53.30380000","longitude":"-60.32576000"},{"id":"1e96b46e-5e9b-4181-8ccd-050a13825f1e","name":"Harbour Breton","ru":"Harbour Breton","country":"3e89aecc-4937-4f97-a65e-1bdc23429277","countryCode":"CA","state":"0d7a1b28-c848-477e-b681-6ebc318d9fd8","stateCode":"NL","latitude":"47.48325000","longitude":"-55.79833000"},{"id":"cb96bd15-9c2c-4812-bc3a-074afefea81c","name":"Labrador City","ru":"Labrador City","country":"3e89aecc-4937-4f97-a65e-1bdc23429277","countryCode":"CA","state":"0d7a1b28-c848-477e-b681-6ebc318d9fd8","stateCode":"NL","latitude":"52.94626000","longitude":"-66.91137000"},{"id":"29198776-6f19-45e3-a45a-aa058db8a871","name":"Lewisporte","ru":"Lewisporte","country":"3e89aecc-4937-4f97-a65e-1bdc23429277","countryCode":"CA","state":"0d7a1b28-c848-477e-b681-6ebc318d9fd8","stateCode":"NL","latitude":"49.24993000","longitude":"-55.04816000"},{"id":"305b1a0c-b72d-482d-a724-82e63b5cd27f","name":"Marystown","ru":"Marystown","country":"3e89aecc-4937-4f97-a65e-1bdc23429277","countryCode":"CA","state":"0d7a1b28-c848-477e-b681-6ebc318d9fd8","stateCode":"NL","latitude":"47.16663000","longitude":"-55.14829000"},{"id":"2b4e6523-de7d-47f9-9a95-6396258850ff","name":"Mount Pearl","ru":"Mount Pearl","country":"3e89aecc-4937-4f97-a65e-1bdc23429277","countryCode":"CA","state":"0d7a1b28-c848-477e-b681-6ebc318d9fd8","stateCode":"NL","latitude":"47.51659000","longitude":"-52.78135000"},{"id":"1344d196-2cb0-491f-b95a-56bcd3c1ee3e","name":"Pasadena","ru":"Pasadena","country":"3e89aecc-4937-4f97-a65e-1bdc23429277","countryCode":"CA","state":"0d7a1b28-c848-477e-b681-6ebc318d9fd8","stateCode":"NL","latitude":"49.01671000","longitude":"-57.59837000"},{"id":"1c4d94cc-0af8-4d4b-869e-43023ca5bf4d","name":"Springdale","ru":"Springdale","country":"3e89aecc-4937-4f97-a65e-1bdc23429277","countryCode":"CA","state":"0d7a1b28-c848-477e-b681-6ebc318d9fd8","stateCode":"NL","latitude":"49.49995000","longitude":"-56.06492000"},{"id":"573bb873-cbab-493a-ae29-acd184e66e54","name":"St. Anthony","ru":"St. Anthony","country":"3e89aecc-4937-4f97-a65e-1bdc23429277","countryCode":"CA","state":"0d7a1b28-c848-477e-b681-6ebc318d9fd8","stateCode":"NL","latitude":"51.37039000","longitude":"-55.59743000"},{"id":"835908af-cbc6-493e-bbde-fe2d59a48ec6","name":"St. John's","ru":"St. John's","country":"3e89aecc-4937-4f97-a65e-1bdc23429277","countryCode":"CA","state":"0d7a1b28-c848-477e-b681-6ebc318d9fd8","stateCode":"NL","latitude":"47.56494000","longitude":"-52.70931000"},{"id":"74ca0b49-7fb8-4e1d-bbbc-3a73ce101ebd","name":"Stephenville","ru":"Stephenville","country":"3e89aecc-4937-4f97-a65e-1bdc23429277","countryCode":"CA","state":"0d7a1b28-c848-477e-b681-6ebc318d9fd8","stateCode":"NL","latitude":"48.55001000","longitude":"-58.58180000"},{"id":"97bcb75f-b69e-4425-a42c-837218e3e6bc","name":"Stephenville Crossing","ru":"Stephenville Crossing","country":"3e89aecc-4937-4f97-a65e-1bdc23429277","countryCode":"CA","state":"0d7a1b28-c848-477e-b681-6ebc318d9fd8","stateCode":"NL","latitude":"48.50001000","longitude":"-58.43180000"},{"id":"7d93f51b-45ac-4427-a343-618603338d09","name":"Torbay","ru":"Torbay","country":"3e89aecc-4937-4f97-a65e-1bdc23429277","countryCode":"CA","state":"0d7a1b28-c848-477e-b681-6ebc318d9fd8","stateCode":"NL","latitude":"47.66659000","longitude":"-52.73135000"},{"id":"bb4a2675-9bc8-408b-8455-7b81baab1506","name":"Upper Island Cove","ru":"Upper Island Cove","country":"3e89aecc-4937-4f97-a65e-1bdc23429277","countryCode":"CA","state":"0d7a1b28-c848-477e-b681-6ebc318d9fd8","stateCode":"NL","latitude":"47.64989000","longitude":"-53.21478000"},{"id":"e9f7071a-1787-4819-bc4a-7b62d1ac5995","name":"Wabana","ru":"Wabana","country":"3e89aecc-4937-4f97-a65e-1bdc23429277","countryCode":"CA","state":"0d7a1b28-c848-477e-b681-6ebc318d9fd8","stateCode":"NL","latitude":"47.63319000","longitude":"-52.94806000"},{"id":"593db3f9-7c46-4aef-a44b-8b219dbd157b","name":"Behchokǫ̀","ru":"Behchokǫ̀","country":"3e89aecc-4937-4f97-a65e-1bdc23429277","countryCode":"CA","state":"59b16c3e-3759-4c67-844f-0803ba23bf7f","stateCode":"NT","latitude":"62.80250000","longitude":"-116.04639000"},{"id":"e99c6237-cd5a-4c97-a518-9a273bb575c5","name":"Fort McPherson","ru":"Fort McPherson","country":"3e89aecc-4937-4f97-a65e-1bdc23429277","countryCode":"CA","state":"59b16c3e-3759-4c67-844f-0803ba23bf7f","stateCode":"NT","latitude":"67.43863000","longitude":"-134.88543000"},{"id":"4e038d65-eb29-472a-a6b9-b058e7a66904","name":"Fort Smith","ru":"Fort Smith","country":"3e89aecc-4937-4f97-a65e-1bdc23429277","countryCode":"CA","state":"59b16c3e-3759-4c67-844f-0803ba23bf7f","stateCode":"NT","latitude":"60.00439000","longitude":"-111.88871000"},{"id":"bf29c330-1b1b-40e0-bc7f-ef55558a486d","name":"Hay River","ru":"Hay River","country":"3e89aecc-4937-4f97-a65e-1bdc23429277","countryCode":"CA","state":"59b16c3e-3759-4c67-844f-0803ba23bf7f","stateCode":"NT","latitude":"60.81555000","longitude":"-115.79993000"},{"id":"f68f5a8f-358e-4ea7-88e1-4b4d1c3507a1","name":"Inuvik","ru":"Inuvik","country":"3e89aecc-4937-4f97-a65e-1bdc23429277","countryCode":"CA","state":"59b16c3e-3759-4c67-844f-0803ba23bf7f","stateCode":"NT","latitude":"68.34986000","longitude":"-133.72181000"},