[{"id":"32b67c5e-9708-4145-8376-69afd47387c4","name":"Arijejen","ru":"Arijejen","country":"ddf5faf8-8e0b-472b-8d86-fbd836faa464","countryCode":"NR","state":"c6b03357-c3fd-4ce6-b88a-29d003e1c74e","stateCode":"01","latitude":"-0.52545000","longitude":"166.91247000"},{"id":"684ab0c4-3206-44f3-a365-5e094652c2a1","name":"Anabar","ru":"Anabar","country":"ddf5faf8-8e0b-472b-8d86-fbd836faa464","countryCode":"NR","state":"bc9c5dbf-302d-420a-b1c3-299ffd92a39e","stateCode":"02","latitude":"-0.50845000","longitude":"166.95326000"},{"id":"3411dc6a-dd9e-4114-9503-f92caf616d89","name":"Baiti","ru":"Baiti","country":"ddf5faf8-8e0b-472b-8d86-fbd836faa464","countryCode":"NR","state":"f1cfb0de-4030-4ff4-8795-f26aeea18c84","stateCode":"05","latitude":"-0.50803000","longitude":"166.92945000"},{"id":"90d80603-2be2-442c-b5de-ce47023752fb","name":"Ijuw","ru":"Ijuw","country":"ddf5faf8-8e0b-472b-8d86-fbd836faa464","countryCode":"NR","state":"51449c11-69b3-4154-8e8a-8bcefcf27d80","stateCode":"10","latitude":"-0.52100000","longitude":"166.95813000"},{"id":"91500a4e-fbef-4906-877f-cb771146533d","name":"Menen","ru":"Menen","country":"ddf5faf8-8e0b-472b-8d86-fbd836faa464","countryCode":"NR","state":"8411a222-0217-4b48-9860-ef2defc1834d","stateCode":"11","latitude":"-0.54539000","longitude":"166.94871000"},{"id":"7f688845-2309-46ad-b59e-f201b8ba51d4","name":"Uaboe","ru":"Uaboe","country":"ddf5faf8-8e0b-472b-8d86-fbd836faa464","countryCode":"NR","state":"6c0251ba-924e-410a-abc5-d29aac13cec0","stateCode":"13","latitude":"-0.51393000","longitude":"166.92384000"},{"id":"f22d4666-8fb6-4b72-9a3a-04016c7ce497","name":"Yaren","ru":"Yaren","country":"ddf5faf8-8e0b-472b-8d86-fbd836faa464","countryCode":"NR","state":"13a6d485-5260-4154-9ec0-7271163d6270","stateCode":"14","latitude":"-0.55085000","longitude":"166.92520000"}]