[{"id":"7d796db6-790b-4bb6-baad-542f7ca76588","name":"Eot Municipality","ru":"Eot Municipality","country":"ecd5be21-2489-4197-b6a6-a00f9d6a2a23","countryCode":"FM","state":"89774a8b-3b49-46da-88b2-45a9900e53c4","stateCode":"TRK","latitude":"7.38540000","longitude":"151.73920000"},{"id":"9b0a83b6-ea41-421e-8e82-eac4602a2f20","name":"Ettal Municipality","ru":"Ettal Municipality","country":"ecd5be21-2489-4197-b6a6-a00f9d6a2a23","countryCode":"FM","state":"89774a8b-3b49-46da-88b2-45a9900e53c4","stateCode":"TRK","latitude":"5.59200000","longitude":"153.56000000"},{"id":"67ce6897-df57-4d05-9163-806a26d2df03","name":"Fananu Municipality","ru":"Fananu Municipality","country":"ecd5be21-2489-4197-b6a6-a00f9d6a2a23","countryCode":"FM","state":"89774a8b-3b49-46da-88b2-45a9900e53c4","stateCode":"TRK","latitude":"8.55811000","longitude":"151.90822000"},{"id":"cf3f3c68-b54e-44bc-a4b9-e3ac7c54d877","name":"Fanapanges Municipality","ru":"Fanapanges Municipality","country":"ecd5be21-2489-4197-b6a6-a00f9d6a2a23","countryCode":"FM","state":"89774a8b-3b49-46da-88b2-45a9900e53c4","stateCode":"TRK","latitude":"7.35300000","longitude":"151.66760000"},{"id":"4bfc8988-f5b9-4961-b87f-3a6bf0128c37","name":"Fefen Municipality","ru":"Fefen Municipality","country":"ecd5be21-2489-4197-b6a6-a00f9d6a2a23","countryCode":"FM","state":"89774a8b-3b49-46da-88b2-45a9900e53c4","stateCode":"TRK","latitude":"7.35300000","longitude":"151.83100000"},{"id":"f45cfbfb-d83f-46d2-97a8-d52f4af5f2fc","name":"Fonoton Municipality","ru":"Fonoton Municipality","country":"ecd5be21-2489-4197-b6a6-a00f9d6a2a23","countryCode":"FM","state":"89774a8b-3b49-46da-88b2-45a9900e53c4","stateCode":"TRK","latitude":"7.48600000","longitude":"151.87940000"},{"id":"afa63092-23a7-4bfe-bc68-6b2d318443f1","name":"Houk Municipality","ru":"Houk Municipality","country":"ecd5be21-2489-4197-b6a6-a00f9d6a2a23","countryCode":"FM","state":"89774a8b-3b49-46da-88b2-45a9900e53c4","stateCode":"TRK","latitude":"6.68300000","longitude":"149.30000000"},{"id":"f034f126-102d-4cd8-aa4f-5eb75b313c44","name":"Kuttu Municipality","ru":"Kuttu Municipality","country":"ecd5be21-2489-4197-b6a6-a00f9d6a2a23","countryCode":"FM","state":"89774a8b-3b49-46da-88b2-45a9900e53c4","stateCode":"TRK","latitude":"5.45300000","longitude":"153.45600000"},{"id":"bb3766ba-7d8c-4418-9d72-c7e04dca454c","name":"Lekinioch Municipality","ru":"Lekinioch Municipality","country":"ecd5be21-2489-4197-b6a6-a00f9d6a2a23","countryCode":"FM","state":"89774a8b-3b49-46da-88b2-45a9900e53c4","stateCode":"TRK","latitude":"5.50700000","longitude":"153.81900000"},{"id":"993b80c6-070c-4919-99ba-88465ff8ac72","name":"Losap Municipality","ru":"Losap Municipality","country":"ecd5be21-2489-4197-b6a6-a00f9d6a2a23","countryCode":"FM","state":"89774a8b-3b49-46da-88b2-45a9900e53c4","stateCode":"TRK","latitude":"6.89400000","longitude":"152.73900000"},{"id":"4d54ace4-e25a-4d3a-b0e6-5b5e0a4d46fc","name":"Makur Municipality","ru":"Makur Municipality","country":"ecd5be21-2489-4197-b6a6-a00f9d6a2a23","countryCode":"FM","state":"89774a8b-3b49-46da-88b2-45a9900e53c4","stateCode":"TRK","latitude":"8.98500000","longitude":"150.12600000"},{"id":"52df205a-2aa2-4a51-86f7-4cc70db878b0","name":"Moch Municipality","ru":"Moch Municipality","country":"ecd5be21-2489-4197-b6a6-a00f9d6a2a23","countryCode":"FM","state":"89774a8b-3b49-46da-88b2-45a9900e53c4","stateCode":"TRK","latitude":"5.49180000","longitude":"153.53850000"},{"id":"d494ca0f-b11a-4770-86df-f517e1d86f44","name":"Murilo","ru":"Murilo","country":"ecd5be21-2489-4197-b6a6-a00f9d6a2a23","countryCode":"FM","state":"89774a8b-3b49-46da-88b2-45a9900e53c4","stateCode":"TRK","latitude":"8.69242000","longitude":"152.33934000"},{"id":"6071d4ba-bae9-4d4a-beb4-6de66ca937c5","name":"Murilo Municipality","ru":"Murilo Municipality","country":"ecd5be21-2489-4197-b6a6-a00f9d6a2a23","countryCode":"FM","state":"89774a8b-3b49-46da-88b2-45a9900e53c4","stateCode":"TRK","latitude":"8.69200000","longitude":"152.34200000"},{"id":"f8be2df0-dfd6-4300-8c3f-ee12600119c5","name":"Namoluk Municipality","ru":"Namoluk Municipality","country":"ecd5be21-2489-4197-b6a6-a00f9d6a2a23","countryCode":"FM","state":"89774a8b-3b49-46da-88b2-45a9900e53c4","stateCode":"TRK","latitude":"5.91500000","longitude":"153.13600000"},{"id":"5ac87966-9e04-45ff-b51a-93bc3f378edf","name":"Nema","ru":"Nema","country":"ecd5be21-2489-4197-b6a6-a00f9d6a2a23","countryCode":"FM","state":"89774a8b-3b49-46da-88b2-45a9900e53c4","stateCode":"TRK","latitude":"6.98922000","longitude":"152.57377000"},{"id":"14f0ba22-e20b-4cd5-90e0-7ba0d58fce89","name":"Nema Municipality","ru":"Nema Municipality","country":"ecd5be21-2489-4197-b6a6-a00f9d6a2a23","countryCode":"FM","state":"89774a8b-3b49-46da-88b2-45a9900e53c4","stateCode":"TRK","latitude":"6.99300000","longitude":"152.57400000"},{"id":"f7a83398-f19f-4271-b802-4c64176d1a6d","name":"Nomwin Municipality","ru":"Nomwin Municipality","country":"ecd5be21-2489-4197-b6a6-a00f9d6a2a23","countryCode":"FM","state":"89774a8b-3b49-46da-88b2-45a9900e53c4","stateCode":"TRK","latitude":"8.43000000","longitude":"151.74500000"},{"id":"3d9b2e58-9298-4e24-a8d7-851e9af031a2","name":"Oneop Municipality","ru":"Oneop Municipality","country":"ecd5be21-2489-4197-b6a6-a00f9d6a2a23","countryCode":"FM","state":"89774a8b-3b49-46da-88b2-45a9900e53c4","stateCode":"TRK","latitude":"5.50660000","longitude":"153.70900000"},{"id":"46bff349-deac-4894-af10-bfd4c2f7ecda","name":"Onou Municipality","ru":"Onou Municipality","country":"ecd5be21-2489-4197-b6a6-a00f9d6a2a23","countryCode":"FM","state":"89774a8b-3b49-46da-88b2-45a9900e53c4","stateCode":"TRK","latitude":"8.79900000","longitude":"150.29000000"},{"id":"9f3d7c19-8856-4e19-bbe3-a0dfcc2db6cf","name":"Onoun Municipality","ru":"Onoun Municipality","country":"ecd5be21-2489-4197-b6a6-a00f9d6a2a23","countryCode":"FM","state":"89774a8b-3b49-46da-88b2-45a9900e53c4","stateCode":"TRK","latitude":"8.57500000","longitude":"149.68550000"},{"id":"9d147264-0aed-4d2f-8477-e30da5f5d591","name":"Paata-Tupunion Municipality","ru":"Paata-Tupunion Municipality","country":"ecd5be21-2489-4197-b6a6-a00f9d6a2a23","countryCode":"FM","state":"89774a8b-3b49-46da-88b2-45a9900e53c4","stateCode":"TRK","latitude":"7.37600000","longitude":"151.58300000"},{"id":"debededf-33a0-4de6-af29-406bbd90a642","name":"Parem Municipality","ru":"Parem Municipality","country":"ecd5be21-2489-4197-b6a6-a00f9d6a2a23","countryCode":"FM","state":"89774a8b-3b49-46da-88b2-45a9900e53c4","stateCode":"TRK","latitude":"7.36200000","longitude":"151.78900000"},{"id":"c6836a6d-d369-49ec-8a83-aaf14fd0191f","name":"Piherarh Municipality","ru":"Piherarh Municipality","country":"ecd5be21-2489-4197-b6a6-a00f9d6a2a23","countryCode":"FM","state":"89774a8b-3b49-46da-88b2-45a9900e53c4","stateCode":"TRK","latitude":"8.56900000","longitude":"150.41800000"},{"id":"cf544c6d-1986-4aea-8fc8-a21b8d1ba815","name":"Piis-Emwar Municipality","ru":"Piis-Emwar Municipality","country":"ecd5be21-2489-4197-b6a6-a00f9d6a2a23","countryCode":"FM","state":"89774a8b-3b49-46da-88b2-45a9900e53c4","stateCode":"TRK","latitude":"6.83400000","longitude":"152.70000000"},{"id":"a08ec6c6-39ef-484f-8b9b-d4f3c04da864","name":"Piis-Panewu Municipality","ru":"Piis-Panewu Municipality","country":"ecd5be21-2489-4197-b6a6-a00f9d6a2a23","countryCode":"FM","state":"89774a8b-3b49-46da-88b2-45a9900e53c4","stateCode":"TRK","latitude":"7.67800000","longitude":"151.76340000"},{"id":"c1dfc2b3-c641-49bb-966e-d81bbcdd1b2f","name":"Pollap Municipality","ru":"Pollap Municipality","country":"ecd5be21-2489-4197-b6a6-a00f9d6a2a23","countryCode":"FM","state":"89774a8b-3b49-46da-88b2-45a9900e53c4","stateCode":"TRK","latitude":"7.63971000","longitude":"149.43011000"},{"id":"7a2692d4-6e7f-492e-aea7-c63f54d7d005","name":"Polowat Municipality","ru":"Polowat Municipality","country":"ecd5be21-2489-4197-b6a6-a00f9d6a2a23","countryCode":"FM","state":"89774a8b-3b49-46da-88b2-45a9900e53c4","stateCode":"TRK","latitude":"7.35500000","longitude":"149.18200000"},{"id":"c4cc6792-f2ac-4774-94ef-696e69072d6a","name":"Pwene Municipality","ru":"Pwene Municipality","country":"ecd5be21-2489-4197-b6a6-a00f9d6a2a23","countryCode":"FM","state":"89774a8b-3b49-46da-88b2-45a9900e53c4","stateCode":"TRK","latitude":"7.33700000","longitude":"151.58400000"},{"id":"b2ab9f97-b55d-44dc-b211-6dde1ddbf80f","name":"Ramanum Municipality","ru":"Ramanum Municipality","country":"ecd5be21-2489-4197-b6a6-a00f9d6a2a23","countryCode":"FM","state":"89774a8b-3b49-46da-88b2-45a9900e53c4","stateCode":"TRK","latitude":"7.41350000","longitude":"151.66460000"},{"id":"2b43c1b9-d474-4be5-bff7-4b48cbc662fd","name":"Ruo Municipality","ru":"Ruo Municipality","country":"ecd5be21-2489-4197-b6a6-a00f9d6a2a23","countryCode":"FM","state":"89774a8b-3b49-46da-88b2-45a9900e53c4","stateCode":"TRK","latitude":"8.60900000","longitude":"152.24400000"},{"id":"c41d1e41-ac9e-4433-a8cb-ac870d8158c6","name":"Satowan Municipality","ru":"Satowan Municipality","country":"ecd5be21-2489-4197-b6a6-a00f9d6a2a23","countryCode":"FM","state":"89774a8b-3b49-46da-88b2-45a9900e53c4","stateCode":"TRK","latitude":"5.33400000","longitude":"153.73650000"},{"id":"f0e63521-c929-46d2-82e4-db3501d439dc","name":"Siis Municipality","ru":"Siis Municipality","country":"ecd5be21-2489-4197-b6a6-a00f9d6a2a23","countryCode":"FM","state":"89774a8b-3b49-46da-88b2-45a9900e53c4","stateCode":"TRK","latitude":"7.29500000","longitude":"151.82460000"},{"id":"a376985f-0445-4ff7-8d34-92584dca3e99","name":"Ta Municipality","ru":"Ta Municipality","country":"ecd5be21-2489-4197-b6a6-a00f9d6a2a23","countryCode":"FM","state":"89774a8b-3b49-46da-88b2-45a9900e53c4","stateCode":"TRK","latitude":"5.28420000","longitude":"153.64650000"},{"id":"bb392dad-799c-47a6-8c0b-96a6a64771b2","name":"Tamatam Municipality","ru":"Tamatam Municipality","country":"ecd5be21-2489-4197-b6a6-a00f9d6a2a23","countryCode":"FM","state":"89774a8b-3b49-46da-88b2-45a9900e53c4","stateCode":"TRK","latitude":"7.53898000","longitude":"149.41175000"},{"id":"de2872c6-c0d0-40e6-8662-5abc3de53b5c","name":"Tolensom Municipality","ru":"Tolensom Municipality","country":"ecd5be21-2489-4197-b6a6-a00f9d6a2a23","countryCode":"FM","state":"89774a8b-3b49-46da-88b2-45a9900e53c4","stateCode":"TRK","latitude":"7.33300000","longitude":"151.62300000"},{"id":"a96291e1-d684-4963-ad98-0a59fb9e86a8","name":"Tonoas Municipality","ru":"Tonoas Municipality","country":"ecd5be21-2489-4197-b6a6-a00f9d6a2a23","countryCode":"FM","state":"89774a8b-3b49-46da-88b2-45a9900e53c4","stateCode":"TRK","latitude":"7.38100000","longitude":"151.89000000"},{"id":"e705e52f-8c55-4b83-a89d-19a2d720b91c","name":"Udot-Fonuweisom Municipality","ru":"Udot-Fonuweisom Municipality","country":"ecd5be21-2489-4197-b6a6-a00f9d6a2a23","countryCode":"FM","state":"89774a8b-3b49-46da-88b2-45a9900e53c4","stateCode":"TRK","latitude":"7.38900000","longitude":"151.70800000"},{"id":"462ad00b-fe5e-47ed-be83-b998bd9f16ae","name":"Uman-Fonuweisom Municipality","ru":"Uman-Fonuweisom Municipality","country":"ecd5be21-2489-4197-b6a6-a00f9d6a2a23","countryCode":"FM","state":"89774a8b-3b49-46da-88b2-45a9900e53c4","stateCode":"TRK","latitude":"7.29900000","longitude":"151.87700000"},{"id":"263f54d2-baa6-4c5d-8fae-d1bde96d631a","name":"Unanu Municipality","ru":"Unanu Municipality","country":"ecd5be21-2489-4197-b6a6-a00f9d6a2a23","countryCode":"FM","state":"89774a8b-3b49-46da-88b2-45a9900e53c4","stateCode":"TRK","latitude":"8.75000000","longitude":"150.33950000"},{"id":"5b1ee323-1af8-42ff-bd14-b72e2841a9e4","name":"Weno","ru":"Weno","country":"ecd5be21-2489-4197-b6a6-a00f9d6a2a23","countryCode":"FM","state":"89774a8b-3b49-46da-88b2-45a9900e53c4","stateCode":"TRK","latitude":"7.44648000","longitude":"151.84135000"},{"id":"b22ba394-c6b6-474e-bff2-d5319c98a05e","name":"Weno Municipality","ru":"Weno Municipality","country":"ecd5be21-2489-4197-b6a6-a00f9d6a2a23","countryCode":"FM","state":"89774a8b-3b49-46da-88b2-45a9900e53c4","stateCode":"TRK","latitude":"7.44000000","longitude":"151.88100000"},{"id":"45f5ef24-6753-4927-a9c7-35fbf23451cb","name":"Wonei Municipality","ru":"Wonei Municipality","country":"ecd5be21-2489-4197-b6a6-a00f9d6a2a23","countryCode":"FM","state":"89774a8b-3b49-46da-88b2-45a9900e53c4","stateCode":"TRK","latitude":"7.38700000","longitude":"151.60100000"},{"id":"a3d2280a-805b-4226-92cb-acb25719bd01","name":"Lelu Municipality","ru":"Lelu Municipality","country":"ecd5be21-2489-4197-b6a6-a00f9d6a2a23","countryCode":"FM","state":"122dffd7-3861-4b6f-8abe-95e5c42b0758","stateCode":"KSA","latitude":"5.34865000","longitude":"163.01917000"},{"id":"fc1a4980-a310-496f-9af1-a048b1f80b6a","name":"Malem Municipality","ru":"Malem Municipality","country":"ecd5be21-2489-4197-b6a6-a00f9d6a2a23","countryCode":"FM","state":"122dffd7-3861-4b6f-8abe-95e5c42b0758","stateCode":"KSA","latitude":"5.27507000","longitude":"163.01685000"},{"id":"54153733-371e-446f-ba42-ebb20c237395","name":"Tafunsak Municipality","ru":"Tafunsak Municipality","country":"ecd5be21-2489-4197-b6a6-a00f9d6a2a23","countryCode":"FM","state":"122dffd7-3861-4b6f-8abe-95e5c42b0758","stateCode":"KSA","latitude":"5.34993000","longitude":"162.96965000"},{"id":"f6d5fb64-291f-4927-bc2a-de3b6050cbc7","name":"Tofol","ru":"Tofol","country":"ecd5be21-2489-4197-b6a6-a00f9d6a2a23","countryCode":"FM","state":"122dffd7-3861-4b6f-8abe-95e5c42b0758","stateCode":"KSA","latitude":"5.32479000","longitude":"163.00781000"},{"id":"52ba6691-f859-4d33-98fe-311cbe247ba1","name":"Utwe Municipality","ru":"Utwe Municipality","country":"ecd5be21-2489-4197-b6a6-a00f9d6a2a23","countryCode":"FM","state":"122dffd7-3861-4b6f-8abe-95e5c42b0758","stateCode":"KSA","latitude":"5.27511000","longitude":"162.95617000"},{"id":"a6ae1f22-4fb6-4bdd-a759-478fe17320c4","name":"Kitti Municipality","ru":"Kitti Municipality","country":"ecd5be21-2489-4197-b6a6-a00f9d6a2a23","countryCode":"FM","state":"6508fb00-88db-456a-be9c-f2bcc8dc6c3b","stateCode":"PNI","latitude":"6.82490000","longitude":"158.16081000"},{"id":"4c479cec-8f9d-4305-954d-8bfa9fe955c3","name":"Kolonia","ru":"Kolonia","country":"ecd5be21-2489-4197-b6a6-a00f9d6a2a23","countryCode":"FM","state":"6508fb00-88db-456a-be9c-f2bcc8dc6c3b","stateCode":"PNI","latitude":"6.96400000","longitude":"158.20620000"},{"id":"01d0ea53-44d5-4d27-8c7b-d16974c8a496","name":"Kolonia Municipality","ru":"Kolonia Municipality","country":"ecd5be21-2489-4197-b6a6-a00f9d6a2a23","countryCode":"FM","state":"6508fb00-88db-456a-be9c-f2bcc8dc6c3b","stateCode":"PNI","latitude":"6.96400000","longitude":"158.20580000"},{"id":"e5dd86c1-7648-4f5d-a8b1-bf007a9d435f","name":"Kolonia Town","ru":"Kolonia Town","country":"ecd5be21-2489-4197-b6a6-a00f9d6a2a23","countryCode":"FM","state":"6508fb00-88db-456a-be9c-f2bcc8dc6c3b","stateCode":"PNI","latitude":"6.96400000","longitude":"158.20600000"},{"id":"ef9cc823-7c25-43ce-9d8a-845f7c81c14d","name":"Madolenihm Municipality","ru":"Madolenihm Municipality","country":"ecd5be21-2489-4197-b6a6-a00f9d6a2a23","countryCode":"FM","state":"6508fb00-88db-456a-be9c-f2bcc8dc6c3b","stateCode":"PNI","latitude":"6.86759000","longitude":"158.31277000"},{"id":"d763b24c-869a-42bd-a8b9-ddacf580ef7c","name":"Mokil Municipality","ru":"Mokil Municipality","country":"ecd5be21-2489-4197-b6a6-a00f9d6a2a23","countryCode":"FM","state":"6508fb00-88db-456a-be9c-f2bcc8dc6c3b","stateCode":"PNI","latitude":"6.68916000","longitude":"159.76610000"},{"id":"2ffea172-1391-45d4-b300-191da12ac404","name":"Nett Municipality","ru":"Nett Municipality","country":"ecd5be21-2489-4197-b6a6-a00f9d6a2a23","countryCode":"FM","state":"6508fb00-88db-456a-be9c-f2bcc8dc6c3b","stateCode":"PNI","latitude":"6.95152000","longitude":"158.22437000"},{"id":"90c27264-9a82-46bb-a9ea-e0e1df0600b8","name":"Ngatik","ru":"Ngatik","country":"ecd5be21-2489-4197-b6a6-a00f9d6a2a23","countryCode":"FM","state":"6508fb00-88db-456a-be9c-f2bcc8dc6c3b","stateCode":"PNI","latitude":"5.78849000","longitude":"157.15954000"},{"id":"a500749a-f298-4b00-93e2-d90bc11e6b5a","name":"Nukuoro Municipality","ru":"Nukuoro Municipality","country":"ecd5be21-2489-4197-b6a6-a00f9d6a2a23","countryCode":"FM","state":"6508fb00-88db-456a-be9c-f2bcc8dc6c3b","stateCode":"PNI","latitude":"3.84100000","longitude":"154.93000000"},{"id":"25bdf90a-f577-474c-a93d-89c633aef38d","name":"Palikir - National Government Center","ru":"Palikir - National Government Center","country":"ecd5be21-2489-4197-b6a6-a00f9d6a2a23","countryCode":"FM","state":"6508fb00-88db-456a-be9c-f2bcc8dc6c3b","stateCode":"PNI","latitude":"6.92477000","longitude":"158.16109000"},{"id":"e57f66ed-547b-4e6a-b834-af8e4b9653c0","name":"Pingelap Municipality","ru":"Pingelap Municipality","country":"ecd5be21-2489-4197-b6a6-a00f9d6a2a23","countryCode":"FM","state":"6508fb00-88db-456a-be9c-f2bcc8dc6c3b","stateCode":"PNI","latitude":"6.20908000","longitude":"160.71033000"},{"id":"8da16a29-a974-4f09-ae85-f6b40eab1ce0","name":"Sapwuahfik Municipality","ru":"Sapwuahfik Municipality","country":"ecd5be21-2489-4197-b6a6-a00f9d6a2a23","countryCode":"FM","state":"6508fb00-88db-456a-be9c-f2bcc8dc6c3b","stateCode":"PNI","latitude":"5.81500000","longitude":"157.28000000"},{"id":"7bdfa685-8e2b-44b3-89b3-b76a941a2b70","name":"Sokehs Municipality","ru":"Sokehs Municipality","country":"ecd5be21-2489-4197-b6a6-a00f9d6a2a23","countryCode":"FM","state":"6508fb00-88db-456a-be9c-f2bcc8dc6c3b","stateCode":"PNI","latitude":"6.93273000","longitude":"158.14270000"},{"id":"101630cb-48a2-47c2-a170-179485d86e69","name":"U Municipality","ru":"U Municipality","country":"ecd5be21-2489-4197-b6a6-a00f9d6a2a23","countryCode":"FM","state":"6508fb00-88db-456a-be9c-f2bcc8dc6c3b","stateCode":"PNI","latitude":"6.94972000","longitude":"158.27361000"},{"id":"a369b309-d995-4235-a059-35a8acddf375","name":"Colonia","ru":"Colonia","country":"ecd5be21-2489-4197-b6a6-a00f9d6a2a23","countryCode":"FM","state":"a6dfbe05-88d3-44ff-82bf-815a17040bdf","stateCode":"YAP","latitude":"9.51638000","longitude":"138.12167000"},{"id":"9ac02ce0-75d6-4dde-82c0-328fd0c1312b","name":"Dalipebinaw Municipality","ru":"Dalipebinaw Municipality","country":"ecd5be21-2489-4197-b6a6-a00f9d6a2a23","countryCode":"FM","state":"a6dfbe05-88d3-44ff-82bf-815a17040bdf","stateCode":"YAP","latitude":"9.52229000","longitude":"138.08540000"},{"id":"04a7b548-75f6-4f03-b52d-e08870fa1cd0","name":"Fais","ru":"Fais","country":"ecd5be21-2489-4197-b6a6-a00f9d6a2a23","countryCode":"FM","state":"a6dfbe05-88d3-44ff-82bf-815a17040bdf","stateCode":"YAP","latitude":"9.76600000","longitude":"140.52000000"},{"id":"51cf1d5f-0a8c-4800-9ce6-4704f737b25c","name":"Fais Municipality","ru":"Fais Municipality","country":"ecd5be21-2489-4197-b6a6-a00f9d6a2a23","countryCode":"FM","state":"a6dfbe05-88d3-44ff-82bf-815a17040bdf","stateCode":"YAP","latitude":"9.76600000","longitude":"140.51900000"},{"id":"aa1257e4-4b02-48b5-b57b-c13dd82e020e","name":"Fanif Municipality","ru":"Fanif Municipality","country":"ecd5be21-2489-4197-b6a6-a00f9d6a2a23","countryCode":"FM","state":"a6dfbe05-88d3-44ff-82bf-815a17040bdf","stateCode":"YAP","latitude":"9.56056000","longitude":"138.11333000"},{"id":"80dd33b3-ea66-4c74-81df-3ff4846753d7","name":"Faraulep Municipality","ru":"Faraulep Municipality","country":"ecd5be21-2489-4197-b6a6-a00f9d6a2a23","countryCode":"FM","state":"a6dfbe05-88d3-44ff-82bf-815a17040bdf","stateCode":"YAP","latitude":"8.58800000","longitude":"144.50650000"},{"id":"eafc4854-b01f-4905-8aff-09ebdac61fbe","name":"Gagil Municipality","ru":"Gagil Municipality","country":"ecd5be21-2489-4197-b6a6-a00f9d6a2a23","countryCode":"FM","state":"a6dfbe05-88d3-44ff-82bf-815a17040bdf","stateCode":"YAP","latitude":"9.54722000","longitude":"138.19028000"},{"id":"dbfa2f32-9a18-41bf-8d37-8f58b13bcfe7","name":"Gilman Municipality","ru":"Gilman Municipality","country":"ecd5be21-2489-4197-b6a6-a00f9d6a2a23","countryCode":"FM","state":"a6dfbe05-88d3-44ff-82bf-815a17040bdf","stateCode":"YAP","latitude":"9.44611000","longitude":"138.06389000"},{"id":"7b6180cc-dcfc-42f9-ae31-dff98a28b97b","name":"Kanifay Municipality","ru":"Kanifay Municipality","country":"ecd5be21-2489-4197-b6a6-a00f9d6a2a23","countryCode":"FM","state":"a6dfbe05-88d3-44ff-82bf-815a17040bdf","stateCode":"YAP","latitude":"9.46735000","longitude":"138.05935000"},{"id":"da40751b-0748-4eb2-9ee8-fab82f6e5047","name":"Lamotrek Municipality","ru":"Lamotrek Municipality","country":"ecd5be21-2489-4197-b6a6-a00f9d6a2a23","countryCode":"FM","state":"a6dfbe05-88d3-44ff-82bf-815a17040bdf","stateCode":"YAP","latitude":"7.49100000","longitude":"146.30300000"},{"id":"ec4c5118-34e7-4a25-aa55-397ca718b9b5","name":"Maap Municipality","ru":"Maap Municipality","country":"ecd5be21-2489-4197-b6a6-a00f9d6a2a23","countryCode":"FM","state":"a6dfbe05-88d3-44ff-82bf-815a17040bdf","stateCode":"YAP","latitude":"9.58975000","longitude":"138.17119000"},{"id":"0c33d357-9354-41f0-b87e-a351199a958a","name":"Ngulu Municipality","ru":"Ngulu Municipality","country":"ecd5be21-2489-4197-b6a6-a00f9d6a2a23","countryCode":"FM","state":"a6dfbe05-88d3-44ff-82bf-815a17040bdf","stateCode":"YAP","latitude":"8.45000000","longitude":"137.48100000"},{"id":"bcf15843-fe57-44ab-a807-83c893afdd40","name":"Rull Municipality","ru":"Rull Municipality","country":"ecd5be21-2489-4197-b6a6-a00f9d6a2a23","countryCode":"FM","state":"a6dfbe05-88d3-44ff-82bf-815a17040bdf","stateCode":"YAP","latitude":"9.50773000","longitude":"138.11540000"},{"id":"c78b702e-d1ae-48f5-8760-e91415e09e41","name":"Rumung Municipality","ru":"Rumung Municipality","country":"ecd5be21-2489-4197-b6a6-a00f9d6a2a23","countryCode":"FM","state":"a6dfbe05-88d3-44ff-82bf-815a17040bdf","stateCode":"YAP","latitude":"9.62428000","longitude":"138.15745000"},{"id":"2759f3e6-608b-4f7a-a65c-52e08410ddb1","name":"Satawal Municipality","ru":"Satawal Municipality","country":"ecd5be21-2489-4197-b6a6-a00f9d6a2a23","countryCode":"FM","state":"a6dfbe05-88d3-44ff-82bf-815a17040bdf","stateCode":"YAP","latitude":"7.38200000","longitude":"147.03180000"},{"id":"349136fa-3fcc-498f-b16e-1757d68a3f67","name":"Tomil Municipality","ru":"Tomil Municipality","country":"ecd5be21-2489-4197-b6a6-a00f9d6a2a23","countryCode":"FM","state":"a6dfbe05-88d3-44ff-82bf-815a17040bdf","stateCode":"YAP","latitude":"9.52517000","longitude":"138.15488000"},{"id":"a9a8c54b-2c71-4943-a6fa-dc9186c1b831","name":"Ulithi Municipality","ru":"Ulithi Municipality","country":"ecd5be21-2489-4197-b6a6-a00f9d6a2a23","countryCode":"FM","state":"a6dfbe05-88d3-44ff-82bf-815a17040bdf","stateCode":"YAP","latitude":"9.90000000","longitude":"139.60000000"},{"id":"47d06eeb-3b08-429a-ac1c-40f0695ff8ca","name":"Weloy Municipality","ru":"Weloy Municipality","country":"ecd5be21-2489-4197-b6a6-a00f9d6a2a23","countryCode":"FM","state":"a6dfbe05-88d3-44ff-82bf-815a17040bdf","stateCode":"YAP","latitude":"9.52712000","longitude":"138.11909000"},{"id":"5e1789eb-0698-46a8-892b-5bac1c1905e9","name":"Woleai Municipality","ru":"Woleai Municipality","country":"ecd5be21-2489-4197-b6a6-a00f9d6a2a23","countryCode":"FM","state":"a6dfbe05-88d3-44ff-82bf-815a17040bdf","stateCode":"YAP","latitude":"7.34500000","longitude":"143.85700000"}]