[{"id":"b77774ce-66ed-46e3-813b-c6a2c1ede34d","name":"San Antonio de Palé","ru":"San Antonio de Palé","country":"b973d016-a41f-4e0c-ac5c-1ea61bbb145c","countryCode":"GQ","state":"12076261-d6b1-47e2-b604-7b830195eca9","stateCode":"AN","latitude":"-1.40680000","longitude":"5.63178000"},{"id":"61e8d83c-d14d-4791-a307-ee76592fb301","name":"Malabo","ru":"Malabo","country":"b973d016-a41f-4e0c-ac5c-1ea61bbb145c","countryCode":"GQ","state":"46718001-ff97-450d-a7b7-90f1ca9668c3","stateCode":"BN","latitude":"3.75578000","longitude":"8.78166000"},{"id":"a6246040-7c8f-40d3-9dc5-126b84394085","name":"Rebola","ru":"Rebola","country":"b973d016-a41f-4e0c-ac5c-1ea61bbb145c","countryCode":"GQ","state":"46718001-ff97-450d-a7b7-90f1ca9668c3","stateCode":"BN","latitude":"3.71667000","longitude":"8.83333000"},{"id":"45c0575e-426e-4f40-b04a-afa11d7cdf5a","name":"Santiago de Baney","ru":"Santiago de Baney","country":"b973d016-a41f-4e0c-ac5c-1ea61bbb145c","countryCode":"GQ","state":"46718001-ff97-450d-a7b7-90f1ca9668c3","stateCode":"BN","latitude":"3.69920000","longitude":"8.90840000"},{"id":"58cf0e6a-f40b-4aad-aa5f-f3f732a5ea40","name":"Luba","ru":"Luba","country":"b973d016-a41f-4e0c-ac5c-1ea61bbb145c","countryCode":"GQ","state":"951c4404-8898-4dae-b922-fcfc3bb431ae","stateCode":"BS","latitude":"3.45683000","longitude":"8.55465000"},{"id":"4dcc3e08-0c08-4625-a545-bf0c378cd38e","name":"Acurenam","ru":"Acurenam","country":"b973d016-a41f-4e0c-ac5c-1ea61bbb145c","countryCode":"GQ","state":"2a46a15f-9fc1-45d0-ade2-5c2037dbe552","stateCode":"CS","latitude":"1.03225000","longitude":"10.64882000"},{"id":"3ec5d4ac-ce1e-4d02-ae1e-dd910e426841","name":"Bicurga","ru":"Bicurga","country":"b973d016-a41f-4e0c-ac5c-1ea61bbb145c","countryCode":"GQ","state":"2a46a15f-9fc1-45d0-ade2-5c2037dbe552","stateCode":"CS","latitude":"1.58113000","longitude":"10.46716000"},{"id":"9381df7a-38df-4489-ac8e-ae7319dcc44d","name":"Evinayong","ru":"Evinayong","country":"b973d016-a41f-4e0c-ac5c-1ea61bbb145c","countryCode":"GQ","state":"2a46a15f-9fc1-45d0-ade2-5c2037dbe552","stateCode":"CS","latitude":"1.43677000","longitude":"10.55124000"},{"id":"7e7a226e-ea34-48ea-ab44-d156c17a9294","name":"Ebebiyin","ru":"Ebebiyin","country":"b973d016-a41f-4e0c-ac5c-1ea61bbb145c","countryCode":"GQ","state":"80f06283-2c97-4356-a1f2-6fe2766c16d5","stateCode":"KN","latitude":"2.15106000","longitude":"11.33528000"},{"id":"e273ca66-8243-41dc-b8a3-0d1ccaf24289","name":"Mikomeseng","ru":"Mikomeseng","country":"b973d016-a41f-4e0c-ac5c-1ea61bbb145c","countryCode":"GQ","state":"80f06283-2c97-4356-a1f2-6fe2766c16d5","stateCode":"KN","latitude":"2.13609000","longitude":"10.61322000"},{"id":"8e14f595-5acf-4076-b090-279012ef672f","name":"Ncue","ru":"Ncue","country":"b973d016-a41f-4e0c-ac5c-1ea61bbb145c","countryCode":"GQ","state":"80f06283-2c97-4356-a1f2-6fe2766c16d5","stateCode":"KN","latitude":"2.01643000","longitude":"10.47066000"},{"id":"6d1c4680-c5ca-49de-9148-41a935d87ade","name":"Nsang","ru":"Nsang","country":"b973d016-a41f-4e0c-ac5c-1ea61bbb145c","countryCode":"GQ","state":"80f06283-2c97-4356-a1f2-6fe2766c16d5","stateCode":"KN","latitude":"2.02475000","longitude":"10.94599000"},{"id":"665049d6-bb98-4aa8-a161-b42cda7a0f5f","name":"Bata","ru":"Bata","country":"b973d016-a41f-4e0c-ac5c-1ea61bbb145c","countryCode":"GQ","state":"1de60997-5cd7-4957-840d-f24fd2a1594a","stateCode":"LI","latitude":"1.86391000","longitude":"9.76582000"},{"id":"969a968d-5eef-46d9-bc98-4428a59a290d","name":"Bitica","ru":"Bitica","country":"b973d016-a41f-4e0c-ac5c-1ea61bbb145c","countryCode":"GQ","state":"1de60997-5cd7-4957-840d-f24fd2a1594a","stateCode":"LI","latitude":"1.42610000","longitude":"9.62316000"},{"id":"51070d8f-80ee-4c87-8068-2192cfdfb307","name":"Cogo","ru":"Cogo","country":"b973d016-a41f-4e0c-ac5c-1ea61bbb145c","countryCode":"GQ","state":"1de60997-5cd7-4957-840d-f24fd2a1594a","stateCode":"LI","latitude":"1.08425000","longitude":"9.69300000"},{"id":"a45156f4-118e-444f-b9a6-5936c9e47a81","name":"Machinda","ru":"Machinda","country":"b973d016-a41f-4e0c-ac5c-1ea61bbb145c","countryCode":"GQ","state":"1de60997-5cd7-4957-840d-f24fd2a1594a","stateCode":"LI","latitude":"1.88262000","longitude":"9.95133000"},{"id":"036a9f10-6451-405f-a445-33a6efe08b58","name":"Mbini","ru":"Mbini","country":"b973d016-a41f-4e0c-ac5c-1ea61bbb145c","countryCode":"GQ","state":"1de60997-5cd7-4957-840d-f24fd2a1594a","stateCode":"LI","latitude":"1.58267000","longitude":"9.61478000"},{"id":"3672b60a-4e58-4219-8898-41a724b1ad8b","name":"Río Campo","ru":"Río Campo","country":"b973d016-a41f-4e0c-ac5c-1ea61bbb145c","countryCode":"GQ","state":"1de60997-5cd7-4957-840d-f24fd2a1594a","stateCode":"LI","latitude":"2.33812000","longitude":"9.82212000"},{"id":"4c577a97-ee54-4931-a58b-3cb774d2af25","name":"Añisoc","ru":"Añisoc","country":"b973d016-a41f-4e0c-ac5c-1ea61bbb145c","countryCode":"GQ","state":"6c6853ce-6b85-4887-8c3b-0e8e1e11d861","stateCode":"WN","latitude":"1.86580000","longitude":"10.76892000"},{"id":"4d3c17e6-f20b-4017-8e86-4c399745eb10","name":"Aconibe","ru":"Aconibe","country":"b973d016-a41f-4e0c-ac5c-1ea61bbb145c","countryCode":"GQ","state":"6c6853ce-6b85-4887-8c3b-0e8e1e11d861","stateCode":"WN","latitude":"1.29683000","longitude":"10.93691000"},{"id":"9d7cad5f-5df4-433f-812d-132c3a5acaed","name":"Ayene","ru":"Ayene","country":"b973d016-a41f-4e0c-ac5c-1ea61bbb145c","countryCode":"GQ","state":"6c6853ce-6b85-4887-8c3b-0e8e1e11d861","stateCode":"WN","latitude":"1.85592000","longitude":"10.68994000"},{"id":"87746f3c-8cb4-4f26-937c-3f919178e92c","name":"Mengomeyén","ru":"Mengomeyén","country":"b973d016-a41f-4e0c-ac5c-1ea61bbb145c","countryCode":"GQ","state":"6c6853ce-6b85-4887-8c3b-0e8e1e11d861","stateCode":"WN","latitude":"1.69439000","longitude":"11.03422000"},{"id":"802cef91-e427-4dc2-84fa-b7b0d1e17be3","name":"Mongomo","ru":"Mongomo","country":"b973d016-a41f-4e0c-ac5c-1ea61bbb145c","countryCode":"GQ","state":"6c6853ce-6b85-4887-8c3b-0e8e1e11d861","stateCode":"WN","latitude":"1.62742000","longitude":"11.31346000"},{"id":"0801f732-bd6e-43bb-a52a-fd32562e790d","name":"Nsok","ru":"Nsok","country":"b973d016-a41f-4e0c-ac5c-1ea61bbb145c","countryCode":"GQ","state":"6c6853ce-6b85-4887-8c3b-0e8e1e11d861","stateCode":"WN","latitude":"1.12985000","longitude":"11.26603000"}]