[{"id":"eead47b1-3a03-4e01-9bd7-ddb230cfa5e0","name":"Al Fallūjah","ru":"Al Fallūjah","country":"4880ec80-0438-42be-bbaa-35e398c5b1c8","countryCode":"IQ","state":"64fb8438-4068-4a48-9bde-4befd2580da3","stateCode":"AN","latitude":"33.34913000","longitude":"43.78599000"},{"id":"6b6c79b4-32f5-44f4-b53a-1ac42f9b51ed","name":"Ar Ruţbah","ru":"Ar Ruţbah","country":"4880ec80-0438-42be-bbaa-35e398c5b1c8","countryCode":"IQ","state":"64fb8438-4068-4a48-9bde-4befd2580da3","stateCode":"AN","latitude":"33.03718000","longitude":"40.28586000"},{"id":"999da79a-b4ce-406b-8b60-2973e7d07609","name":"Ḩadīthah","ru":"Ḩadīthah","country":"4880ec80-0438-42be-bbaa-35e398c5b1c8","countryCode":"IQ","state":"64fb8438-4068-4a48-9bde-4befd2580da3","stateCode":"AN","latitude":"34.13661000","longitude":"42.37727000"},{"id":"5f2b0ba4-c677-4e73-9600-5d58e0284dc2","name":"‘Anah","ru":"‘Anah","country":"4880ec80-0438-42be-bbaa-35e398c5b1c8","countryCode":"IQ","state":"64fb8438-4068-4a48-9bde-4befd2580da3","stateCode":"AN","latitude":"34.36857000","longitude":"41.98194000"},{"id":"81a431a9-ecc1-4a8d-9c81-fa4918b9d3d1","name":"‘Anat al Qadīmah","ru":"‘Anat al Qadīmah","country":"4880ec80-0438-42be-bbaa-35e398c5b1c8","countryCode":"IQ","state":"64fb8438-4068-4a48-9bde-4befd2580da3","stateCode":"AN","latitude":"34.46934000","longitude":"41.94223000"},{"id":"75e017fe-5553-42ef-8e90-d342bd6cc9ae","name":"Hīt","ru":"Hīt","country":"4880ec80-0438-42be-bbaa-35e398c5b1c8","countryCode":"IQ","state":"64fb8438-4068-4a48-9bde-4befd2580da3","stateCode":"AN","latitude":"33.63664000","longitude":"42.82768000"},{"id":"97532260-e48b-4e1a-abcb-81182c2b38b7","name":"Hīt District","ru":"Hīt District","country":"4880ec80-0438-42be-bbaa-35e398c5b1c8","countryCode":"IQ","state":"64fb8438-4068-4a48-9bde-4befd2580da3","stateCode":"AN","latitude":"33.73482000","longitude":"42.68228000"},{"id":"df9c6c85-c158-42f9-98e1-b88231fd7a4e","name":"Ramadi","ru":"Ramadi","country":"4880ec80-0438-42be-bbaa-35e398c5b1c8","countryCode":"IQ","state":"64fb8438-4068-4a48-9bde-4befd2580da3","stateCode":"AN","latitude":"33.42056000","longitude":"43.30778000"},{"id":"0011cca9-57a1-464e-b2db-34bb088a42de","name":"Rāwah","ru":"Rāwah","country":"4880ec80-0438-42be-bbaa-35e398c5b1c8","countryCode":"IQ","state":"64fb8438-4068-4a48-9bde-4befd2580da3","stateCode":"AN","latitude":"34.48229000","longitude":"41.91898000"},{"id":"98f102f7-55fe-44eb-8263-3935c916b80b","name":"Ar Rumaythah","ru":"Ar Rumaythah","country":"4880ec80-0438-42be-bbaa-35e398c5b1c8","countryCode":"IQ","state":"46488d48-71c6-414c-9c72-762f0fe181d8","stateCode":"MU","latitude":"31.52845000","longitude":"45.20377000"},{"id":"48edc660-ec4a-4206-aaaa-0e4f37ec30ba","name":"As Samawah","ru":"As Samawah","country":"4880ec80-0438-42be-bbaa-35e398c5b1c8","countryCode":"IQ","state":"46488d48-71c6-414c-9c72-762f0fe181d8","stateCode":"MU","latitude":"31.33198000","longitude":"45.29440000"},{"id":"781ebfd7-0b80-48f9-890e-59085ad30c32","name":"Ad Dīwānīyah","ru":"Ad Dīwānīyah","country":"4880ec80-0438-42be-bbaa-35e398c5b1c8","countryCode":"IQ","state":"2e53967c-2f4b-45fe-ae28-873e59612e3f","stateCode":"QA","latitude":"31.99289000","longitude":"44.92552000"},{"id":"a8005e40-dfef-49c7-addf-14ead69f7f04","name":"Ash Shāmīyah","ru":"Ash Shāmīyah","country":"4880ec80-0438-42be-bbaa-35e398c5b1c8","countryCode":"IQ","state":"2e53967c-2f4b-45fe-ae28-873e59612e3f","stateCode":"QA","latitude":"31.96257000","longitude":"44.60075000"},{"id":"fe2178df-ff3c-41f6-bc30-d953f435cbc4","name":"‘Afak","ru":"‘Afak","country":"4880ec80-0438-42be-bbaa-35e398c5b1c8","countryCode":"IQ","state":"2e53967c-2f4b-45fe-ae28-873e59612e3f","stateCode":"QA","latitude":"32.06430000","longitude":"45.24743000"},{"id":"3e212444-a5fa-4543-98b8-726f3ba6ac04","name":"Nahiyat Ghammas","ru":"Nahiyat Ghammas","country":"4880ec80-0438-42be-bbaa-35e398c5b1c8","countryCode":"IQ","state":"2e53967c-2f4b-45fe-ae28-873e59612e3f","stateCode":"QA","latitude":"31.74311000","longitude":"44.61960000"},{"id":"3f597ac6-6023-45ed-ac43-f8dac9001654","name":"Nāḩiyat ash Shināfīyah","ru":"Nāḩiyat ash Shināfīyah","country":"4880ec80-0438-42be-bbaa-35e398c5b1c8","countryCode":"IQ","state":"2e53967c-2f4b-45fe-ae28-873e59612e3f","stateCode":"QA","latitude":"31.58376000","longitude":"44.64675000"},{"id":"a8c491db-e7f8-4a82-a38f-e8074dd63d31","name":"Al Ḩillah","ru":"Al Ḩillah","country":"4880ec80-0438-42be-bbaa-35e398c5b1c8","countryCode":"IQ","state":"4b78420a-d63c-47e6-b8d3-036bdafa0c38","stateCode":"BB","latitude":"32.46367000","longitude":"44.41963000"},{"id":"06381260-88e0-42fa-9e7f-c3603ae3407a","name":"Al Musayyib","ru":"Al Musayyib","country":"4880ec80-0438-42be-bbaa-35e398c5b1c8","countryCode":"IQ","state":"4b78420a-d63c-47e6-b8d3-036bdafa0c38","stateCode":"BB","latitude":"32.77872000","longitude":"44.29005000"},{"id":"1ace6c62-2a28-4c4d-b8e9-705f1ac7059b","name":"Imam Qasim","ru":"Imam Qasim","country":"4880ec80-0438-42be-bbaa-35e398c5b1c8","countryCode":"IQ","state":"4b78420a-d63c-47e6-b8d3-036bdafa0c38","stateCode":"BB","latitude":"32.29799000","longitude":"44.68282000"},{"id":"15d864da-5d92-42fd-86c4-b69787c60222","name":"Nāḩīyat Saddat al Hindīyah","ru":"Nāḩīyat Saddat al Hindīyah","country":"4880ec80-0438-42be-bbaa-35e398c5b1c8","countryCode":"IQ","state":"4b78420a-d63c-47e6-b8d3-036bdafa0c38","stateCode":"BB","latitude":"32.71557000","longitude":"44.27857000"},{"id":"8d9bb99c-e255-4a8b-a5db-b6fec75f8876","name":"Abū Ghurayb","ru":"Abū Ghurayb","country":"4880ec80-0438-42be-bbaa-35e398c5b1c8","countryCode":"IQ","state":"b427be02-bd6b-4839-9a38-7c1ad957c16d","stateCode":"BG","latitude":"33.30563000","longitude":"44.18477000"},{"id":"0b73bf5d-66af-4bd2-a436-59221dbf2116","name":"Abu Ghraib District","ru":"Abu Ghraib District","country":"4880ec80-0438-42be-bbaa-35e398c5b1c8","countryCode":"IQ","state":"b427be02-bd6b-4839-9a38-7c1ad957c16d","stateCode":"BG","latitude":"33.29194000","longitude":"44.06919000"},{"id":"0a170efa-9c0b-4020-a3b0-cd6b17ee2dc7","name":"Baghdad","ru":"Baghdad","country":"4880ec80-0438-42be-bbaa-35e398c5b1c8","countryCode":"IQ","state":"b427be02-bd6b-4839-9a38-7c1ad957c16d","stateCode":"BG","latitude":"33.34058000","longitude":"44.40088000"},{"id":"9bef0b49-affa-4cb3-ab61-21b062027a77","name":"Al Başrah al Qadīmah","ru":"Al Başrah al Qadīmah","country":"4880ec80-0438-42be-bbaa-35e398c5b1c8","countryCode":"IQ","state":"9ffd3b57-2768-474d-aabb-77c151fa2653","stateCode":"BA","latitude":"30.50316000","longitude":"47.81507000"},{"id":"be543054-21cf-47c8-a9d1-f7d3970aba42","name":"Al Fāw","ru":"Al Fāw","country":"4880ec80-0438-42be-bbaa-35e398c5b1c8","countryCode":"IQ","state":"9ffd3b57-2768-474d-aabb-77c151fa2653","stateCode":"BA","latitude":"29.97421000","longitude":"48.47309000"},{"id":"97129e1d-a73e-42f5-8669-042fd65c55bc","name":"Al Hārithah","ru":"Al Hārithah","country":"4880ec80-0438-42be-bbaa-35e398c5b1c8","countryCode":"IQ","state":"9ffd3b57-2768-474d-aabb-77c151fa2653","stateCode":"BA","latitude":"30.58481000","longitude":"47.76114000"},{"id":"56516389-8460-4baf-8c23-70faa6150c9c","name":"Az Zubayr","ru":"Az Zubayr","country":"4880ec80-0438-42be-bbaa-35e398c5b1c8","countryCode":"IQ","state":"9ffd3b57-2768-474d-aabb-77c151fa2653","stateCode":"BA","latitude":"30.39213000","longitude":"47.70175000"},{"id":"03489f7f-066f-4818-8235-325d391f3135","name":"Basrah","ru":"Basrah","country":"4880ec80-0438-42be-bbaa-35e398c5b1c8","countryCode":"IQ","state":"9ffd3b57-2768-474d-aabb-77c151fa2653","stateCode":"BA","latitude":"30.50852000","longitude":"47.78040000"},{"id":"c9b335b1-3b74-4aa9-a8bf-cb304eb04df5","name":"Umm Qaşr","ru":"Umm Qaşr","country":"4880ec80-0438-42be-bbaa-35e398c5b1c8","countryCode":"IQ","state":"9ffd3b57-2768-474d-aabb-77c151fa2653","stateCode":"BA","latitude":"30.03620000","longitude":"47.91951000"},{"id":"cd89a5d0-7b7d-4229-8d25-d93b16bc8f0f","name":"Ash Shaţrah","ru":"Ash Shaţrah","country":"4880ec80-0438-42be-bbaa-35e398c5b1c8","countryCode":"IQ","state":"651a0f28-69ef-4591-a3bc-df0088aa80b4","stateCode":"DQ","latitude":"31.40906000","longitude":"46.17270000"},{"id":"7f60b03d-205f-42f7-bf31-65ba175935e9","name":"Nasiriyah","ru":"Nasiriyah","country":"4880ec80-0438-42be-bbaa-35e398c5b1c8","countryCode":"IQ","state":"651a0f28-69ef-4591-a3bc-df0088aa80b4","stateCode":"DQ","latitude":"31.05799000","longitude":"46.25726000"},{"id":"5a602e5d-5aec-437d-b55c-942068e89784","name":"Nāḩiyat al Fuhūd","ru":"Nāḩiyat al Fuhūd","country":"4880ec80-0438-42be-bbaa-35e398c5b1c8","countryCode":"IQ","state":"651a0f28-69ef-4591-a3bc-df0088aa80b4","stateCode":"DQ","latitude":"30.96972000","longitude":"46.72278000"},{"id":"e66a8c8c-c39b-4436-8cbc-cc450471266a","name":"Al Miqdādīyah","ru":"Al Miqdādīyah","country":"4880ec80-0438-42be-bbaa-35e398c5b1c8","countryCode":"IQ","state":"58c341a4-f56e-4e6c-bfd5-b8c5c06ef244","stateCode":"DI","latitude":"33.97861000","longitude":"44.93694000"},{"id":"74d3e030-737a-4994-baaf-7b619c79f731","name":"Baladrūz","ru":"Baladrūz","country":"4880ec80-0438-42be-bbaa-35e398c5b1c8","countryCode":"IQ","state":"58c341a4-f56e-4e6c-bfd5-b8c5c06ef244","stateCode":"DI","latitude":"33.69631000","longitude":"45.07782000"},{"id":"77e76e24-299a-4362-9ffc-bee5750f82f6","name":"Baqubah","ru":"Baqubah","country":"4880ec80-0438-42be-bbaa-35e398c5b1c8","countryCode":"IQ","state":"58c341a4-f56e-4e6c-bfd5-b8c5c06ef244","stateCode":"DI","latitude":"33.75403000","longitude":"44.60518000"},{"id":"658d4c9d-5112-437d-b77e-7aa65dec8c02","name":"Khāliş","ru":"Khāliş","country":"4880ec80-0438-42be-bbaa-35e398c5b1c8","countryCode":"IQ","state":"58c341a4-f56e-4e6c-bfd5-b8c5c06ef244","stateCode":"DI","latitude":"33.80809000","longitude":"44.53343000"},{"id":"065688cd-c241-4ace-99f7-1a934bba1f4e","name":"Kifrī","ru":"Kifrī","country":"4880ec80-0438-42be-bbaa-35e398c5b1c8","countryCode":"IQ","state":"58c341a4-f56e-4e6c-bfd5-b8c5c06ef244","stateCode":"DI","latitude":"34.68963000","longitude":"44.96057000"},{"id":"22e6025a-71f6-4a7e-9020-6d94785e7a16","name":"Mandalī","ru":"Mandalī","country":"4880ec80-0438-42be-bbaa-35e398c5b1c8","countryCode":"IQ","state":"58c341a4-f56e-4e6c-bfd5-b8c5c06ef244","stateCode":"DI","latitude":"33.74810000","longitude":"45.55503000"},{"id":"3ff41ed7-4a13-464d-a1f0-76a121592294","name":"Qaḑā’ Kifrī","ru":"Qaḑā’ Kifrī","country":"4880ec80-0438-42be-bbaa-35e398c5b1c8","countryCode":"IQ","state":"58c341a4-f56e-4e6c-bfd5-b8c5c06ef244","stateCode":"DI","latitude":"34.52289000","longitude":"44.85821000"},{"id":"c0514dfd-722f-47fb-be5c-2cfa0ca540c9","name":"Al ‘Amādīyah","ru":"Al ‘Amādīyah","country":"4880ec80-0438-42be-bbaa-35e398c5b1c8","countryCode":"IQ","state":"9e36fbe5-486a-4bd8-aa21-3eebe2d69410","stateCode":"DA","latitude":"37.09214000","longitude":"43.48769000"},{"id":"4a197b7f-264a-4f99-afd6-b47f1c50f1ca","name":"Batifa","ru":"Batifa","country":"4880ec80-0438-42be-bbaa-35e398c5b1c8","countryCode":"IQ","state":"9e36fbe5-486a-4bd8-aa21-3eebe2d69410","stateCode":"DA","latitude":"37.17454000","longitude":"43.01233000"},{"id":"70122fd0-9f52-4005-b4e7-1804b59872d7","name":"Dihok","ru":"Dihok","country":"4880ec80-0438-42be-bbaa-35e398c5b1c8","countryCode":"IQ","state":"9e36fbe5-486a-4bd8-aa21-3eebe2d69410","stateCode":"DA","latitude":"36.86709000","longitude":"42.98845000"},{"id":"0b185f40-1c31-4fd5-ad09-db68dd6e9c46","name":"Sīnah","ru":"Sīnah","country":"4880ec80-0438-42be-bbaa-35e398c5b1c8","countryCode":"IQ","state":"9e36fbe5-486a-4bd8-aa21-3eebe2d69410","stateCode":"DA","latitude":"36.80851000","longitude":"43.03935000"},{"id":"4eed0c5a-9b81-4a8d-8ce0-d52012a90117","name":"Zaxo","ru":"Zaxo","country":"4880ec80-0438-42be-bbaa-35e398c5b1c8","countryCode":"IQ","state":"9e36fbe5-486a-4bd8-aa21-3eebe2d69410","stateCode":"DA","latitude":"37.14871000","longitude":"42.68591000"},{"id":"811bc282-098f-4f9b-85fc-555ca35a4b4d","name":"Arbil","ru":"Arbil","country":"4880ec80-0438-42be-bbaa-35e398c5b1c8","countryCode":"IQ","state":"996cdd67-7601-4cf5-abfe-9ced72236c62","stateCode":"AR","latitude":"36.19070000","longitude":"44.00947000"},{"id":"dafa2f0e-2e70-4936-ab98-f79731156132","name":"Erbil","ru":"Erbil","country":"4880ec80-0438-42be-bbaa-35e398c5b1c8","countryCode":"IQ","state":"996cdd67-7601-4cf5-abfe-9ced72236c62","stateCode":"AR","latitude":"36.18333000","longitude":"44.01193000"},{"id":"a3f46960-d24c-4d53-bde9-3ce8b244549b","name":"Koysinceq","ru":"Koysinceq","country":"4880ec80-0438-42be-bbaa-35e398c5b1c8","countryCode":"IQ","state":"996cdd67-7601-4cf5-abfe-9ced72236c62","stateCode":"AR","latitude":"36.08289000","longitude":"44.62873000"},{"id":"f447bfe2-9c77-4b32-b324-7e5aca2dc85b","name":"Ruwāndiz","ru":"Ruwāndiz","country":"4880ec80-0438-42be-bbaa-35e398c5b1c8","countryCode":"IQ","state":"996cdd67-7601-4cf5-abfe-9ced72236c62","stateCode":"AR","latitude":"36.61207000","longitude":"44.52372000"},{"id":"c0cf7d49-8d60-4f35-9bc3-a13b352c15ea","name":"Shaqlāwah","ru":"Shaqlāwah","country":"4880ec80-0438-42be-bbaa-35e398c5b1c8","countryCode":"IQ","state":"996cdd67-7601-4cf5-abfe-9ced72236c62","stateCode":"AR","latitude":"36.40422000","longitude":"44.32563000"},{"id":"06e2446c-64ae-4116-9fc2-ed7735ca72b2","name":"Soran","ru":"Soran","country":"4880ec80-0438-42be-bbaa-35e398c5b1c8","countryCode":"IQ","state":"996cdd67-7601-4cf5-abfe-9ced72236c62","stateCode":"AR","latitude":"36.65320000","longitude":"44.54407000"},{"id":"aafaea89-0ef7-41b5-822f-4905b70712f5","name":"Al Hindīyah","ru":"Al Hindīyah","country":"4880ec80-0438-42be-bbaa-35e398c5b1c8","countryCode":"IQ","state":"1e29b997-3090-4eeb-8503-32c2697aaf85","stateCode":"KA","latitude":"32.54671000","longitude":"44.22765000"},{"id":"3d15f553-e15e-40bd-b4de-13faea146016","name":"Karbala","ru":"Karbala","country":"4880ec80-0438-42be-bbaa-35e398c5b1c8","countryCode":"IQ","state":"1e29b997-3090-4eeb-8503-32c2697aaf85","stateCode":"KA","latitude":"32.61603000","longitude":"44.02488000"},{"id":"42bec598-ccfb-49c6-a6f0-5c6c6f81fe1a","name":"Kirkuk","ru":"Kirkuk","country":"4880ec80-0438-42be-bbaa-35e398c5b1c8","countryCode":"IQ","state":"2fda7410-0634-43e2-958b-7532edcadeaa","stateCode":"KI","latitude":"35.46806000","longitude":"44.39222000"},{"id":"8eed859c-0b56-4df9-9c53-94c9a4dd4a96","name":"Al ‘Amārah","ru":"Al ‘Amārah","country":"4880ec80-0438-42be-bbaa-35e398c5b1c8","countryCode":"IQ","state":"74f30229-9d65-4f32-b315-54ac221f7cd2","stateCode":"MA","latitude":"31.83561000","longitude":"47.14483000"},{"id":"81a5f8f7-9e18-401f-8804-2ee5c86624e5","name":"Al-Mejar Al-Kabi District","ru":"Al-Mejar Al-Kabi District","country":"4880ec80-0438-42be-bbaa-35e398c5b1c8","countryCode":"IQ","state":"74f30229-9d65-4f32-b315-54ac221f7cd2","stateCode":"MA","latitude":"31.42940000","longitude":"47.20355000"},{"id":"c534689e-9dae-470b-8237-8826d39cc4b3","name":"‘Alī al Gharbī","ru":"‘Alī al Gharbī","country":"4880ec80-0438-42be-bbaa-35e398c5b1c8","countryCode":"IQ","state":"74f30229-9d65-4f32-b315-54ac221f7cd2","stateCode":"MA","latitude":"32.46186000","longitude":"46.68794000"},{"id":"ed8c119e-93d4-4cc0-b1e1-f6fc0935626f","name":"Al Mishkhāb","ru":"Al Mishkhāb","country":"4880ec80-0438-42be-bbaa-35e398c5b1c8","countryCode":"IQ","state":"ac11dc1a-f5ee-4dee-8437-899e608ef107","stateCode":"NA","latitude":"31.80437000","longitude":"44.48930000"},{"id":"5f0820cc-2e42-4ca3-b829-2e732c5cca3f","name":"Kufa","ru":"Kufa","country":"4880ec80-0438-42be-bbaa-35e398c5b1c8","countryCode":"IQ","state":"ac11dc1a-f5ee-4dee-8437-899e608ef107","stateCode":"NA","latitude":"32.05114000","longitude":"44.44017000"},{"id":"4298797d-c42c-4a2d-b7a6-c7ec2fab2a5c","name":"Najaf","ru":"Najaf","country":"4880ec80-0438-42be-bbaa-35e398c5b1c8","countryCode":"IQ","state":"ac11dc1a-f5ee-4dee-8437-899e608ef107","stateCode":"NA","latitude":"32.02594000","longitude":"44.34625000"},{"id":"2eb727d7-a10c-4389-a644-ff71646d0bf6","name":"Al Mawşil al Jadīdah","ru":"Al Mawşil al Jadīdah","country":"4880ec80-0438-42be-bbaa-35e398c5b1c8","countryCode":"IQ","state":"29a2991b-479c-42c6-8e08-94eabc8f32c9","stateCode":"NI","latitude":"36.33271000","longitude":"43.10555000"},{"id":"936b5af3-193c-4ef6-9be7-65be1562b5e2","name":"Al-Hamdaniya","ru":"Al-Hamdaniya","country":"4880ec80-0438-42be-bbaa-35e398c5b1c8","countryCode":"IQ","state":"29a2991b-479c-42c6-8e08-94eabc8f32c9","stateCode":"NI","latitude":"36.27093000","longitude":"43.37758000"},{"id":"82bc16e5-d95d-445f-9748-ba0ddea6bd4d","name":"Ash Shaykhān","ru":"Ash Shaykhān","country":"4880ec80-0438-42be-bbaa-35e398c5b1c8","countryCode":"IQ","state":"29a2991b-479c-42c6-8e08-94eabc8f32c9","stateCode":"NI","latitude":"36.69595000","longitude":"43.35202000"},{"id":"0d36548b-5c6c-4ec0-9706-7b40d52769be","name":"‘Aqrah","ru":"‘Aqrah","country":"4880ec80-0438-42be-bbaa-35e398c5b1c8","countryCode":"IQ","state":"29a2991b-479c-42c6-8e08-94eabc8f32c9","stateCode":"NI","latitude":"36.76038000","longitude":"43.89428000"},{"id":"35c8d806-2c3c-4879-b80c-75a87048ad49","name":"Mosul","ru":"Mosul","country":"4880ec80-0438-42be-bbaa-35e398c5b1c8","countryCode":"IQ","state":"29a2991b-479c-42c6-8e08-94eabc8f32c9","stateCode":"NI","latitude":"36.33500000","longitude":"43.11889000"},{"id":"a778ea90-ba29-460e-95b5-4b83aac14c2e","name":"Sinjar","ru":"Sinjar","country":"4880ec80-0438-42be-bbaa-35e398c5b1c8","countryCode":"IQ","state":"29a2991b-479c-42c6-8e08-94eabc8f32c9","stateCode":"NI","latitude":"36.29548000","longitude":"41.89315000"},{"id":"02318785-63aa-4974-a0d6-c1fa64919da5","name":"Sinjār","ru":"Sinjār","country":"4880ec80-0438-42be-bbaa-35e398c5b1c8","countryCode":"IQ","state":"29a2991b-479c-42c6-8e08-94eabc8f32c9","stateCode":"NI","latitude":"36.32090000","longitude":"41.87656000"},{"id":"1b53ff61-b393-4a7d-8203-5c01a3b52ee3","name":"Tall ‘Afar","ru":"Tall ‘Afar","country":"4880ec80-0438-42be-bbaa-35e398c5b1c8","countryCode":"IQ","state":"29a2991b-479c-42c6-8e08-94eabc8f32c9","stateCode":"NI","latitude":"36.37913000","longitude":"42.44806000"},{"id":"ae08f73d-4d63-4a68-8bad-f4c4023650b4","name":"Tallkayf","ru":"Tallkayf","country":"4880ec80-0438-42be-bbaa-35e398c5b1c8","countryCode":"IQ","state":"29a2991b-479c-42c6-8e08-94eabc8f32c9","stateCode":"NI","latitude":"36.49118000","longitude":"43.12114000"},{"id":"5410add6-33be-4e53-8451-7065a6e84b64","name":"Ad Dujayl","ru":"Ad Dujayl","country":"4880ec80-0438-42be-bbaa-35e398c5b1c8","countryCode":"IQ","state":"350a795b-9acc-47b6-b0e4-9843d12c6f4b","stateCode":"SD","latitude":"33.84667000","longitude":"44.23444000"},{"id":"5ad42a21-9d32-4fce-a005-758ed2fa0975","name":"Balad","ru":"Balad","country":"4880ec80-0438-42be-bbaa-35e398c5b1c8","countryCode":"IQ","state":"350a795b-9acc-47b6-b0e4-9843d12c6f4b","stateCode":"SD","latitude":"34.01485000","longitude":"44.14574000"},{"id":"31466e75-6fb9-4b98-8533-4332b84011fa","name":"Bayjī","ru":"Bayjī","country":"4880ec80-0438-42be-bbaa-35e398c5b1c8","countryCode":"IQ","state":"350a795b-9acc-47b6-b0e4-9843d12c6f4b","stateCode":"SD","latitude":"34.92915000","longitude":"43.48878000"},{"id":"b1ae3d85-62dd-4c35-a33c-36eb580f5546","name":"Sāmarrā’","ru":"Sāmarrā’","country":"4880ec80-0438-42be-bbaa-35e398c5b1c8","countryCode":"IQ","state":"350a795b-9acc-47b6-b0e4-9843d12c6f4b","stateCode":"SD","latitude":"34.19590000","longitude":"43.88568000"},{"id":"4ea282c3-378a-4808-8658-2d864073c64a","name":"Tikrīt","ru":"Tikrīt","country":"4880ec80-0438-42be-bbaa-35e398c5b1c8","countryCode":"IQ","state":"350a795b-9acc-47b6-b0e4-9843d12c6f4b","stateCode":"SD","latitude":"34.61581000","longitude":"43.67861000"},{"id":"84693b8c-20ca-4eda-a233-1affe4877a9b","name":"Tozkhurmato","ru":"Tozkhurmato","country":"4880ec80-0438-42be-bbaa-35e398c5b1c8","countryCode":"IQ","state":"350a795b-9acc-47b6-b0e4-9843d12c6f4b","stateCode":"SD","latitude":"34.88808000","longitude":"44.63256000"},{"id":"82f9056b-b250-4511-a638-e59fc06f8bba","name":"As Sulaymānīyah","ru":"As Sulaymānīyah","country":"4880ec80-0438-42be-bbaa-35e398c5b1c8","countryCode":"IQ","state":"bc2cfae7-33e1-4d28-a7bf-872d6ecc8d31","stateCode":"SU","latitude":"35.56496000","longitude":"45.43290000"},{"id":"9bc7db71-c4f9-4ade-9852-8ac615b36572","name":"Ḩalabjah","ru":"Ḩalabjah","country":"4880ec80-0438-42be-bbaa-35e398c5b1c8","countryCode":"IQ","state":"bc2cfae7-33e1-4d28-a7bf-872d6ecc8d31","stateCode":"SU","latitude":"35.17778000","longitude":"45.98611000"},{"id":"6dee70b6-e463-4346-937f-2873d8c8c15b","name":"Baynjiwayn","ru":"Baynjiwayn","country":"4880ec80-0438-42be-bbaa-35e398c5b1c8","countryCode":"IQ","state":"bc2cfae7-33e1-4d28-a7bf-872d6ecc8d31","stateCode":"SU","latitude":"35.62054000","longitude":"45.94908000"},{"id":"2d25d17e-dbee-498a-87da-f1882ffb86f0","name":"Jamjamāl","ru":"Jamjamāl","country":"4880ec80-0438-42be-bbaa-35e398c5b1c8","countryCode":"IQ","state":"bc2cfae7-33e1-4d28-a7bf-872d6ecc8d31","stateCode":"SU","latitude":"35.53356000","longitude":"44.83430000"},{"id":"5ebe2c06-3a69-4ed2-b1c4-c834c1a567e1","name":"Aş Şuwayrah","ru":"Aş Şuwayrah","country":"4880ec80-0438-42be-bbaa-35e398c5b1c8","countryCode":"IQ","state":"7c5e6372-bbd7-4adc-ad72-531ad1551efc","stateCode":"WA","latitude":"32.92556000","longitude":"44.77583000"},{"id":"1d9f5345-d976-47b1-87ae-3c2644a0457f","name":"Al Ḩayy","ru":"Al Ḩayy","country":"4880ec80-0438-42be-bbaa-35e398c5b1c8","countryCode":"IQ","state":"7c5e6372-bbd7-4adc-ad72-531ad1551efc","stateCode":"WA","latitude":"32.17419000","longitude":"46.04345000"},{"id":"e1233707-be32-4ca4-8882-6714449f4a0b","name":"Al ‘Azīzīyah","ru":"Al ‘Azīzīyah","country":"4880ec80-0438-42be-bbaa-35e398c5b1c8","countryCode":"IQ","state":"7c5e6372-bbd7-4adc-ad72-531ad1551efc","stateCode":"WA","latitude":"32.90941000","longitude":"45.06359000"},{"id":"b0458018-21a3-4a92-82eb-6379e5ca92e8","name":"Al Kūt","ru":"Al Kūt","country":"4880ec80-0438-42be-bbaa-35e398c5b1c8","countryCode":"IQ","state":"7c5e6372-bbd7-4adc-ad72-531ad1551efc","stateCode":"WA","latitude":"32.51280000","longitude":"45.81817000"}]