[{"id":"e7bab152-a1c9-4fd6-8377-72d33ef4424f","name":"Cho Dok","ru":"Cho Dok","country":"72eabe88-a4d6-4f90-b8de-3fdd35a09846","countryCode":"VN","state":"dc58e7e5-7779-409e-8b38-4bea395e9c46","stateCode":"44","latitude":"10.70000000","longitude":"105.11667000"},{"id":"7429c26b-7840-4a83-a857-f25b8e10d769","name":"Huyện An Phú","ru":"Huyện An Phú","country":"72eabe88-a4d6-4f90-b8de-3fdd35a09846","countryCode":"VN","state":"dc58e7e5-7779-409e-8b38-4bea395e9c46","stateCode":"44","latitude":"10.84274000","longitude":"105.08990000"},{"id":"35da679b-0666-47fa-b14c-947228eaec53","name":"Huyện Châu Phú","ru":"Huyện Châu Phú","country":"72eabe88-a4d6-4f90-b8de-3fdd35a09846","countryCode":"VN","state":"dc58e7e5-7779-409e-8b38-4bea395e9c46","stateCode":"44","latitude":"10.57166000","longitude":"105.16991000"},{"id":"6b0ae232-2e40-45ca-99f0-c1ba8f4474e9","name":"Huyện Chợ Mới","ru":"Huyện Chợ Mới","country":"72eabe88-a4d6-4f90-b8de-3fdd35a09846","countryCode":"VN","state":"dc58e7e5-7779-409e-8b38-4bea395e9c46","stateCode":"44","latitude":"10.47730000","longitude":"105.49092000"},{"id":"9942beec-7e49-4de5-8013-fcbc93eb98d7","name":"Huyện Phú Tân","ru":"Huyện Phú Tân","country":"72eabe88-a4d6-4f90-b8de-3fdd35a09846","countryCode":"VN","state":"dc58e7e5-7779-409e-8b38-4bea395e9c46","stateCode":"44","latitude":"10.65716000","longitude":"105.28459000"},{"id":"914c81a6-0224-4529-8307-2684c63dcb29","name":"Huyện Tri Tôn","ru":"Huyện Tri Tôn","country":"72eabe88-a4d6-4f90-b8de-3fdd35a09846","countryCode":"VN","state":"dc58e7e5-7779-409e-8b38-4bea395e9c46","stateCode":"44","latitude":"10.41416000","longitude":"104.96136000"},{"id":"5ea621f9-b5f9-4696-b061-5860bdc68456","name":"Long Xuyên","ru":"Long Xuyên","country":"72eabe88-a4d6-4f90-b8de-3fdd35a09846","countryCode":"VN","state":"dc58e7e5-7779-409e-8b38-4bea395e9c46","stateCode":"44","latitude":"10.38639000","longitude":"105.43518000"},{"id":"2ee96df4-2d48-4c6f-96c9-fd4bb0577df7","name":"Long Xuyên City","ru":"Long Xuyên City","country":"72eabe88-a4d6-4f90-b8de-3fdd35a09846","countryCode":"VN","state":"dc58e7e5-7779-409e-8b38-4bea395e9c46","stateCode":"44","latitude":"10.36857000","longitude":"105.42340000"},{"id":"bd78b641-b9d0-41e3-a524-54c73705e003","name":"Buôn Ma Thuột","ru":"Buôn Ma Thuột","country":"72eabe88-a4d6-4f90-b8de-3fdd35a09846","countryCode":"VN","state":"99cb0fa0-f577-4e00-bec1-06f06cb15a00","stateCode":"33","latitude":"12.66747000","longitude":"108.03775000"},{"id":"ac87c6aa-f157-4642-b733-c10a9ac33b5e","name":"Huyện Buôn Đôn","ru":"Huyện Buôn Đôn","country":"72eabe88-a4d6-4f90-b8de-3fdd35a09846","countryCode":"VN","state":"99cb0fa0-f577-4e00-bec1-06f06cb15a00","stateCode":"33","latitude":"12.90396000","longitude":"107.73870000"},{"id":"e30e82cb-fae0-4b5a-b191-a057dadaf848","name":"Huyện Ea H'Leo","ru":"Huyện Ea H'Leo","country":"72eabe88-a4d6-4f90-b8de-3fdd35a09846","countryCode":"VN","state":"99cb0fa0-f577-4e00-bec1-06f06cb15a00","stateCode":"33","latitude":"13.31814000","longitude":"108.07148000"},{"id":"fa46d267-6ce4-4abf-bd76-4c4f4bbb007c","name":"Huyện Ea Súp","ru":"Huyện Ea Súp","country":"72eabe88-a4d6-4f90-b8de-3fdd35a09846","countryCode":"VN","state":"99cb0fa0-f577-4e00-bec1-06f06cb15a00","stateCode":"33","latitude":"13.18279000","longitude":"107.79954000"},{"id":"99ac073f-020c-4754-b4d7-8cf7c984cff1","name":"Huyện Đắk R’Lấp","ru":"Huyện Đắk R’Lấp","country":"72eabe88-a4d6-4f90-b8de-3fdd35a09846","countryCode":"VN","state":"46849ecf-4f7f-489b-9bcd-facb0840ad35","stateCode":"72","latitude":"11.87990000","longitude":"107.52244000"},{"id":"8b920dbc-552b-4c5b-a85d-a6442ac9ac97","name":"Huyện Cư Jút","ru":"Huyện Cư Jút","country":"72eabe88-a4d6-4f90-b8de-3fdd35a09846","countryCode":"VN","state":"46849ecf-4f7f-489b-9bcd-facb0840ad35","stateCode":"72","latitude":"12.69591000","longitude":"107.76316000"},{"id":"98e14fa0-89d1-420d-955e-4a066501a764","name":"Huyện Krông Nô","ru":"Huyện Krông Nô","country":"72eabe88-a4d6-4f90-b8de-3fdd35a09846","countryCode":"VN","state":"46849ecf-4f7f-489b-9bcd-facb0840ad35","stateCode":"72","latitude":"12.36285000","longitude":"107.83445000"},{"id":"a4cd5632-6879-4414-8818-0b2adf97dc64","name":"Biên Hòa","ru":"Biên Hòa","country":"72eabe88-a4d6-4f90-b8de-3fdd35a09846","countryCode":"VN","state":"afb8fe03-bfb1-4724-9355-d6492ff4bebd","stateCode":"39","latitude":"10.94469000","longitude":"106.82432000"},{"id":"85fbe24c-444d-4ab5-965a-61e09134a799","name":"Huyện Định Quán","ru":"Huyện Định Quán","country":"72eabe88-a4d6-4f90-b8de-3fdd35a09846","countryCode":"VN","state":"afb8fe03-bfb1-4724-9355-d6492ff4bebd","stateCode":"39","latitude":"11.21866000","longitude":"107.33959000"},{"id":"db8e8cc8-5e59-4762-93a0-6636c41d70cb","name":"Huyện Long Thành","ru":"Huyện Long Thành","country":"72eabe88-a4d6-4f90-b8de-3fdd35a09846","countryCode":"VN","state":"afb8fe03-bfb1-4724-9355-d6492ff4bebd","stateCode":"39","latitude":"10.76162000","longitude":"107.02688000"},{"id":"665789a7-a6f0-45b9-81a3-ba006fb5bd2e","name":"Huyện Tân Phú","ru":"Huyện Tân Phú","country":"72eabe88-a4d6-4f90-b8de-3fdd35a09846","countryCode":"VN","state":"afb8fe03-bfb1-4724-9355-d6492ff4bebd","stateCode":"39","latitude":"11.39867000","longitude":"107.39976000"},{"id":"4a6a0772-af45-42d6-9b1f-39ac612f62c8","name":"Huyện Thống Nhất","ru":"Huyện Thống Nhất","country":"72eabe88-a4d6-4f90-b8de-3fdd35a09846","countryCode":"VN","state":"afb8fe03-bfb1-4724-9355-d6492ff4bebd","stateCode":"39","latitude":"10.97764000","longitude":"107.15909000"},{"id":"4528fde5-5b2f-4ecc-8f15-be34300c8aaf","name":"Huyện Trảng Bom","ru":"Huyện Trảng Bom","country":"72eabe88-a4d6-4f90-b8de-3fdd35a09846","countryCode":"VN","state":"afb8fe03-bfb1-4724-9355-d6492ff4bebd","stateCode":"39","latitude":"10.96624000","longitude":"107.03614000"},{"id":"43c0bb5c-6eb6-4cbb-89aa-289bb3aab5fe","name":"Huyện Vĩnh Cửu","ru":"Huyện Vĩnh Cửu","country":"72eabe88-a4d6-4f90-b8de-3fdd35a09846","countryCode":"VN","state":"afb8fe03-bfb1-4724-9355-d6492ff4bebd","stateCode":"39","latitude":"11.25725000","longitude":"107.02773000"},{"id":"8ca47a9a-03b2-444b-ab6b-a5ed18a53b51","name":"Cao Lãnh","ru":"Cao Lãnh","country":"72eabe88-a4d6-4f90-b8de-3fdd35a09846","countryCode":"VN","state":"02a01c14-c3ed-4085-83ef-bc74bf58c5e0","stateCode":"45","latitude":"10.46017000","longitude":"105.63294000"},{"id":"e2ff245b-be9f-4a55-b1f4-493af7cc2e12","name":"Huyện Châu Thành","ru":"Huyện Châu Thành","country":"72eabe88-a4d6-4f90-b8de-3fdd35a09846","countryCode":"VN","state":"02a01c14-c3ed-4085-83ef-bc74bf58c5e0","stateCode":"45","latitude":"10.22543000","longitude":"105.82380000"},{"id":"20ece0b2-1b97-4d53-8244-aea328dd2b52","name":"Huyện Lai Vung","ru":"Huyện Lai Vung","country":"72eabe88-a4d6-4f90-b8de-3fdd35a09846","countryCode":"VN","state":"02a01c14-c3ed-4085-83ef-bc74bf58c5e0","stateCode":"45","latitude":"10.24051000","longitude":"105.66327000"},{"id":"2cbf604f-4d80-4020-97cc-7eb624f64f3c","name":"Huyện Lấp Vò","ru":"Huyện Lấp Vò","country":"72eabe88-a4d6-4f90-b8de-3fdd35a09846","countryCode":"VN","state":"02a01c14-c3ed-4085-83ef-bc74bf58c5e0","stateCode":"45","latitude":"10.35918000","longitude":"105.60611000"},{"id":"ce4ad125-a0b4-4723-9c9c-55f836e52c46","name":"Huyện Tam Nông","ru":"Huyện Tam Nông","country":"72eabe88-a4d6-4f90-b8de-3fdd35a09846","countryCode":"VN","state":"02a01c14-c3ed-4085-83ef-bc74bf58c5e0","stateCode":"45","latitude":"10.72761000","longitude":"105.52522000"},{"id":"9b2a503d-5cc5-434c-b042-bc08e029e24b","name":"Huyện Tân Hồng","ru":"Huyện Tân Hồng","country":"72eabe88-a4d6-4f90-b8de-3fdd35a09846","countryCode":"VN","state":"02a01c14-c3ed-4085-83ef-bc74bf58c5e0","stateCode":"45","latitude":"10.87089000","longitude":"105.49104000"},{"id":"a73d77d3-68f7-4392-8103-93802d320197","name":"Huyện Thanh Bình","ru":"Huyện Thanh Bình","country":"72eabe88-a4d6-4f90-b8de-3fdd35a09846","countryCode":"VN","state":"02a01c14-c3ed-4085-83ef-bc74bf58c5e0","stateCode":"45","latitude":"10.60137000","longitude":"105.47811000"},{"id":"9f0ca19a-21a5-496a-bc50-952bc7739e3d","name":"Huyện Tháp Mười","ru":"Huyện Tháp Mười","country":"72eabe88-a4d6-4f90-b8de-3fdd35a09846","countryCode":"VN","state":"02a01c14-c3ed-4085-83ef-bc74bf58c5e0","stateCode":"45","latitude":"10.54398000","longitude":"105.81875000"},{"id":"01c2fed9-10e1-4ff8-a74b-3f30bfe49dcf","name":"Sa Dec","ru":"Sa Dec","country":"72eabe88-a4d6-4f90-b8de-3fdd35a09846","countryCode":"VN","state":"02a01c14-c3ed-4085-83ef-bc74bf58c5e0","stateCode":"45","latitude":"10.29085000","longitude":"105.75635000"},{"id":"0a2ecb13-853d-45e8-a4d2-36831d631ed4","name":"Sa Dec city","ru":"Sa Dec city","country":"72eabe88-a4d6-4f90-b8de-3fdd35a09846","countryCode":"VN","state":"02a01c14-c3ed-4085-83ef-bc74bf58c5e0","stateCode":"45","latitude":"10.30550000","longitude":"105.74757000"},{"id":"27d1bccd-f001-4758-866c-8ceaf7aa5e10","name":"Thị Trấn Tân Thành","ru":"Thị Trấn Tân Thành","country":"72eabe88-a4d6-4f90-b8de-3fdd35a09846","countryCode":"VN","state":"02a01c14-c3ed-4085-83ef-bc74bf58c5e0","stateCode":"45","latitude":"10.25616000","longitude":"105.59280000"},{"id":"3dd6c212-2f56-4866-b78d-f7bc0eb9c197","name":"Dien Bien Phu","ru":"Dien Bien Phu","country":"72eabe88-a4d6-4f90-b8de-3fdd35a09846","countryCode":"VN","state":"729a3afc-6c6b-41c0-bbcd-c86093293e1c","stateCode":"71","latitude":"21.38602000","longitude":"103.02301000"},{"id":"8db419f3-4d3e-49a8-b463-ea73db6d961c","name":"Huyện Điện Biên Đông","ru":"Huyện Điện Biên Đông","country":"72eabe88-a4d6-4f90-b8de-3fdd35a09846","countryCode":"VN","state":"729a3afc-6c6b-41c0-bbcd-c86093293e1c","stateCode":"71","latitude":"21.25266000","longitude":"103.26900000"},{"id":"dff64ac1-2561-45ea-9a70-50452879c186","name":"Huyện Mường Nhé","ru":"Huyện Mường Nhé","country":"72eabe88-a4d6-4f90-b8de-3fdd35a09846","countryCode":"VN","state":"729a3afc-6c6b-41c0-bbcd-c86093293e1c","stateCode":"71","latitude":"22.10353000","longitude":"102.58465000"},{"id":"a472d486-dd12-40e9-8c0a-64960f59b0e7","name":"Huyện Tủa Chùa","ru":"Huyện Tủa Chùa","country":"72eabe88-a4d6-4f90-b8de-3fdd35a09846","countryCode":"VN","state":"729a3afc-6c6b-41c0-bbcd-c86093293e1c","stateCode":"71","latitude":"21.95357000","longitude":"103.37332000"},{"id":"20dcb084-f8dd-41ec-a7e0-c27b6b882fe8","name":"Huyện Tuần Giáo","ru":"Huyện Tuần Giáo","country":"72eabe88-a4d6-4f90-b8de-3fdd35a09846","countryCode":"VN","state":"729a3afc-6c6b-41c0-bbcd-c86093293e1c","stateCode":"71","latitude":"21.69481000","longitude":"103.41758000"},{"id":"39780760-04b4-449c-8449-9b9d27dd57fe","name":"Thị Xã Mưòng Lay","ru":"Thị Xã Mưòng Lay","country":"72eabe88-a4d6-4f90-b8de-3fdd35a09846","countryCode":"VN","state":"729a3afc-6c6b-41c0-bbcd-c86093293e1c","stateCode":"71","latitude":"22.03374000","longitude":"103.12331000"},{"id":"62c12774-9a6e-4fb0-990c-1e513356ed3d","name":"Côn Sơn","ru":"Côn Sơn","country":"72eabe88-a4d6-4f90-b8de-3fdd35a09846","countryCode":"VN","state":"89511198-a786-4892-9303-5ce8a77bc25b","stateCode":"43","latitude":"8.68641000","longitude":"106.60824000"},{"id":"809e52d9-641a-4a7c-a1fa-d314a4e4781b","name":"Huyện Đất Đỏ","ru":"Huyện Đất Đỏ","country":"72eabe88-a4d6-4f90-b8de-3fdd35a09846","countryCode":"VN","state":"89511198-a786-4892-9303-5ce8a77bc25b","stateCode":"43","latitude":"10.48025000","longitude":"107.27879000"},{"id":"5aa6e678-c7fe-4be3-8a0c-641f454f6af5","name":"Huyện Châu Đức","ru":"Huyện Châu Đức","country":"72eabe88-a4d6-4f90-b8de-3fdd35a09846","countryCode":"VN","state":"89511198-a786-4892-9303-5ce8a77bc25b","stateCode":"43","latitude":"10.65805000","longitude":"107.25098000"},{"id":"51161706-7029-4fdb-9eec-cd37b5185e4f","name":"Huyện Tân Thành","ru":"Huyện Tân Thành","country":"72eabe88-a4d6-4f90-b8de-3fdd35a09846","countryCode":"VN","state":"89511198-a786-4892-9303-5ce8a77bc25b","stateCode":"43","latitude":"10.57381000","longitude":"107.10189000"},{"id":"68762e49-491e-4e3c-a209-42632d3a871b","name":"Huyện Xuyên Mộc","ru":"Huyện Xuyên Mộc","country":"72eabe88-a4d6-4f90-b8de-3fdd35a09846","countryCode":"VN","state":"89511198-a786-4892-9303-5ce8a77bc25b","stateCode":"43","latitude":"10.63048000","longitude":"107.46568000"},{"id":"f170b726-0068-41f7-974d-588114704510","name":"Thành Phố Vũng Tàu","ru":"Thành Phố Vũng Tàu","country":"72eabe88-a4d6-4f90-b8de-3fdd35a09846","countryCode":"VN","state":"89511198-a786-4892-9303-5ce8a77bc25b","stateCode":"43","latitude":"10.40239000","longitude":"107.14239000"},{"id":"011144d9-2025-4142-824d-e1588ae030aa","name":"Thị Xã Phú Mỹ","ru":"Thị Xã Phú Mỹ","country":"72eabe88-a4d6-4f90-b8de-3fdd35a09846","countryCode":"VN","state":"89511198-a786-4892-9303-5ce8a77bc25b","stateCode":"43","latitude":"10.56815000","longitude":"107.12999000"},{"id":"d2cfd7f4-5551-4d1f-ae5c-5d0cfcc50a94","name":"Vũng Tàu","ru":"Vũng Tàu","country":"72eabe88-a4d6-4f90-b8de-3fdd35a09846","countryCode":"VN","state":"89511198-a786-4892-9303-5ce8a77bc25b","stateCode":"43","latitude":"10.34599000","longitude":"107.08426000"},{"id":"2698aa06-6c92-4d85-b5ac-6bc55584d73d","name":"Huyện An Lão","ru":"Huyện An Lão","country":"72eabe88-a4d6-4f90-b8de-3fdd35a09846","countryCode":"VN","state":"1c7f5a59-74fc-4714-99b4-6aecf6e955e1","stateCode":"31","latitude":"14.55676000","longitude":"108.80100000"},{"id":"688c6135-3086-49f7-aa6a-6d54c57dfef4","name":"Huyện Hoài Nhơn","ru":"Huyện Hoài Nhơn","country":"72eabe88-a4d6-4f90-b8de-3fdd35a09846","countryCode":"VN","state":"1c7f5a59-74fc-4714-99b4-6aecf6e955e1","stateCode":"31","latitude":"14.50535000","longitude":"109.02315000"},{"id":"068a1d05-163f-4932-bec2-6ca96579e0c8","name":"Huyện Phù Mỹ","ru":"Huyện Phù Mỹ","country":"72eabe88-a4d6-4f90-b8de-3fdd35a09846","countryCode":"VN","state":"1c7f5a59-74fc-4714-99b4-6aecf6e955e1","stateCode":"31","latitude":"14.22304000","longitude":"109.08611000"},{"id":"668e3838-562c-4f37-ae70-19d30316c063","name":"Huyện Tây Sơn","ru":"Huyện Tây Sơn","country":"72eabe88-a4d6-4f90-b8de-3fdd35a09846","countryCode":"VN","state":"1c7f5a59-74fc-4714-99b4-6aecf6e955e1","stateCode":"31","latitude":"13.94306000","longitude":"108.87999000"},{"id":"b83860fe-c641-4e3b-9251-7dc864e119ac","name":"Huyện Tuy Phước","ru":"Huyện Tuy Phước","country":"72eabe88-a4d6-4f90-b8de-3fdd35a09846","countryCode":"VN","state":"1c7f5a59-74fc-4714-99b4-6aecf6e955e1","stateCode":"31","latitude":"13.84564000","longitude":"109.15275000"},{"id":"f11b2ee7-583f-4529-a8ab-a5cbb2fe22e2","name":"Huyện Vĩnh Thạnh","ru":"Huyện Vĩnh Thạnh","country":"72eabe88-a4d6-4f90-b8de-3fdd35a09846","countryCode":"VN","state":"1c7f5a59-74fc-4714-99b4-6aecf6e955e1","stateCode":"31","latitude":"14.21100000","longitude":"108.74389000"},{"id":"7d8bf2f1-f919-4e39-a06c-da100519a96a","name":"Qui Nhon","ru":"Qui Nhon","country":"72eabe88-a4d6-4f90-b8de-3fdd35a09846","countryCode":"VN","state":"1c7f5a59-74fc-4714-99b4-6aecf6e955e1","stateCode":"31","latitude":"13.77648000","longitude":"109.22367000"},{"id":"9b943e3e-1cce-4a15-af0f-2e0c99ccbe00","name":"Dĩ An","ru":"Dĩ An","country":"72eabe88-a4d6-4f90-b8de-3fdd35a09846","countryCode":"VN","state":"7c92f0c9-286f-4ada-b371-c5f91f3f8df2","stateCode":"57","latitude":"10.90682000","longitude":"106.76940000"},{"id":"1e218f4a-e015-4bfd-8b7f-218cadac8ffc","name":"Thủ Dầu Một","ru":"Thủ Dầu Một","country":"72eabe88-a4d6-4f90-b8de-3fdd35a09846","countryCode":"VN","state":"7c92f0c9-286f-4ada-b371-c5f91f3f8df2","stateCode":"57","latitude":"10.98040000","longitude":"106.65190000"},{"id":"ce15635d-d3d8-466e-8bb1-71c9d4a9e64d","name":"Bình Long","ru":"Bình Long","country":"72eabe88-a4d6-4f90-b8de-3fdd35a09846","countryCode":"VN","state":"8c8efabb-2ae9-4b5d-ab6c-be29a3207ef3","stateCode":"58","latitude":"11.64711000","longitude":"106.60586000"},{"id":"cb33c8ee-c72c-4517-9c15-712e12781c40","name":"Don Luan","ru":"Don Luan","country":"72eabe88-a4d6-4f90-b8de-3fdd35a09846","countryCode":"VN","state":"8c8efabb-2ae9-4b5d-ab6c-be29a3207ef3","stateCode":"58","latitude":"11.53495000","longitude":"106.88324000"},{"id":"161156e8-f11a-4ed0-9a66-166920207350","name":"Huyện Đồng Phú","ru":"Huyện Đồng Phú","country":"72eabe88-a4d6-4f90-b8de-3fdd35a09846","countryCode":"VN","state":"8c8efabb-2ae9-4b5d-ab6c-be29a3207ef3","stateCode":"58","latitude":"11.50071000","longitude":"107.01192000"},{"id":"960c71a1-9916-44b4-b19a-83abeff9881e","name":"Huyện Bù Đốp","ru":"Huyện Bù Đốp","country":"72eabe88-a4d6-4f90-b8de-3fdd35a09846","countryCode":"VN","state":"8c8efabb-2ae9-4b5d-ab6c-be29a3207ef3","stateCode":"58","latitude":"12.00374000","longitude":"106.81545000"},{"id":"232c95c7-68d1-4236-b210-9af4211ad68b","name":"Huyện Chơn Thành","ru":"Huyện Chơn Thành","country":"72eabe88-a4d6-4f90-b8de-3fdd35a09846","countryCode":"VN","state":"8c8efabb-2ae9-4b5d-ab6c-be29a3207ef3","stateCode":"58","latitude":"11.46283000","longitude":"106.66655000"},{"id":"8ee32e4b-cc53-47ec-a669-32e5017ca8dd","name":"Huyện Hớn Quản","ru":"Huyện Hớn Quản","country":"72eabe88-a4d6-4f90-b8de-3fdd35a09846","countryCode":"VN","state":"8c8efabb-2ae9-4b5d-ab6c-be29a3207ef3","stateCode":"58","latitude":"11.59718000","longitude":"106.62739000"},{"id":"2eeb6c49-b20a-4931-ba54-3821ecb64279","name":"Thị Xã Phước Long","ru":"Thị Xã Phước Long","country":"72eabe88-a4d6-4f90-b8de-3fdd35a09846","countryCode":"VN","state":"8c8efabb-2ae9-4b5d-ab6c-be29a3207ef3","stateCode":"58","latitude":"11.81142000","longitude":"106.99670000"},{"id":"48fafb22-5aa2-4e99-9f4e-24437dc8ae0c","name":"Huyện Bắc Bình","ru":"Huyện Bắc Bình","country":"72eabe88-a4d6-4f90-b8de-3fdd35a09846","countryCode":"VN","state":"a9575933-34ca-4cae-b816-015beabcd956","stateCode":"40","latitude":"11.27571000","longitude":"108.38506000"},{"id":"909a60e5-6088-4ded-b835-c96bb9971f21","name":"Huyện Hàm Tân","ru":"Huyện Hàm Tân","country":"72eabe88-a4d6-4f90-b8de-3fdd35a09846","countryCode":"VN","state":"a9575933-34ca-4cae-b816-015beabcd956","stateCode":"40","latitude":"10.76856000","longitude":"107.64233000"},{"id":"67069e92-7789-4379-96a2-acc126494a44","name":"Huyện Hàm Thuận Bắc","ru":"Huyện Hàm Thuận Bắc","country":"72eabe88-a4d6-4f90-b8de-3fdd35a09846","countryCode":"VN","state":"a9575933-34ca-4cae-b816-015beabcd956","stateCode":"40","latitude":"11.14703000","longitude":"108.08172000"},{"id":"ad3c310a-98c5-409e-80ef-f2d5937ddac5","name":"Huyện Hàm Thuận Nam","ru":"Huyện Hàm Thuận Nam","country":"72eabe88-a4d6-4f90-b8de-3fdd35a09846","countryCode":"VN","state":"a9575933-34ca-4cae-b816-015beabcd956","stateCode":"40","latitude":"10.92101000","longitude":"107.93325000"},{"id":"7a5bca92-8ef4-472c-8e98-9d9d2961f1cd","name":"Huyện Tánh Linh","ru":"Huyện Tánh Linh","country":"72eabe88-a4d6-4f90-b8de-3fdd35a09846","countryCode":"VN","state":"a9575933-34ca-4cae-b816-015beabcd956","stateCode":"40","latitude":"11.11367000","longitude":"107.68427000"},{"id":"fef7cecb-7986-48da-9b95-c46bb5836281","name":"Huyện Tuy Phong","ru":"Huyện Tuy Phong","country":"72eabe88-a4d6-4f90-b8de-3fdd35a09846","countryCode":"VN","state":"a9575933-34ca-4cae-b816-015beabcd956","stateCode":"40","latitude":"11.34746000","longitude":"108.70466000"},{"id":"a24b6bfe-0d70-4db5-885c-dc67813ec37a","name":"La Gi","ru":"La Gi","country":"72eabe88-a4d6-4f90-b8de-3fdd35a09846","countryCode":"VN","state":"a9575933-34ca-4cae-b816-015beabcd956","stateCode":"40","latitude":"10.65993000","longitude":"107.77206000"},{"id":"16f464d1-1b40-435c-87f5-60084c8a63e4","name":"Phan Thiết","ru":"Phan Thiết","country":"72eabe88-a4d6-4f90-b8de-3fdd35a09846","countryCode":"VN","state":"a9575933-34ca-4cae-b816-015beabcd956","stateCode":"40","latitude":"10.92889000","longitude":"108.10208000"},{"id":"4f7fbe46-5323-4fa6-aee3-ef2a5b92ec97","name":"Thành Phố Phan Thiết","ru":"Thành Phố Phan Thiết","country":"72eabe88-a4d6-4f90-b8de-3fdd35a09846","countryCode":"VN","state":"a9575933-34ca-4cae-b816-015beabcd956","stateCode":"40","latitude":"10.93700000","longitude":"108.15778000"},{"id":"c329761c-835b-47a4-b2bf-75477076198f","name":"Bạc Liêu","ru":"Bạc Liêu","country":"72eabe88-a4d6-4f90-b8de-3fdd35a09846","countryCode":"VN","state":"0a41dadc-2d96-4b3f-bea1-03b2ed581fd5","stateCode":"55","latitude":"9.29414000","longitude":"105.72776000"},{"id":"e92e4451-ead5-412b-b00c-1dcdd335d9bc","name":"Huyện Giá Rai","ru":"Huyện Giá Rai","country":"72eabe88-a4d6-4f90-b8de-3fdd35a09846","countryCode":"VN","state":"0a41dadc-2d96-4b3f-bea1-03b2ed581fd5","stateCode":"55","latitude":"9.27162000","longitude":"105.40017000"},{"id":"84cd3550-89f6-4898-a9df-95597adfc567","name":"Huyện Hồng Dân","ru":"Huyện Hồng Dân","country":"72eabe88-a4d6-4f90-b8de-3fdd35a09846","countryCode":"VN","state":"0a41dadc-2d96-4b3f-bea1-03b2ed581fd5","stateCode":"55","latitude":"9.53822000","longitude":"105.42242000"},{"id":"af6d32a0-73c7-420d-a6d7-90eb2831ff28","name":"Bắc Giang","ru":"Bắc Giang","country":"72eabe88-a4d6-4f90-b8de-3fdd35a09846","countryCode":"VN","state":"3a4f8865-60ca-47cb-b5fa-0b478b0733cf","stateCode":"54","latitude":"21.27307000","longitude":"106.19460000"},{"id":"f588738a-53df-4271-b874-4c306e3a9b73","name":"Huyện Lục Nam","ru":"Huyện Lục Nam","country":"72eabe88-a4d6-4f90-b8de-3fdd35a09846","countryCode":"VN","state":"3a4f8865-60ca-47cb-b5fa-0b478b0733cf","stateCode":"54","latitude":"21.27548000","longitude":"106.46519000"},{"id":"ead5d007-33b3-4337-8cba-17c62ed22211","name":"Huyện Lục Ngạn","ru":"Huyện Lục Ngạn","country":"72eabe88-a4d6-4f90-b8de-3fdd35a09846","countryCode":"VN","state":"3a4f8865-60ca-47cb-b5fa-0b478b0733cf","stateCode":"54","latitude":"21.43719000","longitude":"106.65845000"},{"id":"fda24d5c-bdee-49a5-9a5d-4502705a9073","name":"Huyện Yên Thế","ru":"Huyện Yên Thế","country":"72eabe88-a4d6-4f90-b8de-3fdd35a09846","countryCode":"VN","state":"3a4f8865-60ca-47cb-b5fa-0b478b0733cf","stateCode":"54","latitude":"21.51667000","longitude":"106.11689000"},{"id":"71e0128f-9b33-43be-b151-7c1698221bbf","name":"Bắc Kạn","ru":"Bắc Kạn","country":"72eabe88-a4d6-4f90-b8de-3fdd35a09846","countryCode":"VN","state":"6b507d88-c0ef-4977-9050-d288f0b73158","stateCode":"53","latitude":"22.14701000","longitude":"105.83481000"},{"id":"6bed6c95-ab4e-4b24-a948-cc2a79d382f5","name":"Huyện Ba Bể","ru":"Huyện Ba Bể","country":"72eabe88-a4d6-4f90-b8de-3fdd35a09846","countryCode":"VN","state":"6b507d88-c0ef-4977-9050-d288f0b73158","stateCode":"53","latitude":"22.41667000","longitude":"105.75000000"},{"id":"c098b507-8c07-496e-8a7a-b1938bbb18f1","name":"Huyện Bạch Thông","ru":"Huyện Bạch Thông","country":"72eabe88-a4d6-4f90-b8de-3fdd35a09846","countryCode":"VN","state":"6b507d88-c0ef-4977-9050-d288f0b73158","stateCode":"53","latitude":"22.25758000","longitude":"105.83295000"},{"id":"6bf9a98f-628b-454c-ab5d-2f96e25ebcab","name":"Huyện Chợ Đồn","ru":"Huyện Chợ Đồn","country":"72eabe88-a4d6-4f90-b8de-3fdd35a09846","countryCode":"VN","state":"6b507d88-c0ef-4977-9050-d288f0b73158","stateCode":"53","latitude":"22.18681000","longitude":"105.57280000"},{"id":"659d295e-4fca-40a3-8b5d-80c5e7d2be55","name":"Huyện Na Rì","ru":"Huyện Na Rì","country":"72eabe88-a4d6-4f90-b8de-3fdd35a09846","countryCode":"VN","state":"6b507d88-c0ef-4977-9050-d288f0b73158","stateCode":"53","latitude":"22.17883000","longitude":"106.11221000"},{"id":"187c4448-09e9-4fa7-a69a-196c8d58afa7","name":"Huyện Ngân Sơn","ru":"Huyện Ngân Sơn","country":"72eabe88-a4d6-4f90-b8de-3fdd35a09846","countryCode":"VN","state":"6b507d88-c0ef-4977-9050-d288f0b73158","stateCode":"53","latitude":"22.42962000","longitude":"106.01030000"},{"id":"0c80e50b-37a7-44cf-be71-b5118d8c10d1","name":"Thị Xã Bắc Kạn","ru":"Thị Xã Bắc Kạn","country":"72eabe88-a4d6-4f90-b8de-3fdd35a09846","countryCode":"VN","state":"6b507d88-c0ef-4977-9050-d288f0b73158","stateCode":"53","latitude":"22.14130000","longitude":"105.83867000"},{"id":"921ace81-88c6-4469-a853-68ca26953273","name":"Bắc Ninh","ru":"Bắc Ninh","country":"72eabe88-a4d6-4f90-b8de-3fdd35a09846","countryCode":"VN","state":"2f95f43a-48fc-48f2-9b52-db017e68020e","stateCode":"56","latitude":"21.18608000","longitude":"106.07631000"},{"id":"b6b91ce1-04ee-481a-9b4a-472e47acbe28","name":"Cung Kiệm","ru":"Cung Kiệm","country":"72eabe88-a4d6-4f90-b8de-3fdd35a09846","countryCode":"VN","state":"2f95f43a-48fc-48f2-9b52-db017e68020e","stateCode":"56","latitude":"21.18697000","longitude":"106.16076000"},{"id":"6ef51d9c-d585-49e8-9e00-a233b391ecdb","name":"Huyện Gia Bình","ru":"Huyện Gia Bình","country":"72eabe88-a4d6-4f90-b8de-3fdd35a09846","countryCode":"VN","state":"2f95f43a-48fc-48f2-9b52-db017e68020e","stateCode":"56","latitude":"21.07795000","longitude":"106.20903000"},{"id":"664e7657-ad1d-45d7-b600-fc5f2b0c30d8","name":"Huyện Thuận Thành","ru":"Huyện Thuận Thành","country":"72eabe88-a4d6-4f90-b8de-3fdd35a09846","countryCode":"VN","state":"2f95f43a-48fc-48f2-9b52-db017e68020e","stateCode":"56","latitude":"21.04085000","longitude":"106.07515000"},{"id":"bc785b19-2921-4cf5-869c-7bf62d7efa6d","name":"Huyện Tiên Du","ru":"Huyện Tiên Du","country":"72eabe88-a4d6-4f90-b8de-3fdd35a09846","countryCode":"VN","state":"2f95f43a-48fc-48f2-9b52-db017e68020e","stateCode":"56","latitude":"21.12195000","longitude":"106.03995000"},{"id":"bb4a6c00-726a-4666-877c-58cc40d21249","name":"Huyện Yên Phong","ru":"Huyện Yên Phong","country":"72eabe88-a4d6-4f90-b8de-3fdd35a09846","countryCode":"VN","state":"2f95f43a-48fc-48f2-9b52-db017e68020e","stateCode":"56","latitude":"21.20676000","longitude":"105.99427000"},{"id":"54b5d2ba-a239-48c7-af03-2dfd3e3733b9","name":"Ấp Tân Ngãi","ru":"Ấp Tân Ngãi","country":"72eabe88-a4d6-4f90-b8de-3fdd35a09846","countryCode":"VN","state":"51626ae2-6d7f-4a32-9c0e-da6f7fb6fd8b","stateCode":"50","latitude":"10.23333000","longitude":"106.28333000"},{"id":"ae4ff644-afc5-4115-ba62-77f50f9dbcc6","name":"Bến Tre","ru":"Bến Tre","country":"72eabe88-a4d6-4f90-b8de-3fdd35a09846","countryCode":"VN","state":"51626ae2-6d7f-4a32-9c0e-da6f7fb6fd8b","stateCode":"50","latitude":"10.24147000","longitude":"106.37585000"},{"id":"3cb6fcfe-4996-4540-bbf6-3983e16f9c7d","name":"Huyện Ba Tri","ru":"Huyện Ba Tri","country":"72eabe88-a4d6-4f90-b8de-3fdd35a09846","countryCode":"VN","state":"51626ae2-6d7f-4a32-9c0e-da6f7fb6fd8b","stateCode":"50","latitude":"10.06627000","longitude":"106.60554000"},{"id":"41236e1b-0d82-476f-bf41-edc7bbfa4ddf","name":"Huyện Bình Đại","ru":"Huyện Bình Đại","country":"72eabe88-a4d6-4f90-b8de-3fdd35a09846","countryCode":"VN","state":"51626ae2-6d7f-4a32-9c0e-da6f7fb6fd8b","stateCode":"50","latitude":"10.19354000","longitude":"106.64455000"},{"id":"7814c56c-fad2-4b81-aaad-08ae2c46ebc8","name":"Huyện Châu Thành","ru":"Huyện Châu Thành","country":"72eabe88-a4d6-4f90-b8de-3fdd35a09846","countryCode":"VN","state":"51626ae2-6d7f-4a32-9c0e-da6f7fb6fd8b","stateCode":"50","latitude":"10.29212000","longitude":"106.30827000"},{"id":"6b4f8b5b-edfc-4e35-94df-b0d2bd03a68a","name":"Huyện Chợ Lách","ru":"Huyện Chợ Lách","country":"72eabe88-a4d6-4f90-b8de-3fdd35a09846","countryCode":"VN","state":"51626ae2-6d7f-4a32-9c0e-da6f7fb6fd8b","stateCode":"50","latitude":"10.22674000","longitude":"106.17077000"},{"id":"2c1f8dfb-bb17-4c47-a79b-6e4d59bd8ba3","name":"Huyện Giồng Trôm","ru":"Huyện Giồng Trôm","country":"72eabe88-a4d6-4f90-b8de-3fdd35a09846","countryCode":"VN","state":"51626ae2-6d7f-4a32-9c0e-da6f7fb6fd8b","stateCode":"50","latitude":"10.15909000","longitude":"106.47004000"},{"id":"0261de2b-1f68-4af1-83c0-a25e5b6ab679","name":"Huyện Thạnh Phú","ru":"Huyện Thạnh Phú","country":"72eabe88-a4d6-4f90-b8de-3fdd35a09846","countryCode":"VN","state":"51626ae2-6d7f-4a32-9c0e-da6f7fb6fd8b","stateCode":"50","latitude":"9.92993000","longitude":"106.54316000"},{"id":"988ff4ae-d644-4e84-b127-c42cb845e2d2","name":"Cao Bằng","ru":"Cao Bằng","country":"72eabe88-a4d6-4f90-b8de-3fdd35a09846","countryCode":"VN","state":"39d8b968-cbbd-4a9c-ba11-69865518133f","stateCode":"04","latitude":"22.66568000","longitude":"106.25786000"},{"id":"c499cb42-e858-4f2e-b77b-9b0d34b2ff74","name":"Huyện Bảo Lac","ru":"Huyện Bảo Lac","country":"72eabe88-a4d6-4f90-b8de-3fdd35a09846","countryCode":"VN","state":"39d8b968-cbbd-4a9c-ba11-69865518133f","stateCode":"04","latitude":"22.90085000","longitude":"105.73332000"},{"id":"100aa612-f7d5-445c-9042-adb82cbf7666","name":"Huyện Bảo Lâm","ru":"Huyện Bảo Lâm","country":"72eabe88-a4d6-4f90-b8de-3fdd35a09846","countryCode":"VN","state":"39d8b968-cbbd-4a9c-ba11-69865518133f","stateCode":"04","latitude":"22.87041000","longitude":"105.48780000"},{"id":"12e7f87a-0730-4c15-aa93-d17c208c524a","name":"Huyện Hà Quảng","ru":"Huyện Hà Quảng","country":"72eabe88-a4d6-4f90-b8de-3fdd35a09846","countryCode":"VN","state":"39d8b968-cbbd-4a9c-ba11-69865518133f","stateCode":"04","latitude":"22.90763000","longitude":"106.12487000"},{"id":"ca7478e2-ff1a-4058-8345-70581d87847b","name":"Huyện Hạ Lang","ru":"Huyện Hạ Lang","country":"72eabe88-a4d6-4f90-b8de-3fdd35a09846","countryCode":"VN","state":"39d8b968-cbbd-4a9c-ba11-69865518133f","stateCode":"04","latitude":"22.70933000","longitude":"106.67657000"},{"id":"943da9a4-481d-483b-8bbf-b21ae6fd7bda","name":"Huyện Nguyên Bình","ru":"Huyện Nguyên Bình","country":"72eabe88-a4d6-4f90-b8de-3fdd35a09846","countryCode":"VN","state":"39d8b968-cbbd-4a9c-ba11-69865518133f","stateCode":"04","latitude":"22.62400000","longitude":"105.93248000"},{"id":"4534f001-9818-445a-9ea1-9c2230762087","name":"Huyện Thông Nông","ru":"Huyện Thông Nông","country":"72eabe88-a4d6-4f90-b8de-3fdd35a09846","countryCode":"VN","state":"39d8b968-cbbd-4a9c-ba11-69865518133f","stateCode":"04","latitude":"22.80735000","longitude":"105.95846000"},{"id":"b7c1220d-ebdb-4310-b906-ac56761deb43","name":"Huyện Thạch An","ru":"Huyện Thạch An","country":"72eabe88-a4d6-4f90-b8de-3fdd35a09846","countryCode":"VN","state":"39d8b968-cbbd-4a9c-ba11-69865518133f","stateCode":"04","latitude":"22.47654000","longitude":"106.34237000"},{"id":"018d2afb-cb70-42f1-8df5-5b99524e9b14","name":"Huyện Trà Lĩnh","ru":"Huyện Trà Lĩnh","country":"72eabe88-a4d6-4f90-b8de-3fdd35a09846","countryCode":"VN","state":"39d8b968-cbbd-4a9c-ba11-69865518133f","stateCode":"04","latitude":"22.80961000","longitude":"106.32543000"},{"id":"080a8866-ca74-424d-8201-b82cdf7548bd","name":"Huyện Trùng Khánh","ru":"Huyện Trùng Khánh","country":"72eabe88-a4d6-4f90-b8de-3fdd35a09846","countryCode":"VN","state":"39d8b968-cbbd-4a9c-ba11-69865518133f","stateCode":"04","latitude":"22.83333000","longitude":"106.56074000"},{"id":"ba7ea4b5-f087-41d0-82df-0ad7280eff99","name":"Huyen Phuc Hoa","ru":"Huyen Phuc Hoa","country":"72eabe88-a4d6-4f90-b8de-3fdd35a09846","countryCode":"VN","state":"39d8b968-cbbd-4a9c-ba11-69865518133f","stateCode":"04","latitude":"22.53840000","longitude":"106.51039000"},{"id":"f7d9b5bf-b8f3-40ad-9ce2-791bcc53a4b6","name":"Cà Mau","ru":"Cà Mau","country":"72eabe88-a4d6-4f90-b8de-3fdd35a09846","countryCode":"VN","state":"b6699e43-32ab-43ce-8c69-a866c3ea2c8c","stateCode":"59","latitude":"9.17682000","longitude":"105.15242000"},{"id":"c334cbd5-6d57-4149-9d49-2bf54bde769e","name":"Huyện Đầm Dơi","ru":"Huyện Đầm Dơi","country":"72eabe88-a4d6-4f90-b8de-3fdd35a09846","countryCode":"VN","state":"b6699e43-32ab-43ce-8c69-a866c3ea2c8c","stateCode":"59","latitude":"8.96029000","longitude":"105.24107000"},{"id":"f2e0d4e0-3bb7-4bd9-83a8-25283afdac48","name":"Huyện Cái Nước","ru":"Huyện Cái Nước","country":"72eabe88-a4d6-4f90-b8de-3fdd35a09846","countryCode":"VN","state":"b6699e43-32ab-43ce-8c69-a866c3ea2c8c","stateCode":"59","latitude":"9.00094000","longitude":"105.04201000"},{"id":"30cd86a1-08f1-4c52-95e9-f9451c8187df","name":"Huyện Thới Bình","ru":"Huyện Thới Bình","country":"72eabe88-a4d6-4f90-b8de-3fdd35a09846","countryCode":"VN","state":"b6699e43-32ab-43ce-8c69-a866c3ea2c8c","stateCode":"59","latitude":"9.35790000","longitude":"105.16023000"},{"id":"c2167e9c-6412-4722-a815-a0cc23d5b3f3","name":"Huyen Nam Can","ru":"Huyen Nam Can","country":"72eabe88-a4d6-4f90-b8de-3fdd35a09846","countryCode":"VN","state":"b6699e43-32ab-43ce-8c69-a866c3ea2c8c","stateCode":"59","latitude":"8.81531000","longitude":"105.05574000"},{"id":"a5b9343f-28bd-4f06-be5f-1d8c90212a33","name":"Da Nang","ru":"Da Nang","country":"72eabe88-a4d6-4f90-b8de-3fdd35a09846","countryCode":"VN","state":"277414f1-956e-4b4e-9fef-f633d899b1bd","stateCode":"DN","latitude":"16.06778000","longitude":"108.22083000"},{"id":"ea741955-cf00-4ebe-a2a8-90d28f060c05","name":"Huyện Đức Cơ","ru":"Huyện Đức Cơ","country":"72eabe88-a4d6-4f90-b8de-3fdd35a09846","countryCode":"VN","state":"776fe5f7-16a4-499c-86df-d69cb3ee15ae","stateCode":"30","latitude":"13.78454000","longitude":"107.66970000"},{"id":"1b6f6144-a1b4-442d-8582-a8e290cafb50","name":"Huyện Chư Păh","ru":"Huyện Chư Păh","country":"72eabe88-a4d6-4f90-b8de-3fdd35a09846","countryCode":"VN","state":"776fe5f7-16a4-499c-86df-d69cb3ee15ae","stateCode":"30","latitude":"14.15941000","longitude":"107.98411000"},{"id":"8ed1ed72-301d-495d-bc76-d194795eab0e","name":"Huyện Chư Prông","ru":"Huyện Chư Prông","country":"72eabe88-a4d6-4f90-b8de-3fdd35a09846","countryCode":"VN","state":"776fe5f7-16a4-499c-86df-d69cb3ee15ae","stateCode":"30","latitude":"13.59976000","longitude":"107.81099000"},{"id":"481e8a6e-3a74-4686-a1b0-9e4f65caad23","name":"Huyện Chư Sê","ru":"Huyện Chư Sê","country":"72eabe88-a4d6-4f90-b8de-3fdd35a09846","countryCode":"VN","state":"776fe5f7-16a4-499c-86df-d69cb3ee15ae","stateCode":"30","latitude":"13.74254000","longitude":"108.08663000"},{"id":"f14ea087-7a51-47a2-b3b9-128a46e19489","name":"Huyện Ia Grai","ru":"Huyện Ia Grai","country":"72eabe88-a4d6-4f90-b8de-3fdd35a09846","countryCode":"VN","state":"776fe5f7-16a4-499c-86df-d69cb3ee15ae","stateCode":"30","latitude":"13.98937000","longitude":"107.73740000"},{"id":"1e83a1b2-681e-450a-8bff-4f90b39816c9","name":"Huyện Kông Chro","ru":"Huyện Kông Chro","country":"72eabe88-a4d6-4f90-b8de-3fdd35a09846","countryCode":"VN","state":"776fe5f7-16a4-499c-86df-d69cb3ee15ae","stateCode":"30","latitude":"13.73519000","longitude":"108.59697000"},{"id":"dc01a2cb-5f04-4875-b915-abc2848d372e","name":"Huyện KBang","ru":"Huyện KBang","country":"72eabe88-a4d6-4f90-b8de-3fdd35a09846","countryCode":"VN","state":"776fe5f7-16a4-499c-86df-d69cb3ee15ae","stateCode":"30","latitude":"14.30506000","longitude":"108.49779000"},{"id":"03a84963-6579-46a0-bff3-0a843cecd33d","name":"Huyện Krông Pa","ru":"Huyện Krông Pa","country":"72eabe88-a4d6-4f90-b8de-3fdd35a09846","countryCode":"VN","state":"776fe5f7-16a4-499c-86df-d69cb3ee15ae","stateCode":"30","latitude":"13.23152000","longitude":"108.65494000"},{"id":"91144292-4249-4e16-9807-8cba5777b3e7","name":"Huyện Mang Yang","ru":"Huyện Mang Yang","country":"72eabe88-a4d6-4f90-b8de-3fdd35a09846","countryCode":"VN","state":"776fe5f7-16a4-499c-86df-d69cb3ee15ae","stateCode":"30","latitude":"13.92840000","longitude":"108.30246000"},{"id":"b68c71f9-ef48-482b-95ed-567e11876509","name":"Pleiku","ru":"Pleiku","country":"72eabe88-a4d6-4f90-b8de-3fdd35a09846","countryCode":"VN","state":"776fe5f7-16a4-499c-86df-d69cb3ee15ae","stateCode":"30","latitude":"13.98333000","longitude":"108.00000000"},{"id":"bfd0f41e-db9b-47b5-960b-ff847dbd54f3","name":"Cát Bà","ru":"Cát Bà","country":"72eabe88-a4d6-4f90-b8de-3fdd35a09846","countryCode":"VN","state":"6070a750-9b5b-4805-9eef-5928559cc657","stateCode":"HP","latitude":"20.72779000","longitude":"107.04819000"},{"id":"728e90a6-8e03-47b3-90d1-05f3b0474a3c","name":"Haiphong","ru":"Haiphong","country":"72eabe88-a4d6-4f90-b8de-3fdd35a09846","countryCode":"VN","state":"6070a750-9b5b-4805-9eef-5928559cc657","stateCode":"HP","latitude":"20.86481000","longitude":"106.68345000"},{"id":"573a89d7-78e5-486d-a807-bade46e43ad0","name":"Hanoi","ru":"Hanoi","country":"72eabe88-a4d6-4f90-b8de-3fdd35a09846","countryCode":"VN","state":"16da20a7-6851-43cb-99b1-a9a8020d27d1","stateCode":"HN","latitude":"21.02450000","longitude":"105.84117000"},{"id":"6e66edbb-eadc-4f2b-b872-9c2a518bd720","name":"Hà Đông","ru":"Hà Đông","country":"72eabe88-a4d6-4f90-b8de-3fdd35a09846","countryCode":"VN","state":"16da20a7-6851-43cb-99b1-a9a8020d27d1","stateCode":"HN","latitude":"20.97136000","longitude":"105.77876000"},{"id":"ab984460-35b1-43e8-a476-01dd6fddb0e4","name":"Huyện Quốc Oai","ru":"Huyện Quốc Oai","country":"72eabe88-a4d6-4f90-b8de-3fdd35a09846","countryCode":"VN","state":"16da20a7-6851-43cb-99b1-a9a8020d27d1","stateCode":"HN","latitude":"20.97060000","longitude":"105.61127000"},{"id":"77eaba55-e13a-40a6-88fe-4aa756fdeead","name":"Quận Ba Đình","ru":"Quận Ba Đình","country":"72eabe88-a4d6-4f90-b8de-3fdd35a09846","countryCode":"VN","state":"16da20a7-6851-43cb-99b1-a9a8020d27d1","stateCode":"HN","latitude":"21.03587000","longitude":"105.82163000"},{"id":"7c13081b-ec30-4832-ac3c-517af42077d9","name":"Quận Hà Đông","ru":"Quận Hà Đông","country":"72eabe88-a4d6-4f90-b8de-3fdd35a09846","countryCode":"VN","state":"16da20a7-6851-43cb-99b1-a9a8020d27d1","stateCode":"HN","latitude":"20.95482000","longitude":"105.76851000"},{"id":"dba4c6bc-9f25-4ebc-a668-954b5142adc2","name":"Sơn Tây","ru":"Sơn Tây","country":"72eabe88-a4d6-4f90-b8de-3fdd35a09846","countryCode":"VN","state":"16da20a7-6851-43cb-99b1-a9a8020d27d1","stateCode":"HN","latitude":"21.14053000","longitude":"105.50686000"},{"id":"8f4ecf66-7cd3-44f4-9601-49c7d6df0ee7","name":"Hà Giang","ru":"Hà Giang","country":"72eabe88-a4d6-4f90-b8de-3fdd35a09846","countryCode":"VN","state":"b536ebf4-8b0d-48f7-8810-1829c0c380b4","stateCode":"03","latitude":"22.82333000","longitude":"104.98357000"},{"id":"4226e063-d5f5-4327-adda-3364a6b9b201","name":"Huyện Đồng Văn","ru":"Huyện Đồng Văn","country":"72eabe88-a4d6-4f90-b8de-3fdd35a09846","countryCode":"VN","state":"b536ebf4-8b0d-48f7-8810-1829c0c380b4","stateCode":"03","latitude":"23.25449000","longitude":"105.27626000"},{"id":"aa4f1530-5ba9-4b0f-91c4-3166d9b24985","name":"Huyện Bắc Mê","ru":"Huyện Bắc Mê","country":"72eabe88-a4d6-4f90-b8de-3fdd35a09846","countryCode":"VN","state":"b536ebf4-8b0d-48f7-8810-1829c0c380b4","stateCode":"03","latitude":"22.75477000","longitude":"105.29023000"},{"id":"ec1de39b-3b6f-411e-b098-744d6643e740","name":"Huyện Bắc Quang","ru":"Huyện Bắc Quang","country":"72eabe88-a4d6-4f90-b8de-3fdd35a09846","countryCode":"VN","state":"b536ebf4-8b0d-48f7-8810-1829c0c380b4","stateCode":"03","latitude":"22.42301000","longitude":"104.91831000"},{"id":"dd5ef7f2-ccbf-4fdd-be8c-320dfcce6330","name":"Huyện Quang Bình","ru":"Huyện Quang Bình","country":"72eabe88-a4d6-4f90-b8de-3fdd35a09846","countryCode":"VN","state":"b536ebf4-8b0d-48f7-8810-1829c0c380b4","stateCode":"03","latitude":"22.41507000","longitude":"104.66018000"},{"id":"4c0635ff-1db4-4a34-ada0-c95dd9ab301e","name":"Huyện Vị Xuyên","ru":"Huyện Vị Xuyên","country":"72eabe88-a4d6-4f90-b8de-3fdd35a09846","countryCode":"VN","state":"b536ebf4-8b0d-48f7-8810-1829c0c380b4","stateCode":"03","latitude":"22.73096000","longitude":"104.90827000"},{"id":"ab7c70cb-8ef0-4150-90c4-241765fcac73","name":"Huyện Xín Mần","ru":"Huyện Xín Mần","country":"72eabe88-a4d6-4f90-b8de-3fdd35a09846","countryCode":"VN","state":"b536ebf4-8b0d-48f7-8810-1829c0c380b4","stateCode":"03","latitude":"22.64148000","longitude":"104.52089000"},{"id":"fffbc054-c067-47b0-9b67-59543d14d1ef","name":"Huyện Yên Minh","ru":"Huyện Yên Minh","country":"72eabe88-a4d6-4f90-b8de-3fdd35a09846","countryCode":"VN","state":"b536ebf4-8b0d-48f7-8810-1829c0c380b4","stateCode":"03","latitude":"23.06992000","longitude":"105.17865000"},{"id":"683cdf92-8654-4971-ac83-74018c8be0f3","name":"Huyện Bình Lục","ru":"Huyện Bình Lục","country":"72eabe88-a4d6-4f90-b8de-3fdd35a09846","countryCode":"VN","state":"0c5c9dc2-6bfe-4a65-a229-b27e8d640112","stateCode":"63","latitude":"20.50126000","longitude":"106.02959000"},{"id":"770223dc-d6f4-41fb-96b3-c2bf3b0d6bb5","name":"Huyện Duy Tiên","ru":"Huyện Duy Tiên","country":"72eabe88-a4d6-4f90-b8de-3fdd35a09846","countryCode":"VN","state":"0c5c9dc2-6bfe-4a65-a229-b27e8d640112","stateCode":"63","latitude":"20.62803000","longitude":"105.96193000"},{"id":"995e9f62-986c-4032-af22-e2b1c5c13b46","name":"Huyện Kim Bảng","ru":"Huyện Kim Bảng","country":"72eabe88-a4d6-4f90-b8de-3fdd35a09846","countryCode":"VN","state":"0c5c9dc2-6bfe-4a65-a229-b27e8d640112","stateCode":"63","latitude":"20.57254000","longitude":"105.85043000"},{"id":"9c16a81d-02e8-4b76-a7b6-ba452cbe99f4","name":"Huyện Lý Nhân","ru":"Huyện Lý Nhân","country":"72eabe88-a4d6-4f90-b8de-3fdd35a09846","countryCode":"VN","state":"0c5c9dc2-6bfe-4a65-a229-b27e8d640112","stateCode":"63","latitude":"20.56422000","longitude":"106.09455000"},{"id":"89281f7b-ce7b-4493-8147-6fa88f0fc9c7","name":"Huyện Thanh Liêm","ru":"Huyện Thanh Liêm","country":"72eabe88-a4d6-4f90-b8de-3fdd35a09846","countryCode":"VN","state":"0c5c9dc2-6bfe-4a65-a229-b27e8d640112","stateCode":"63","latitude":"20.46249000","longitude":"105.92100000"},{"id":"df7374df-6041-4b60-83c8-96f5a6b84f41","name":"Phủ Lý","ru":"Phủ Lý","country":"72eabe88-a4d6-4f90-b8de-3fdd35a09846","countryCode":"VN","state":"0c5c9dc2-6bfe-4a65-a229-b27e8d640112","stateCode":"63","latitude":"20.54531000","longitude":"105.91221000"},{"id":"7ea20c1a-6bdd-4325-97e2-a15fe2d7e074","name":"Phù Ninh","ru":"Phù Ninh","country":"72eabe88-a4d6-4f90-b8de-3fdd35a09846","countryCode":"VN","state":"d2fce315-bc4e-416f-9b76-8fbec809fd0b","stateCode":"15","latitude":"21.08333000","longitude":"105.95000000"},{"id":"d327274b-f1f8-4903-be7e-84c0e3bcb67a","name":"Hà Tĩnh","ru":"Hà Tĩnh","country":"72eabe88-a4d6-4f90-b8de-3fdd35a09846","countryCode":"VN","state":"4e1b430f-25b9-4428-a926-d551971ae84d","stateCode":"23","latitude":"18.34282000","longitude":"105.90569000"},{"id":"c841db7e-35a9-498d-83f8-14051888e6d9","name":"Huyện Ðức Thọ","ru":"Huyện Ðức Thọ","country":"72eabe88-a4d6-4f90-b8de-3fdd35a09846","countryCode":"VN","state":"4e1b430f-25b9-4428-a926-d551971ae84d","stateCode":"23","latitude":"18.49699000","longitude":"105.61016000"},{"id":"5375a5fc-278d-487b-b027-9ca096a2db5e","name":"Huyện Can Lộc","ru":"Huyện Can Lộc","country":"72eabe88-a4d6-4f90-b8de-3fdd35a09846","countryCode":"VN","state":"4e1b430f-25b9-4428-a926-d551971ae84d","stateCode":"23","latitude":"18.44414000","longitude":"105.76350000"},{"id":"5a3d4117-d959-4e14-8870-39954005fc21","name":"Huyện Cẩm Xuyên","ru":"Huyện Cẩm Xuyên","country":"72eabe88-a4d6-4f90-b8de-3fdd35a09846","countryCode":"VN","state":"4e1b430f-25b9-4428-a926-d551971ae84d","stateCode":"23","latitude":"18.19059000","longitude":"106.00186000"},{"id":"642c0c99-f31d-438c-9b64-5bd7f30c0917","name":"Huyện Kỳ Anh","ru":"Huyện Kỳ Anh","country":"72eabe88-a4d6-4f90-b8de-3fdd35a09846","countryCode":"VN","state":"4e1b430f-25b9-4428-a926-d551971ae84d","stateCode":"23","latitude":"18.05805000","longitude":"106.24580000"},{"id":"103430ad-4a72-4901-9ec8-d4e5f41052dc","name":"Huyện Nghi Xuân","ru":"Huyện Nghi Xuân","country":"72eabe88-a4d6-4f90-b8de-3fdd35a09846","countryCode":"VN","state":"4e1b430f-25b9-4428-a926-d551971ae84d","stateCode":"23","latitude":"18.62419000","longitude":"105.76829000"},{"id":"ffd5206d-a5b6-4309-9306-25d136f1cc55","name":"Huyện Thạch Hà","ru":"Huyện Thạch Hà","country":"72eabe88-a4d6-4f90-b8de-3fdd35a09846","countryCode":"VN","state":"4e1b430f-25b9-4428-a926-d551971ae84d","stateCode":"23","latitude":"18.35091000","longitude":"105.81123000"},{"id":"03f54910-5d20-4cd5-a8b6-b88957f7f8e3","name":"Hòa Bình","ru":"Hòa Bình","country":"72eabe88-a4d6-4f90-b8de-3fdd35a09846","countryCode":"VN","state":"1521c1d4-45ba-4f82-862f-ab11223f920e","stateCode":"14","latitude":"20.81717000","longitude":"105.33759000"},{"id":"294b4dae-9538-4228-aeb4-85dba668e19e","name":"Huyện Cao Phong","ru":"Huyện Cao Phong","country":"72eabe88-a4d6-4f90-b8de-3fdd35a09846","countryCode":"VN","state":"1521c1d4-45ba-4f82-862f-ab11223f920e","stateCode":"14","latitude":"20.69532000","longitude":"105.33559000"},{"id":"2dab9d3f-ac32-44f3-90f3-7ec05b160ab3","name":"Huyện Kỳ Sơn","ru":"Huyện Kỳ Sơn","country":"72eabe88-a4d6-4f90-b8de-3fdd35a09846","countryCode":"VN","state":"1521c1d4-45ba-4f82-862f-ab11223f920e","stateCode":"14","latitude":"20.89631000","longitude":"105.39659000"},{"id":"37028d63-d198-4fcc-b252-edfcbd3c90cb","name":"Huyện Lạc Thủy","ru":"Huyện Lạc Thủy","country":"72eabe88-a4d6-4f90-b8de-3fdd35a09846","countryCode":"VN","state":"1521c1d4-45ba-4f82-862f-ab11223f920e","stateCode":"14","latitude":"20.49794000","longitude":"105.74092000"},{"id":"ae42d738-6766-4fc0-955d-7d5bd980b6ee","name":"Huyện Lương Sơn","ru":"Huyện Lương Sơn","country":"72eabe88-a4d6-4f90-b8de-3fdd35a09846","countryCode":"VN","state":"1521c1d4-45ba-4f82-862f-ab11223f920e","stateCode":"14","latitude":"20.87650000","longitude":"105.51219000"},{"id":"fcc39e07-4713-4a0c-be10-26b064e55cfd","name":"Huyện Tân Lạc","ru":"Huyện Tân Lạc","country":"72eabe88-a4d6-4f90-b8de-3fdd35a09846","countryCode":"VN","state":"1521c1d4-45ba-4f82-862f-ab11223f920e","stateCode":"14","latitude":"20.60557000","longitude":"105.23399000"},{"id":"ecba375b-2efc-4c7c-b098-c1500c7c8a66","name":"Hải Dương","ru":"Hải Dương","country":"72eabe88-a4d6-4f90-b8de-3fdd35a09846","countryCode":"VN","state":"14475b06-5661-4a53-a880-cc94f67a3360","stateCode":"61","latitude":"20.94099000","longitude":"106.33302000"},{"id":"628af6d4-3a33-4eaa-b2e2-515d8ee417a7","name":"Huyện Bình Giang","ru":"Huyện Bình Giang","country":"72eabe88-a4d6-4f90-b8de-3fdd35a09846","countryCode":"VN","state":"14475b06-5661-4a53-a880-cc94f67a3360","stateCode":"61","latitude":"20.87586000","longitude":"106.19138000"},{"id":"1669636b-a86e-4f7f-8453-c3d3b911907d","name":"Huyện Cẩm Giàng","ru":"Huyện Cẩm Giàng","country":"72eabe88-a4d6-4f90-b8de-3fdd35a09846","countryCode":"VN","state":"14475b06-5661-4a53-a880-cc94f67a3360","stateCode":"61","latitude":"20.95000000","longitude":"106.21667000"},{"id":"85202419-ecb7-491c-9779-efa9e65fdde9","name":"Huyện Gia Lộc","ru":"Huyện Gia Lộc","country":"72eabe88-a4d6-4f90-b8de-3fdd35a09846","countryCode":"VN","state":"14475b06-5661-4a53-a880-cc94f67a3360","stateCode":"61","latitude":"20.85164000","longitude":"106.29130000"},{"id":"0a5fe41c-0af0-4eeb-ab58-4d2ff8a23709","name":"Huyện Kinh Môn","ru":"Huyện Kinh Môn","country":"72eabe88-a4d6-4f90-b8de-3fdd35a09846","countryCode":"VN","state":"14475b06-5661-4a53-a880-cc94f67a3360","stateCode":"61","latitude":"21.01634000","longitude":"106.50384000"},{"id":"a251024f-e95f-4ea5-8949-ce953da5ac13","name":"Huyện Nam Sách","ru":"Huyện Nam Sách","country":"72eabe88-a4d6-4f90-b8de-3fdd35a09846","countryCode":"VN","state":"14475b06-5661-4a53-a880-cc94f67a3360","stateCode":"61","latitude":"21.00484000","longitude":"106.34042000"},{"id":"96249253-4818-4e70-b072-72dd6605d894","name":"Huyện Thanh Miện","ru":"Huyện Thanh Miện","country":"72eabe88-a4d6-4f90-b8de-3fdd35a09846","countryCode":"VN","state":"14475b06-5661-4a53-a880-cc94f67a3360","stateCode":"61","latitude":"20.77953000","longitude":"106.22218000"},{"id":"e86fd324-73a3-45c8-b4fd-bc18b703ac73","name":"Thị Xã Chí Linh","ru":"Thị Xã Chí Linh","country":"72eabe88-a4d6-4f90-b8de-3fdd35a09846","countryCode":"VN","state":"14475b06-5661-4a53-a880-cc94f67a3360","stateCode":"61","latitude":"21.13722000","longitude":"106.39638000"},{"id":"726f4ad6-7a48-4933-b377-735af16b25eb","name":"Huyện Châu Thành A","ru":"Huyện Châu Thành A","country":"72eabe88-a4d6-4f90-b8de-3fdd35a09846","countryCode":"VN","state":"bb5c4d5f-8cba-4158-baf3-b75c2bc0b8df","stateCode":"73","latitude":"9.93056000","longitude":"105.64194000"},{"id":"a2626c7c-45ae-4cd4-b738-1b84ea4973e4","name":"Vị Thanh","ru":"Vị Thanh","country":"72eabe88-a4d6-4f90-b8de-3fdd35a09846","countryCode":"VN","state":"bb5c4d5f-8cba-4158-baf3-b75c2bc0b8df","stateCode":"73","latitude":"9.78449000","longitude":"105.47012000"},{"id":"48a8b6d2-681d-4eeb-a1cf-4c22e47b76b8","name":"Cần Giờ","ru":"Cần Giờ","country":"72eabe88-a4d6-4f90-b8de-3fdd35a09846","countryCode":"VN","state":"d1fb05ca-8df3-44c2-9c86-e6368a24e4c4","stateCode":"SG","latitude":"10.41115000","longitude":"106.95474000"},{"id":"3da42938-693d-4671-a6ae-201dd2197d8e","name":"Củ Chi","ru":"Củ Chi","country":"72eabe88-a4d6-4f90-b8de-3fdd35a09846","countryCode":"VN","state":"d1fb05ca-8df3-44c2-9c86-e6368a24e4c4","stateCode":"SG","latitude":"10.97333000","longitude":"106.49325000"},{"id":"d4a7323f-93c2-4744-b4c0-6a9f5bdb48b9","name":"Ho Chi Minh City","ru":"Ho Chi Minh City","country":"72eabe88-a4d6-4f90-b8de-3fdd35a09846","countryCode":"VN","state":"d1fb05ca-8df3-44c2-9c86-e6368a24e4c4","stateCode":"SG","latitude":"10.82302000","longitude":"106.62965000"},{"id":"728f0f40-bedc-4215-8b90-642d3456fec3","name":"Huyện Ân Thi","ru":"Huyện Ân Thi","country":"72eabe88-a4d6-4f90-b8de-3fdd35a09846","countryCode":"VN","state":"f8e86072-20e8-4817-b883-3fcd721f0172","stateCode":"66","latitude":"20.81086000","longitude":"106.09995000"},{"id":"9e6eb0cf-c441-4618-b797-cde5a4764640","name":"Huyện Khoái Châu","ru":"Huyện Khoái Châu","country":"72eabe88-a4d6-4f90-b8de-3fdd35a09846","countryCode":"VN","state":"f8e86072-20e8-4817-b883-3fcd721f0172","stateCode":"66","latitude":"20.82170000","longitude":"105.97455000"},{"id":"a98cc818-7e69-4cb7-9a34-a263bc022250","name":"Huyện Kim Động","ru":"Huyện Kim Động","country":"72eabe88-a4d6-4f90-b8de-3fdd35a09846","countryCode":"VN","state":"f8e86072-20e8-4817-b883-3fcd721f0172","stateCode":"66","latitude":"20.74645000","longitude":"106.03632000"},{"id":"89ef36a9-f15a-4f5a-9ed6-8a6fbc3f808c","name":"Huyện Mỹ Hào","ru":"Huyện Mỹ Hào","country":"72eabe88-a4d6-4f90-b8de-3fdd35a09846","countryCode":"VN","state":"f8e86072-20e8-4817-b883-3fcd721f0172","stateCode":"66","latitude":"20.93210000","longitude":"106.10630000"},{"id":"5430786b-f3ba-4a0a-aed7-3cad0f46249c","name":"Huyện Phù Cừ","ru":"Huyện Phù Cừ","country":"72eabe88-a4d6-4f90-b8de-3fdd35a09846","countryCode":"VN","state":"f8e86072-20e8-4817-b883-3fcd721f0172","stateCode":"66","latitude":"20.70997000","longitude":"106.19744000"},{"id":"92abbb5f-57b0-4de1-992a-ae665be85513","name":"Huyện Tiên Lữ","ru":"Huyện Tiên Lữ","country":"72eabe88-a4d6-4f90-b8de-3fdd35a09846","countryCode":"VN","state":"f8e86072-20e8-4817-b883-3fcd721f0172","stateCode":"66","latitude":"20.68490000","longitude":"106.12513000"},{"id":"ccacbb98-f350-4a7e-9d6b-8634fdca710a","name":"Hưng Yên","ru":"Hưng Yên","country":"72eabe88-a4d6-4f90-b8de-3fdd35a09846","countryCode":"VN","state":"f8e86072-20e8-4817-b883-3fcd721f0172","stateCode":"66","latitude":"20.64637000","longitude":"106.05112000"},{"id":"03e41a7a-7c90-40e2-b1ac-0ca298021921","name":"Cam Ranh","ru":"Cam Ranh","country":"72eabe88-a4d6-4f90-b8de-3fdd35a09846","countryCode":"VN","state":"bfd2d7cb-e758-49b0-9706-16b0ea81ca4f","stateCode":"34","latitude":"11.92144000","longitude":"109.15913000"},{"id":"9f9e301f-f240-45f3-bfcc-45994ed7e470","name":"Huyện Diên Khánh","ru":"Huyện Diên Khánh","country":"72eabe88-a4d6-4f90-b8de-3fdd35a09846","countryCode":"VN","state":"bfd2d7cb-e758-49b0-9706-16b0ea81ca4f","stateCode":"34","latitude":"12.27341000","longitude":"109.03890000"},{"id":"fa083b51-b67a-4d9b-9546-02d863f319f0","name":"Huyện Khánh Sơn","ru":"Huyện Khánh Sơn","country":"72eabe88-a4d6-4f90-b8de-3fdd35a09846","countryCode":"VN","state":"bfd2d7cb-e758-49b0-9706-16b0ea81ca4f","stateCode":"34","latitude":"12.02858000","longitude":"108.90814000"},{"id":"bd0d5e0c-c058-4029-b706-a75e8844eb4e","name":"Huyện Khánh Vĩnh","ru":"Huyện Khánh Vĩnh","country":"72eabe88-a4d6-4f90-b8de-3fdd35a09846","countryCode":"VN","state":"bfd2d7cb-e758-49b0-9706-16b0ea81ca4f","stateCode":"34","latitude":"12.30593000","longitude":"108.83073000"},{"id":"c1373a34-022c-4bee-b51d-9b4793ecfeaf","name":"Huyện Vạn Ninh","ru":"Huyện Vạn Ninh","country":"72eabe88-a4d6-4f90-b8de-3fdd35a09846","countryCode":"VN","state":"bfd2d7cb-e758-49b0-9706-16b0ea81ca4f","stateCode":"34","latitude":"12.72344000","longitude":"109.24586000"},{"id":"404f43f8-b3c5-4136-981c-f30bb7e71f62","name":"Nha Trang","ru":"Nha Trang","country":"72eabe88-a4d6-4f90-b8de-3fdd35a09846","countryCode":"VN","state":"bfd2d7cb-e758-49b0-9706-16b0ea81ca4f","stateCode":"34","latitude":"12.24507000","longitude":"109.19432000"},{"id":"61879924-b02e-4478-8a63-2c713abbaca0","name":"Thành Phố Cam Ranh","ru":"Thành Phố Cam Ranh","country":"72eabe88-a4d6-4f90-b8de-3fdd35a09846","countryCode":"VN","state":"bfd2d7cb-e758-49b0-9706-16b0ea81ca4f","stateCode":"34","latitude":"11.90707000","longitude":"109.14861000"},{"id":"8b5f31a2-efda-4e41-bcfe-bffa439bf7bd","name":"Thành Phố Nha Trang","ru":"Thành Phố Nha Trang","country":"72eabe88-a4d6-4f90-b8de-3fdd35a09846","countryCode":"VN","state":"bfd2d7cb-e758-49b0-9706-16b0ea81ca4f","stateCode":"34","latitude":"12.25458000","longitude":"109.16655000"},{"id":"770530f6-a214-4a83-9889-b3f86b68cbdd","name":"Thị Xã Ninh Hòa","ru":"Thị Xã Ninh Hòa","country":"72eabe88-a4d6-4f90-b8de-3fdd35a09846","countryCode":"VN","state":"bfd2d7cb-e758-49b0-9706-16b0ea81ca4f","stateCode":"34","latitude":"12.53796000","longitude":"109.06057000"},{"id":"3242db15-c670-41b7-bed4-b5d9f05c4032","name":"Dương Đông","ru":"Dương Đông","country":"72eabe88-a4d6-4f90-b8de-3fdd35a09846","countryCode":"VN","state":"6e7bbc66-ef55-4f76-b37c-115ee506d556","stateCode":"47","latitude":"10.21716000","longitude":"103.95929000"},{"id":"e684f3d6-3c8f-4ef8-8010-b6c6e2624633","name":"Hà Tiên","ru":"Hà Tiên","country":"72eabe88-a4d6-4f90-b8de-3fdd35a09846","countryCode":"VN","state":"6e7bbc66-ef55-4f76-b37c-115ee506d556","stateCode":"47","latitude":"10.38310000","longitude":"104.48753000"},{"id":"92005475-8c48-4d4a-a575-8da64dec0121","name":"Huyện An Biên","ru":"Huyện An Biên","country":"72eabe88-a4d6-4f90-b8de-3fdd35a09846","countryCode":"VN","state":"6e7bbc66-ef55-4f76-b37c-115ee506d556","stateCode":"47","latitude":"9.81291000","longitude":"105.05230000"},{"id":"c472c571-ab66-443a-9619-e58028a9d5a6","name":"Huyện An Minh","ru":"Huyện An Minh","country":"72eabe88-a4d6-4f90-b8de-3fdd35a09846","countryCode":"VN","state":"6e7bbc66-ef55-4f76-b37c-115ee506d556","stateCode":"47","latitude":"9.66704000","longitude":"104.94848000"},{"id":"418d44ee-269d-4024-85a8-f9cc1cee9a64","name":"Huyện Châu Thành","ru":"Huyện Châu Thành","country":"72eabe88-a4d6-4f90-b8de-3fdd35a09846","countryCode":"VN","state":"6e7bbc66-ef55-4f76-b37c-115ee506d556","stateCode":"47","latitude":"9.94372000","longitude":"105.16868000"},{"id":"e8c874a6-9a9c-4916-a3e6-70619008a895","name":"Huyện Gò Quao","ru":"Huyện Gò Quao","country":"72eabe88-a4d6-4f90-b8de-3fdd35a09846","countryCode":"VN","state":"6e7bbc66-ef55-4f76-b37c-115ee506d556","stateCode":"47","latitude":"9.74027000","longitude":"105.29766000"},{"id":"6677cc5b-bd3f-48e6-a1bf-7f5193e703ce","name":"Huyện Giồng Riềng","ru":"Huyện Giồng Riềng","country":"72eabe88-a4d6-4f90-b8de-3fdd35a09846","countryCode":"VN","state":"6e7bbc66-ef55-4f76-b37c-115ee506d556","stateCode":"47","latitude":"9.91224000","longitude":"105.37311000"},{"id":"871b3287-0d27-4533-89b7-45720f11097d","name":"Huyện Hòn Đất","ru":"Huyện Hòn Đất","country":"72eabe88-a4d6-4f90-b8de-3fdd35a09846","countryCode":"VN","state":"6e7bbc66-ef55-4f76-b37c-115ee506d556","stateCode":"47","latitude":"10.22908000","longitude":"104.95280000"},{"id":"8c610e5f-b655-48e5-9720-7ab35bc5073f","name":"Huyện Kiên Hải","ru":"Huyện Kiên Hải","country":"72eabe88-a4d6-4f90-b8de-3fdd35a09846","countryCode":"VN","state":"6e7bbc66-ef55-4f76-b37c-115ee506d556","stateCode":"47","latitude":"9.83971000","longitude":"104.61560000"},{"id":"bc83f0c6-9e8c-4817-86b9-efe4d0a41ca3","name":"Huyện Phú Quốc","ru":"Huyện Phú Quốc","country":"72eabe88-a4d6-4f90-b8de-3fdd35a09846","countryCode":"VN","state":"6e7bbc66-ef55-4f76-b37c-115ee506d556","stateCode":"47","latitude":"10.25516000","longitude":"104.01455000"},{"id":"9062ef57-20ba-4748-b0ad-8f0d674348fe","name":"Huyện Tân Hiệp","ru":"Huyện Tân Hiệp","country":"72eabe88-a4d6-4f90-b8de-3fdd35a09846","countryCode":"VN","state":"6e7bbc66-ef55-4f76-b37c-115ee506d556","stateCode":"47","latitude":"10.09540000","longitude":"105.25936000"},{"id":"e83f72f5-18a6-4193-bb12-4991d91184f1","name":"Huyện Vĩnh Thuận","ru":"Huyện Vĩnh Thuận","country":"72eabe88-a4d6-4f90-b8de-3fdd35a09846","countryCode":"VN","state":"6e7bbc66-ef55-4f76-b37c-115ee506d556","stateCode":"47","latitude":"9.53306000","longitude":"105.24490000"},{"id":"ce67d46d-660a-4f64-b65c-d70dbd345a76","name":"Kien Luong Town","ru":"Kien Luong Town","country":"72eabe88-a4d6-4f90-b8de-3fdd35a09846","countryCode":"VN","state":"6e7bbc66-ef55-4f76-b37c-115ee506d556","stateCode":"47","latitude":"10.24892000","longitude":"104.59000000"},{"id":"ce7a0d5d-7f71-4e00-8824-bd0049d9cde1","name":"Rạch Giá","ru":"Rạch Giá","country":"72eabe88-a4d6-4f90-b8de-3fdd35a09846","countryCode":"VN","state":"6e7bbc66-ef55-4f76-b37c-115ee506d556","stateCode":"47","latitude":"10.01245000","longitude":"105.08091000"},{"id":"2d8766d1-02ff-4320-bf8b-33270170044c","name":"Huyện Đắk Glei","ru":"Huyện Đắk Glei","country":"72eabe88-a4d6-4f90-b8de-3fdd35a09846","countryCode":"VN","state":"e768f014-ac2d-4e38-bc88-3a7aec3823e3","stateCode":"28","latitude":"15.11358000","longitude":"107.75093000"},{"id":"7da8c5c2-4bd5-4596-b314-ebb1f40c1336","name":"Huyện Đắk Hà","ru":"Huyện Đắk Hà","country":"72eabe88-a4d6-4f90-b8de-3fdd35a09846","countryCode":"VN","state":"e768f014-ac2d-4e38-bc88-3a7aec3823e3","stateCode":"28","latitude":"14.60326000","longitude":"107.98547000"},{"id":"35f1fbbf-a2b2-4253-b451-bea1f59d5ac3","name":"Huyện Đắk Tô","ru":"Huyện Đắk Tô","country":"72eabe88-a4d6-4f90-b8de-3fdd35a09846","countryCode":"VN","state":"e768f014-ac2d-4e38-bc88-3a7aec3823e3","stateCode":"28","latitude":"14.70087000","longitude":"107.80816000"},{"id":"1dc12909-a725-4fb4-9120-681b0c756ddc","name":"Huyện Ia H'Drai","ru":"Huyện Ia H'Drai","country":"72eabe88-a4d6-4f90-b8de-3fdd35a09846","countryCode":"VN","state":"e768f014-ac2d-4e38-bc88-3a7aec3823e3","stateCode":"28","latitude":"14.06032000","longitude":"107.46243000"},{"id":"ee49a708-9e66-4e88-9a2e-0aaebba4e053","name":"Huyện Kon Plông","ru":"Huyện Kon Plông","country":"72eabe88-a4d6-4f90-b8de-3fdd35a09846","countryCode":"VN","state":"e768f014-ac2d-4e38-bc88-3a7aec3823e3","stateCode":"28","latitude":"14.75620000","longitude":"108.32057000"},{"id":"70a2da3b-3f69-4cd1-a600-b9070cbf169c","name":"Huyện Ngọc Hồi","ru":"Huyện Ngọc Hồi","country":"72eabe88-a4d6-4f90-b8de-3fdd35a09846","countryCode":"VN","state":"e768f014-ac2d-4e38-bc88-3a7aec3823e3","stateCode":"28","latitude":"14.71940000","longitude":"107.62636000"},{"id":"7bc68d59-90b6-49cb-b6b7-4a63723997c4","name":"Huyện Sa Thầy","ru":"Huyện Sa Thầy","country":"72eabe88-a4d6-4f90-b8de-3fdd35a09846","countryCode":"VN","state":"e768f014-ac2d-4e38-bc88-3a7aec3823e3","stateCode":"28","latitude":"14.32050000","longitude":"107.59862000"},{"id":"1ef27189-b1f3-4813-b29b-057aa29f6180","name":"Kon Tum","ru":"Kon Tum","country":"72eabe88-a4d6-4f90-b8de-3fdd35a09846","countryCode":"VN","state":"e768f014-ac2d-4e38-bc88-3a7aec3823e3","stateCode":"28","latitude":"14.35451000","longitude":"108.00759000"},{"id":"3124ddfa-bc67-4e51-90a7-5adccdc86f85","name":"Huyện Mưòng Tè","ru":"Huyện Mưòng Tè","country":"72eabe88-a4d6-4f90-b8de-3fdd35a09846","countryCode":"VN","state":"18ddaf8f-997c-4111-baa0-f5a1b80a4ce3","stateCode":"01","latitude":"22.37443000","longitude":"102.73835000"},{"id":"c222e708-0b5b-45a3-b9aa-c0d060c123b2","name":"Huyện Tam Đường","ru":"Huyện Tam Đường","country":"72eabe88-a4d6-4f90-b8de-3fdd35a09846","countryCode":"VN","state":"18ddaf8f-997c-4111-baa0-f5a1b80a4ce3","stateCode":"01","latitude":"22.35391000","longitude":"103.59342000"},{"id":"2e3eccf1-3294-47f0-a8d5-76308095c94b","name":"Huyện Than Uyên","ru":"Huyện Than Uyên","country":"72eabe88-a4d6-4f90-b8de-3fdd35a09846","countryCode":"VN","state":"18ddaf8f-997c-4111-baa0-f5a1b80a4ce3","stateCode":"01","latitude":"21.91424000","longitude":"103.82857000"},{"id":"14b4dbb4-5e38-4b23-99ee-c147a8868a3e","name":"Huyện Bát Xát","ru":"Huyện Bát Xát","country":"72eabe88-a4d6-4f90-b8de-3fdd35a09846","countryCode":"VN","state":"920b6636-cbe5-4c98-b4da-6e9e75bf3e0b","stateCode":"02","latitude":"22.56767000","longitude":"103.71339000"},{"id":"ffc9b154-540d-460f-9310-0c345fb4b6d3","name":"Huyện Bảo Yên","ru":"Huyện Bảo Yên","country":"72eabe88-a4d6-4f90-b8de-3fdd35a09846","countryCode":"VN","state":"920b6636-cbe5-4c98-b4da-6e9e75bf3e0b","stateCode":"02","latitude":"22.26109000","longitude":"104.46424000"},{"id":"778be8a9-89ce-4aac-aace-86bb733c0aaa","name":"Huyện Bắc Hà","ru":"Huyện Bắc Hà","country":"72eabe88-a4d6-4f90-b8de-3fdd35a09846","countryCode":"VN","state":"920b6636-cbe5-4c98-b4da-6e9e75bf3e0b","stateCode":"02","latitude":"22.50998000","longitude":"104.30769000"},{"id":"0c3b94a0-32aa-4769-bbdd-f6b79cfdcc3a","name":"Huyện Mường Khương","ru":"Huyện Mường Khương","country":"72eabe88-a4d6-4f90-b8de-3fdd35a09846","countryCode":"VN","state":"920b6636-cbe5-4c98-b4da-6e9e75bf3e0b","stateCode":"02","latitude":"22.67111000","longitude":"104.11772000"},{"id":"de9aa6a1-1cc5-4a29-8aaa-4cb919282f4b","name":"Huyện Sa Pa","ru":"Huyện Sa Pa","country":"72eabe88-a4d6-4f90-b8de-3fdd35a09846","countryCode":"VN","state":"920b6636-cbe5-4c98-b4da-6e9e75bf3e0b","stateCode":"02","latitude":"22.33769000","longitude":"103.84037000"},{"id":"dd3a4704-c91a-43fd-aff3-aff10e832902","name":"Huyện Si Ma Cai","ru":"Huyện Si Ma Cai","country":"72eabe88-a4d6-4f90-b8de-3fdd35a09846","countryCode":"VN","state":"920b6636-cbe5-4c98-b4da-6e9e75bf3e0b","stateCode":"02","latitude":"22.67161000","longitude":"104.27326000"},{"id":"39e9c7a8-6a58-4da1-9401-9ec7ddd747f2","name":"Huyện Văn Bàn","ru":"Huyện Văn Bàn","country":"72eabe88-a4d6-4f90-b8de-3fdd35a09846","countryCode":"VN","state":"920b6636-cbe5-4c98-b4da-6e9e75bf3e0b","stateCode":"02","latitude":"22.07002000","longitude":"104.18122000"},{"id":"15237572-1b08-482d-89e1-a47a8b1ac37d","name":"Lao Chải","ru":"Lao Chải","country":"72eabe88-a4d6-4f90-b8de-3fdd35a09846","countryCode":"VN","state":"920b6636-cbe5-4c98-b4da-6e9e75bf3e0b","stateCode":"02","latitude":"22.31377000","longitude":"103.86844000"},{"id":"f87fc63f-6c81-46ce-a2f6-45b3c8217623","name":"Lào Cai","ru":"Lào Cai","country":"72eabe88-a4d6-4f90-b8de-3fdd35a09846","countryCode":"VN","state":"920b6636-cbe5-4c98-b4da-6e9e75bf3e0b","stateCode":"02","latitude":"22.48556000","longitude":"103.97066000"},{"id":"5972b862-6483-4fe9-b05e-668fd733a9e7","name":"Sa Pa","ru":"Sa Pa","country":"72eabe88-a4d6-4f90-b8de-3fdd35a09846","countryCode":"VN","state":"920b6636-cbe5-4c98-b4da-6e9e75bf3e0b","stateCode":"02","latitude":"22.34023000","longitude":"103.84415000"},{"id":"5aca8510-8eab-4884-a5d3-7f032abe29e9","name":"Đam Rong","ru":"Đam Rong","country":"72eabe88-a4d6-4f90-b8de-3fdd35a09846","countryCode":"VN","state":"ee6251f7-b8af-474c-be46-2b123dff8d31","stateCode":"35","latitude":"12.05409000","longitude":"108.14941000"},{"id":"b8fd6dda-f3c2-490c-a07f-4f42269b5e12","name":"Ðà Lạt","ru":"Ðà Lạt","country":"72eabe88-a4d6-4f90-b8de-3fdd35a09846","countryCode":"VN","state":"ee6251f7-b8af-474c-be46-2b123dff8d31","stateCode":"35","latitude":"11.94646000","longitude":"108.44193000"},{"id":"6d3e8b93-93d6-477f-b273-48ffdb79f433","name":"Đinh Văn","ru":"Đinh Văn","country":"72eabe88-a4d6-4f90-b8de-3fdd35a09846","countryCode":"VN","state":"ee6251f7-b8af-474c-be46-2b123dff8d31","stateCode":"35","latitude":"11.78624000","longitude":"108.24282000"},{"id":"51ce7139-3f9b-4fa0-8e0d-5ed0b70d6571","name":"Đưc Trọng","ru":"Đưc Trọng","country":"72eabe88-a4d6-4f90-b8de-3fdd35a09846","countryCode":"VN","state":"ee6251f7-b8af-474c-be46-2b123dff8d31","stateCode":"35","latitude":"11.73559000","longitude":"108.37330000"},{"id":"179b992e-da61-4106-838f-196bed407a9a","name":"Bảo Lộc","ru":"Bảo Lộc","country":"72eabe88-a4d6-4f90-b8de-3fdd35a09846","countryCode":"VN","state":"ee6251f7-b8af-474c-be46-2b123dff8d31","stateCode":"35","latitude":"11.54798000","longitude":"107.80772000"},{"id":"776cf273-beee-4d3b-b58b-99b4cb0d34d9","name":"Huyện Đạ Huoai","ru":"Huyện Đạ Huoai","country":"72eabe88-a4d6-4f90-b8de-3fdd35a09846","countryCode":"VN","state":"ee6251f7-b8af-474c-be46-2b123dff8d31","stateCode":"35","latitude":"11.42465000","longitude":"107.63825000"},{"id":"1cc51217-945b-4d3a-986b-95336b11e849","name":"Huyện Đạ Tẻh","ru":"Huyện Đạ Tẻh","country":"72eabe88-a4d6-4f90-b8de-3fdd35a09846","countryCode":"VN","state":"ee6251f7-b8af-474c-be46-2b123dff8d31","stateCode":"35","latitude":"11.58446000","longitude":"107.52792000"},{"id":"ecd5f096-6a2c-4359-99a9-98c1d9f16887","name":"Huyện Đức Trọng","ru":"Huyện Đức Trọng","country":"72eabe88-a4d6-4f90-b8de-3fdd35a09846","countryCode":"VN","state":"ee6251f7-b8af-474c-be46-2b123dff8d31","stateCode":"35","latitude":"11.62686000","longitude":"108.35330000"},{"id":"79195301-3a1d-4c67-a8fa-eeb70250f29d","name":"Huyện Đơn Dương","ru":"Huyện Đơn Dương","country":"72eabe88-a4d6-4f90-b8de-3fdd35a09846","countryCode":"VN","state":"ee6251f7-b8af-474c-be46-2b123dff8d31","stateCode":"35","latitude":"11.75308000","longitude":"108.55397000"},{"id":"b0927970-56a9-4e16-ab31-b2e8b4373b5b","name":"Huyện Bảo Lâm","ru":"Huyện Bảo Lâm","country":"72eabe88-a4d6-4f90-b8de-3fdd35a09846","countryCode":"VN","state":"ee6251f7-b8af-474c-be46-2b123dff8d31","stateCode":"35","latitude":"11.71163000","longitude":"107.75338000"},{"id":"a5d403a4-9359-4be8-9cc6-526a8e359142","name":"Huyện Lâm Hà","ru":"Huyện Lâm Hà","country":"72eabe88-a4d6-4f90-b8de-3fdd35a09846","countryCode":"VN","state":"ee6251f7-b8af-474c-be46-2b123dff8d31","stateCode":"35","latitude":"11.81890000","longitude":"108.21215000"},{"id":"3fb2e665-b625-48ef-9bbc-517c9b598380","name":"Huyện Đình Lập","ru":"Huyện Đình Lập","country":"72eabe88-a4d6-4f90-b8de-3fdd35a09846","countryCode":"VN","state":"e949eeb7-3e79-40c8-bcb4-4d8c7b49c7bd","stateCode":"09","latitude":"21.54210000","longitude":"107.12925000"},{"id":"8c7df63a-9f36-4bc2-b70a-fb307a624070","name":"Huyện Bình Gia","ru":"Huyện Bình Gia","country":"72eabe88-a4d6-4f90-b8de-3fdd35a09846","countryCode":"VN","state":"e949eeb7-3e79-40c8-bcb4-4d8c7b49c7bd","stateCode":"09","latitude":"22.07281000","longitude":"106.30410000"},{"id":"19f32bcc-7900-411c-bc40-17a0ea538395","name":"Huyện Bắc Sơn","ru":"Huyện Bắc Sơn","country":"72eabe88-a4d6-4f90-b8de-3fdd35a09846","countryCode":"VN","state":"e949eeb7-3e79-40c8-bcb4-4d8c7b49c7bd","stateCode":"09","latitude":"21.83801000","longitude":"106.27690000"},{"id":"d9408b3d-1995-447c-a29e-377dac510163","name":"Huyện Cao Lộc","ru":"Huyện Cao Lộc","country":"72eabe88-a4d6-4f90-b8de-3fdd35a09846","countryCode":"VN","state":"e949eeb7-3e79-40c8-bcb4-4d8c7b49c7bd","stateCode":"09","latitude":"21.89857000","longitude":"106.85435000"},{"id":"172a8fce-10ae-4622-aa82-54d63f059f58","name":"Huyện Chi Lăng","ru":"Huyện Chi Lăng","country":"72eabe88-a4d6-4f90-b8de-3fdd35a09846","countryCode":"VN","state":"e949eeb7-3e79-40c8-bcb4-4d8c7b49c7bd","stateCode":"09","latitude":"21.67602000","longitude":"106.62925000"},{"id":"4efaf15b-73b8-4549-9746-f8dd6e93f844","name":"Huyện Hũu Lũng","ru":"Huyện Hũu Lũng","country":"72eabe88-a4d6-4f90-b8de-3fdd35a09846","countryCode":"VN","state":"e949eeb7-3e79-40c8-bcb4-4d8c7b49c7bd","stateCode":"09","latitude":"21.54474000","longitude":"106.34386000"},{"id":"246910a8-1f3d-467c-a3f8-5b01b57d742c","name":"Huyện Vặn Quan","ru":"Huyện Vặn Quan","country":"72eabe88-a4d6-4f90-b8de-3fdd35a09846","countryCode":"VN","state":"e949eeb7-3e79-40c8-bcb4-4d8c7b49c7bd","stateCode":"09","latitude":"21.83333000","longitude":"106.54942000"},{"id":"f25a01d8-3e62-4c3d-970d-a9d855ae3579","name":"Lạng Sơn","ru":"Lạng Sơn","country":"72eabe88-a4d6-4f90-b8de-3fdd35a09846","countryCode":"VN","state":"e949eeb7-3e79-40c8-bcb4-4d8c7b49c7bd","stateCode":"09","latitude":"21.85264000","longitude":"106.76101000"},{"id":"979067da-3c65-48e2-b22c-b68decea39dd","name":"Cần Giuộc","ru":"Cần Giuộc","country":"72eabe88-a4d6-4f90-b8de-3fdd35a09846","countryCode":"VN","state":"8c9b8444-8bc5-4e8e-8c9a-491a4a684d92","stateCode":"41","latitude":"10.60857000","longitude":"106.67135000"},{"id":"9fa83486-25b4-4a28-92df-f51cfec89b91","name":"Huyện Đức Hòa","ru":"Huyện Đức Hòa","country":"72eabe88-a4d6-4f90-b8de-3fdd35a09846","countryCode":"VN","state":"8c9b8444-8bc5-4e8e-8c9a-491a4a684d92","stateCode":"41","latitude":"10.87838000","longitude":"106.42422000"},{"id":"5b94ac9a-8ec1-4e65-950c-ac24fe081d1f","name":"Huyện Đức Huệ","ru":"Huyện Đức Huệ","country":"72eabe88-a4d6-4f90-b8de-3fdd35a09846","countryCode":"VN","state":"8c9b8444-8bc5-4e8e-8c9a-491a4a684d92","stateCode":"41","latitude":"10.86473000","longitude":"106.25914000"},{"id":"212935be-4afe-4c04-ba0f-ae5cda1bc0d2","name":"Huyện Bến Lức","ru":"Huyện Bến Lức","country":"72eabe88-a4d6-4f90-b8de-3fdd35a09846","countryCode":"VN","state":"8c9b8444-8bc5-4e8e-8c9a-491a4a684d92","stateCode":"41","latitude":"10.68858000","longitude":"106.45484000"},{"id":"022ea782-7a7b-4343-a17a-a6894cf86512","name":"Huyện Cần Đước","ru":"Huyện Cần Đước","country":"72eabe88-a4d6-4f90-b8de-3fdd35a09846","countryCode":"VN","state":"8c9b8444-8bc5-4e8e-8c9a-491a4a684d92","stateCode":"41","latitude":"10.54148000","longitude":"106.59636000"},{"id":"8eb7f12c-3141-4bb3-99ec-57d6f1280c13","name":"Huyện Cần Giuộc","ru":"Huyện Cần Giuộc","country":"72eabe88-a4d6-4f90-b8de-3fdd35a09846","countryCode":"VN","state":"8c9b8444-8bc5-4e8e-8c9a-491a4a684d92","stateCode":"41","latitude":"10.57742000","longitude":"106.67279000"},{"id":"4d4ca8d3-d1e4-4f23-8d60-d5ca9d07e5e3","name":"Huyện Châu Thành","ru":"Huyện Châu Thành","country":"72eabe88-a4d6-4f90-b8de-3fdd35a09846","countryCode":"VN","state":"8c9b8444-8bc5-4e8e-8c9a-491a4a684d92","stateCode":"41","latitude":"10.45214000","longitude":"106.49015000"},{"id":"7a5e6455-eb33-4bd0-882e-c72d1dcdbc5c","name":"Huyện Mộc Hóa","ru":"Huyện Mộc Hóa","country":"72eabe88-a4d6-4f90-b8de-3fdd35a09846","countryCode":"VN","state":"8c9b8444-8bc5-4e8e-8c9a-491a4a684d92","stateCode":"41","latitude":"10.75166000","longitude":"106.01729000"},{"id":"07ea6d52-de3c-403d-9041-0c642b880eba","name":"Huyện Tân Hưng","ru":"Huyện Tân Hưng","country":"72eabe88-a4d6-4f90-b8de-3fdd35a09846","countryCode":"VN","state":"8c9b8444-8bc5-4e8e-8c9a-491a4a684d92","stateCode":"41","latitude":"10.83380000","longitude":"105.68848000"},{"id":"c7a21f3c-333a-4633-9c6d-f678d13b510a","name":"Huyện Tân Thạnh","ru":"Huyện Tân Thạnh","country":"72eabe88-a4d6-4f90-b8de-3fdd35a09846","countryCode":"VN","state":"8c9b8444-8bc5-4e8e-8c9a-491a4a684d92","stateCode":"41","latitude":"10.60351000","longitude":"105.96576000"},{"id":"afcd6d21-66c1-41ff-9f87-1d68597883ab","name":"Huyện Tân Trụ","ru":"Huyện Tân Trụ","country":"72eabe88-a4d6-4f90-b8de-3fdd35a09846","countryCode":"VN","state":"8c9b8444-8bc5-4e8e-8c9a-491a4a684d92","stateCode":"41","latitude":"10.53182000","longitude":"106.51644000"},{"id":"15e4470f-ae14-4f51-8f11-e0bdf535f064","name":"Huyện Thạnh Hóa","ru":"Huyện Thạnh Hóa","country":"72eabe88-a4d6-4f90-b8de-3fdd35a09846","countryCode":"VN","state":"8c9b8444-8bc5-4e8e-8c9a-491a4a684d92","stateCode":"41","latitude":"10.66667000","longitude":"106.16667000"},{"id":"fa97a0f8-cf3f-4887-a2f0-ffddfdd8c21e","name":"Huyện Thủ Thừa","ru":"Huyện Thủ Thừa","country":"72eabe88-a4d6-4f90-b8de-3fdd35a09846","countryCode":"VN","state":"8c9b8444-8bc5-4e8e-8c9a-491a4a684d92","stateCode":"41","latitude":"10.65639000","longitude":"106.34580000"},{"id":"dd7a034c-cb58-496f-9c5f-878c406671bd","name":"Huyện Vĩnh Hưng","ru":"Huyện Vĩnh Hưng","country":"72eabe88-a4d6-4f90-b8de-3fdd35a09846","countryCode":"VN","state":"8c9b8444-8bc5-4e8e-8c9a-491a4a684d92","stateCode":"41","latitude":"10.88299000","longitude":"105.80364000"},{"id":"ee7ec6c0-62e1-4a41-8b9b-a11800858fcc","name":"Tân An","ru":"Tân An","country":"72eabe88-a4d6-4f90-b8de-3fdd35a09846","countryCode":"VN","state":"8c9b8444-8bc5-4e8e-8c9a-491a4a684d92","stateCode":"41","latitude":"10.53589000","longitude":"106.41366000"},{"id":"f0803f86-c8bb-4e59-a452-36063863f7ed","name":"Huyện Ý Yên","ru":"Huyện Ý Yên","country":"72eabe88-a4d6-4f90-b8de-3fdd35a09846","countryCode":"VN","state":"31d98996-fe8e-45ef-ba1a-1a183a93abd7","stateCode":"67","latitude":"20.31669000","longitude":"106.02327000"},{"id":"bfa040ed-a3c9-45d1-9978-9729b98e28e1","name":"Huyện Giao Thủy","ru":"Huyện Giao Thủy","country":"72eabe88-a4d6-4f90-b8de-3fdd35a09846","countryCode":"VN","state":"31d98996-fe8e-45ef-ba1a-1a183a93abd7","stateCode":"67","latitude":"20.25706000","longitude":"106.46245000"},{"id":"4379e82f-0caa-40f7-92c3-3d6e16f88121","name":"Huyện Hải Hậu","ru":"Huyện Hải Hậu","country":"72eabe88-a4d6-4f90-b8de-3fdd35a09846","countryCode":"VN","state":"31d98996-fe8e-45ef-ba1a-1a183a93abd7","stateCode":"67","latitude":"20.15057000","longitude":"106.27161000"},{"id":"139561ca-2658-4f9b-9318-d99bd83c4d8b","name":"Huyện Mỹ Lộc","ru":"Huyện Mỹ Lộc","country":"72eabe88-a4d6-4f90-b8de-3fdd35a09846","countryCode":"VN","state":"31d98996-fe8e-45ef-ba1a-1a183a93abd7","stateCode":"67","latitude":"20.46079000","longitude":"106.12319000"},{"id":"44dc0ac2-2946-4f1e-845e-3e6932d1e378","name":"Huyện Nam Trực","ru":"Huyện Nam Trực","country":"72eabe88-a4d6-4f90-b8de-3fdd35a09846","countryCode":"VN","state":"31d98996-fe8e-45ef-ba1a-1a183a93abd7","stateCode":"67","latitude":"20.34106000","longitude":"106.20821000"},{"id":"f9195a35-6f1a-471d-af4d-ffe59a9e6433","name":"Huyện Nghĩa Hưng","ru":"Huyện Nghĩa Hưng","country":"72eabe88-a4d6-4f90-b8de-3fdd35a09846","countryCode":"VN","state":"31d98996-fe8e-45ef-ba1a-1a183a93abd7","stateCode":"67","latitude":"20.10598000","longitude":"106.17345000"},{"id":"86a7eeca-e4bf-41ae-932b-d5bea7d5dc3e","name":"Huyện Trực Ninh","ru":"Huyện Trực Ninh","country":"72eabe88-a4d6-4f90-b8de-3fdd35a09846","countryCode":"VN","state":"31d98996-fe8e-45ef-ba1a-1a183a93abd7","stateCode":"67","latitude":"20.25690000","longitude":"106.24582000"},{"id":"f6a70b67-de2f-418a-a4f1-09aa603bf7f0","name":"Huyện Vụ Bản","ru":"Huyện Vụ Bản","country":"72eabe88-a4d6-4f90-b8de-3fdd35a09846","countryCode":"VN","state":"31d98996-fe8e-45ef-ba1a-1a183a93abd7","stateCode":"67","latitude":"20.37705000","longitude":"106.09707000"},{"id":"f55362e6-f74c-4fb9-986b-b78a3d72ea1b","name":"Nam Định","ru":"Nam Định","country":"72eabe88-a4d6-4f90-b8de-3fdd35a09846","countryCode":"VN","state":"31d98996-fe8e-45ef-ba1a-1a183a93abd7","stateCode":"67","latitude":"20.43389000","longitude":"106.17729000"},{"id":"e29164a5-749b-401d-a4cb-d8a03df78925","name":"Huyện Anh Sơn","ru":"Huyện Anh Sơn","country":"72eabe88-a4d6-4f90-b8de-3fdd35a09846","countryCode":"VN","state":"9486b078-f85d-4a50-b291-8f5777a7d34d","stateCode":"22","latitude":"18.92902000","longitude":"105.08294000"},{"id":"21502994-bfb5-4ba6-9ecb-ac33d5296476","name":"Huyện Đô Lương","ru":"Huyện Đô Lương","country":"72eabe88-a4d6-4f90-b8de-3fdd35a09846","countryCode":"VN","state":"9486b078-f85d-4a50-b291-8f5777a7d34d","stateCode":"22","latitude":"18.89259000","longitude":"105.34027000"},{"id":"067cb640-2d34-4a68-bb31-3741eeab1de7","name":"Huyện Con Cuông","ru":"Huyện Con Cuông","country":"72eabe88-a4d6-4f90-b8de-3fdd35a09846","countryCode":"VN","state":"9486b078-f85d-4a50-b291-8f5777a7d34d","stateCode":"22","latitude":"19.03898000","longitude":"104.80353000"},{"id":"e50e8b52-8e7b-4d39-b1f2-1867448f03a5","name":"Huyện Diễn Châu","ru":"Huyện Diễn Châu","country":"72eabe88-a4d6-4f90-b8de-3fdd35a09846","countryCode":"VN","state":"9486b078-f85d-4a50-b291-8f5777a7d34d","stateCode":"22","latitude":"18.98892000","longitude":"105.57625000"},{"id":"51021066-8985-4a74-b193-c53bba47632a","name":"Huyện Hưng Nguyên","ru":"Huyện Hưng Nguyên","country":"72eabe88-a4d6-4f90-b8de-3fdd35a09846","countryCode":"VN","state":"9486b078-f85d-4a50-b291-8f5777a7d34d","stateCode":"22","latitude":"18.67811000","longitude":"105.62523000"},{"id":"0055122e-3d7b-4696-a482-aa0305835af1","name":"Huyện Kỳ Sơn","ru":"Huyện Kỳ Sơn","country":"72eabe88-a4d6-4f90-b8de-3fdd35a09846","countryCode":"VN","state":"9486b078-f85d-4a50-b291-8f5777a7d34d","stateCode":"22","latitude":"19.42397000","longitude":"104.22199000"},{"id":"a31c3c55-a3dd-4add-b9a8-489f7f3d9447","name":"Huyện Nam Đàn","ru":"Huyện Nam Đàn","country":"72eabe88-a4d6-4f90-b8de-3fdd35a09846","countryCode":"VN","state":"9486b078-f85d-4a50-b291-8f5777a7d34d","stateCode":"22","latitude":"18.67041000","longitude":"105.52575000"},{"id":"4a503e3b-2a1a-4819-ae30-651aebb8aa9d","name":"Huyện Nghĩa Đàn","ru":"Huyện Nghĩa Đàn","country":"72eabe88-a4d6-4f90-b8de-3fdd35a09846","countryCode":"VN","state":"9486b078-f85d-4a50-b291-8f5777a7d34d","stateCode":"22","latitude":"19.38234000","longitude":"105.44072000"},{"id":"7dfd5516-f194-4871-889c-b13d900ee54c","name":"Huyện Nghi Lộc","ru":"Huyện Nghi Lộc","country":"72eabe88-a4d6-4f90-b8de-3fdd35a09846","countryCode":"VN","state":"9486b078-f85d-4a50-b291-8f5777a7d34d","stateCode":"22","latitude":"18.83131000","longitude":"105.62411000"},{"id":"fe34854d-1824-425a-9fad-be3245f9af6b","name":"Huyện Quế Phong","ru":"Huyện Quế Phong","country":"72eabe88-a4d6-4f90-b8de-3fdd35a09846","countryCode":"VN","state":"9486b078-f85d-4a50-b291-8f5777a7d34d","stateCode":"22","latitude":"19.70177000","longitude":"104.87913000"},{"id":"32b981a0-3039-47f2-804d-ccfdd82b8237","name":"Huyện Quỳ Châu","ru":"Huyện Quỳ Châu","country":"72eabe88-a4d6-4f90-b8de-3fdd35a09846","countryCode":"VN","state":"9486b078-f85d-4a50-b291-8f5777a7d34d","stateCode":"22","latitude":"19.55707000","longitude":"105.09173000"},{"id":"c7ff074c-279d-42b5-8017-c3ce0f3756bb","name":"Huyện Quỳ Hợp","ru":"Huyện Quỳ Hợp","country":"72eabe88-a4d6-4f90-b8de-3fdd35a09846","countryCode":"VN","state":"9486b078-f85d-4a50-b291-8f5777a7d34d","stateCode":"22","latitude":"19.32514000","longitude":"105.16009000"},{"id":"af8cb1d4-01d2-40f3-a70b-b364638a6570","name":"Huyện Quỳnh Lưu","ru":"Huyện Quỳnh Lưu","country":"72eabe88-a4d6-4f90-b8de-3fdd35a09846","countryCode":"VN","state":"9486b078-f85d-4a50-b291-8f5777a7d34d","stateCode":"22","latitude":"19.22717000","longitude":"105.64354000"},{"id":"1fc8d3d2-8e76-4050-9adf-6f992ba66bdc","name":"Huyện Thanh Chương","ru":"Huyện Thanh Chương","country":"72eabe88-a4d6-4f90-b8de-3fdd35a09846","countryCode":"VN","state":"9486b078-f85d-4a50-b291-8f5777a7d34d","stateCode":"22","latitude":"18.73929000","longitude":"105.24053000"},{"id":"b5ebabbb-6372-460b-8704-9b19ed0211b5","name":"Huyện Tương Dương","ru":"Huyện Tương Dương","country":"72eabe88-a4d6-4f90-b8de-3fdd35a09846","countryCode":"VN","state":"9486b078-f85d-4a50-b291-8f5777a7d34d","stateCode":"22","latitude":"19.30979000","longitude":"104.57788000"},{"id":"ac7f74c1-7985-4c8e-a6e6-c5e213765b84","name":"Huyện Yên Thành","ru":"Huyện Yên Thành","country":"72eabe88-a4d6-4f90-b8de-3fdd35a09846","countryCode":"VN","state":"9486b078-f85d-4a50-b291-8f5777a7d34d","stateCode":"22","latitude":"19.02724000","longitude":"105.43649000"},{"id":"d293ff8e-9cba-4eb0-ae9e-98a1658a27fd","name":"Vinh","ru":"Vinh","country":"72eabe88-a4d6-4f90-b8de-3fdd35a09846","countryCode":"VN","state":"9486b078-f85d-4a50-b291-8f5777a7d34d","stateCode":"22","latitude":"18.67337000","longitude":"105.69232000"},{"id":"fa146b2d-72f8-4dea-96a9-c6377b75b12f","name":"Yên Vinh","ru":"Yên Vinh","country":"72eabe88-a4d6-4f90-b8de-3fdd35a09846","countryCode":"VN","state":"9486b078-f85d-4a50-b291-8f5777a7d34d","stateCode":"22","latitude":"18.66667000","longitude":"105.66667000"},{"id":"29eba4b4-96aa-4db7-ab25-5d4aff719ff2","name":"Huyện Hoa Lư","ru":"Huyện Hoa Lư","country":"72eabe88-a4d6-4f90-b8de-3fdd35a09846","countryCode":"VN","state":"a4917a79-6665-4261-ae26-39c7986d56ca","stateCode":"18","latitude":"20.25391000","longitude":"105.90789000"},{"id":"48d37907-96f7-497a-8d79-829746cfe1cb","name":"Huyện Kim Sơn","ru":"Huyện Kim Sơn","country":"72eabe88-a4d6-4f90-b8de-3fdd35a09846","countryCode":"VN","state":"a4917a79-6665-4261-ae26-39c7986d56ca","stateCode":"18","latitude":"20.06034000","longitude":"106.09863000"},{"id":"302007ae-840d-46b0-840c-d47bdffdecb8","name":"Huyện Nho Quan","ru":"Huyện Nho Quan","country":"72eabe88-a4d6-4f90-b8de-3fdd35a09846","countryCode":"VN","state":"a4917a79-6665-4261-ae26-39c7986d56ca","stateCode":"18","latitude":"20.27606000","longitude":"105.75442000"},{"id":"19706f76-0962-4412-ac4d-12bbe94d54a1","name":"Huyện Yên Khánh","ru":"Huyện Yên Khánh","country":"72eabe88-a4d6-4f90-b8de-3fdd35a09846","countryCode":"VN","state":"a4917a79-6665-4261-ae26-39c7986d56ca","stateCode":"18","latitude":"20.19017000","longitude":"106.09605000"},{"id":"dae2847a-d569-479c-9643-da21e1445eff","name":"Huyện Yên Mô","ru":"Huyện Yên Mô","country":"72eabe88-a4d6-4f90-b8de-3fdd35a09846","countryCode":"VN","state":"a4917a79-6665-4261-ae26-39c7986d56ca","stateCode":"18","latitude":"20.12984000","longitude":"106.00199000"},{"id":"67f32dd5-7669-41a9-8461-569ebee277d0","name":"Ninh Bình","ru":"Ninh Bình","country":"72eabe88-a4d6-4f90-b8de-3fdd35a09846","countryCode":"VN","state":"a4917a79-6665-4261-ae26-39c7986d56ca","stateCode":"18","latitude":"20.25809000","longitude":"105.97965000"},{"id":"1263e07d-cb1a-4dd2-bf80-c13240206f47","name":"Phan Rang-Tháp Chàm","ru":"Phan Rang-Tháp Chàm","country":"72eabe88-a4d6-4f90-b8de-3fdd35a09846","countryCode":"VN","state":"e807c384-bcb5-429b-afa9-da0f5bc10304","stateCode":"36","latitude":"11.56432000","longitude":"108.98858000"},{"id":"0d6c670b-2bc0-4ab4-85c7-76824502be8e","name":"Huyện Đoan Hùng","ru":"Huyện Đoan Hùng","country":"72eabe88-a4d6-4f90-b8de-3fdd35a09846","countryCode":"VN","state":"00566ef3-3dc9-4a65-a326-47a67720c68b","stateCode":"68","latitude":"21.61776000","longitude":"105.16110000"},{"id":"f3b1d494-b250-4b6e-8628-cd9e22f5a136","name":"Huyện Cẩm Khê","ru":"Huyện Cẩm Khê","country":"72eabe88-a4d6-4f90-b8de-3fdd35a09846","countryCode":"VN","state":"00566ef3-3dc9-4a65-a326-47a67720c68b","stateCode":"68","latitude":"21.40683000","longitude":"105.09845000"},{"id":"03c13583-63c0-4dbf-94db-d56a37c7b31c","name":"Huyện Hạ Hòa","ru":"Huyện Hạ Hòa","country":"72eabe88-a4d6-4f90-b8de-3fdd35a09846","countryCode":"VN","state":"00566ef3-3dc9-4a65-a326-47a67720c68b","stateCode":"68","latitude":"21.57763000","longitude":"104.99464000"},{"id":"91c362fd-9a64-43db-a999-1d9dd6d8aca4","name":"Huyện Thanh Ba","ru":"Huyện Thanh Ba","country":"72eabe88-a4d6-4f90-b8de-3fdd35a09846","countryCode":"VN","state":"00566ef3-3dc9-4a65-a326-47a67720c68b","stateCode":"68","latitude":"21.47816000","longitude":"105.15881000"},{"id":"f450b5a4-c8c2-4131-bea3-31a2e86fec44","name":"Huyện Yên Lập","ru":"Huyện Yên Lập","country":"72eabe88-a4d6-4f90-b8de-3fdd35a09846","countryCode":"VN","state":"00566ef3-3dc9-4a65-a326-47a67720c68b","stateCode":"68","latitude":"21.35569000","longitude":"105.00493000"},{"id":"c27c7ff4-38bd-4aa4-942c-e67b979a17b8","name":"Huyen Lam Thao","ru":"Huyen Lam Thao","country":"72eabe88-a4d6-4f90-b8de-3fdd35a09846","countryCode":"VN","state":"00566ef3-3dc9-4a65-a326-47a67720c68b","stateCode":"68","latitude":"21.29971000","longitude":"105.31119000"},{"id":"32d60a49-1f73-4709-b127-6d6f9873e7d9","name":"Thành Phố Việt Trì","ru":"Thành Phố Việt Trì","country":"72eabe88-a4d6-4f90-b8de-3fdd35a09846","countryCode":"VN","state":"00566ef3-3dc9-4a65-a326-47a67720c68b","stateCode":"68","latitude":"21.32958000","longitude":"105.39217000"},{"id":"02e8acb4-7568-4711-aa0f-2149ffcb4d52","name":"Thị xã Phú Thọ","ru":"Thị xã Phú Thọ","country":"72eabe88-a4d6-4f90-b8de-3fdd35a09846","countryCode":"VN","state":"00566ef3-3dc9-4a65-a326-47a67720c68b","stateCode":"68","latitude":"21.41664000","longitude":"105.23636000"},{"id":"0c9bf074-9dbe-4d4b-afd1-cfac4260719d","name":"Việt Trì","ru":"Việt Trì","country":"72eabe88-a4d6-4f90-b8de-3fdd35a09846","countryCode":"VN","state":"00566ef3-3dc9-4a65-a326-47a67720c68b","stateCode":"68","latitude":"21.32274000","longitude":"105.40198000"},{"id":"17d39dfe-86f7-44fb-8042-2b427a732fa2","name":"Huyện Sông Hinh","ru":"Huyện Sông Hinh","country":"72eabe88-a4d6-4f90-b8de-3fdd35a09846","countryCode":"VN","state":"e6707436-6a0e-4c2c-bca7-babd5cfb47d1","stateCode":"32","latitude":"12.91667000","longitude":"108.91667000"},{"id":"202dd83d-f717-4dc3-9abd-9aac8bb53fbe","name":"Huyện Sơn Hòa","ru":"Huyện Sơn Hòa","country":"72eabe88-a4d6-4f90-b8de-3fdd35a09846","countryCode":"VN","state":"e6707436-6a0e-4c2c-bca7-babd5cfb47d1","stateCode":"32","latitude":"13.15868000","longitude":"108.97281000"},{"id":"92b695ff-e47d-412f-b216-afd98fd9abb4","name":"Sông Cầu","ru":"Sông Cầu","country":"72eabe88-a4d6-4f90-b8de-3fdd35a09846","countryCode":"VN","state":"e6707436-6a0e-4c2c-bca7-babd5cfb47d1","stateCode":"32","latitude":"13.45560000","longitude":"109.22348000"},{"id":"53841354-a498-478a-9c94-b0f5a52c4d99","name":"Tuy Hòa","ru":"Tuy Hòa","country":"72eabe88-a4d6-4f90-b8de-3fdd35a09846","countryCode":"VN","state":"e6707436-6a0e-4c2c-bca7-babd5cfb47d1","stateCode":"32","latitude":"13.09546000","longitude":"109.32094000"},{"id":"d2b07167-2897-499f-b123-4e647b1a1154","name":"Huyện Lệ Thủy","ru":"Huyện Lệ Thủy","country":"72eabe88-a4d6-4f90-b8de-3fdd35a09846","countryCode":"VN","state":"9ae3e1f4-4a8f-4bb1-8739-aa00ff438546","stateCode":"24","latitude":"17.11239000","longitude":"106.70471000"},{"id":"56290785-33e2-4193-8b42-62c57b139003","name":"Huyện Quảng Ninh","ru":"Huyện Quảng Ninh","country":"72eabe88-a4d6-4f90-b8de-3fdd35a09846","countryCode":"VN","state":"9ae3e1f4-4a8f-4bb1-8739-aa00ff438546","stateCode":"24","latitude":"17.27067000","longitude":"106.51387000"},{"id":"6c93fe5a-4a33-4c76-8d87-08a220547f92","name":"Huyện Quảng Trạch","ru":"Huyện Quảng Trạch","country":"72eabe88-a4d6-4f90-b8de-3fdd35a09846","countryCode":"VN","state":"9ae3e1f4-4a8f-4bb1-8739-aa00ff438546","stateCode":"24","latitude":"17.83447000","longitude":"106.36705000"},{"id":"1468c0b8-7a7c-446e-a391-15201977bcf8","name":"Huyện Tuyên Hóa","ru":"Huyện Tuyên Hóa","country":"72eabe88-a4d6-4f90-b8de-3fdd35a09846","countryCode":"VN","state":"9ae3e1f4-4a8f-4bb1-8739-aa00ff438546","stateCode":"24","latitude":"17.91323000","longitude":"106.02678000"},{"id":"9d2f2d93-2896-4b79-8a24-1a1cd394b255","name":"Kwang Binh","ru":"Kwang Binh","country":"72eabe88-a4d6-4f90-b8de-3fdd35a09846","countryCode":"VN","state":"9ae3e1f4-4a8f-4bb1-8739-aa00ff438546","stateCode":"24","latitude":"17.46885000","longitude":"106.62226000"},{"id":"10ce5a09-4100-4a13-ac81-d12866215010","name":"Hội An","ru":"Hội An","country":"72eabe88-a4d6-4f90-b8de-3fdd35a09846","countryCode":"VN","state":"6f8e4a5c-a2c4-4111-b863-a711bceed855","stateCode":"27","latitude":"15.87944000","longitude":"108.33500000"},{"id":"f50d7431-f347-4837-94a1-f235fc8d76c7","name":"Huyện Đại Lộc","ru":"Huyện Đại Lộc","country":"72eabe88-a4d6-4f90-b8de-3fdd35a09846","countryCode":"VN","state":"6f8e4a5c-a2c4-4111-b863-a711bceed855","stateCode":"27","latitude":"15.83721000","longitude":"107.97894000"},{"id":"4a6110c6-e3c4-45bd-b5ba-a60eea2c6583","name":"Huyện Điện Bàn","ru":"Huyện Điện Bàn","country":"72eabe88-a4d6-4f90-b8de-3fdd35a09846","countryCode":"VN","state":"6f8e4a5c-a2c4-4111-b863-a711bceed855","stateCode":"27","latitude":"15.89917000","longitude":"108.22470000"},{"id":"d0220f7b-02c1-4f6d-a630-7e23cad6dca1","name":"Huyện Duy Xuyên","ru":"Huyện Duy Xuyên","country":"72eabe88-a4d6-4f90-b8de-3fdd35a09846","countryCode":"VN","state":"6f8e4a5c-a2c4-4111-b863-a711bceed855","stateCode":"27","latitude":"15.78970000","longitude":"108.20247000"},{"id":"341604d5-d2a8-4b18-b0ef-70d06dcd8816","name":"Huyện Hiệp Đức","ru":"Huyện Hiệp Đức","country":"72eabe88-a4d6-4f90-b8de-3fdd35a09846","countryCode":"VN","state":"6f8e4a5c-a2c4-4111-b863-a711bceed855","stateCode":"27","latitude":"15.53857000","longitude":"108.09539000"},{"id":"538af62a-e04c-46bf-b940-8e17cedcd80e","name":"Huyện Nam Giang","ru":"Huyện Nam Giang","country":"72eabe88-a4d6-4f90-b8de-3fdd35a09846","countryCode":"VN","state":"6f8e4a5c-a2c4-4111-b863-a711bceed855","stateCode":"27","latitude":"15.63201000","longitude":"107.60267000"},{"id":"e7d42629-073d-41b9-a678-a4a111957816","name":"Huyện Núi Thành","ru":"Huyện Núi Thành","country":"72eabe88-a4d6-4f90-b8de-3fdd35a09846","countryCode":"VN","state":"6f8e4a5c-a2c4-4111-b863-a711bceed855","stateCode":"27","latitude":"15.43345000","longitude":"108.57438000"},{"id":"714edea3-d9d9-4531-b74d-715f00f4ab73","name":"Huyện Phước Sơn","ru":"Huyện Phước Sơn","country":"72eabe88-a4d6-4f90-b8de-3fdd35a09846","countryCode":"VN","state":"6f8e4a5c-a2c4-4111-b863-a711bceed855","stateCode":"27","latitude":"15.38806000","longitude":"107.85766000"},{"id":"41c0a890-99a2-4f17-bba4-95e3fb55191f","name":"Huyện Tiên Phước","ru":"Huyện Tiên Phước","country":"72eabe88-a4d6-4f90-b8de-3fdd35a09846","countryCode":"VN","state":"6f8e4a5c-a2c4-4111-b863-a711bceed855","stateCode":"27","latitude":"15.47090000","longitude":"108.28257000"},{"id":"b328c082-db79-47dd-b33d-93a550ddbd63","name":"Huyện Trà My","ru":"Huyện Trà My","country":"72eabe88-a4d6-4f90-b8de-3fdd35a09846","countryCode":"VN","state":"6f8e4a5c-a2c4-4111-b863-a711bceed855","stateCode":"27","latitude":"15.25000000","longitude":"108.08333000"},{"id":"fca96efe-f5c6-4a58-82ab-ac8ad7778694","name":"Tam Kỳ","ru":"Tam Kỳ","country":"72eabe88-a4d6-4f90-b8de-3fdd35a09846","countryCode":"VN","state":"6f8e4a5c-a2c4-4111-b863-a711bceed855","stateCode":"27","latitude":"15.57364000","longitude":"108.47403000"},{"id":"6ed13152-6c4e-48cd-8ab7-34689c072fee","name":"Huyện Đức Phổ","ru":"Huyện Đức Phổ","country":"72eabe88-a4d6-4f90-b8de-3fdd35a09846","countryCode":"VN","state":"48938805-3e89-4063-9727-fabc78439c94","stateCode":"29","latitude":"14.78000000","longitude":"108.97857000"},{"id":"1fa46d01-d891-4b84-9153-820dd9441a4a","name":"Huyện Ba Tơ","ru":"Huyện Ba Tơ","country":"72eabe88-a4d6-4f90-b8de-3fdd35a09846","countryCode":"VN","state":"48938805-3e89-4063-9727-fabc78439c94","stateCode":"29","latitude":"14.73973000","longitude":"108.69326000"},{"id":"0c670f16-b97a-4038-aa3f-fd1e2bd9fb35","name":"Huyện Bình Sơn","ru":"Huyện Bình Sơn","country":"72eabe88-a4d6-4f90-b8de-3fdd35a09846","countryCode":"VN","state":"48938805-3e89-4063-9727-fabc78439c94","stateCode":"29","latitude":"15.31899000","longitude":"108.76383000"},{"id":"24bb78e7-0d89-4dec-91ea-4637399e6825","name":"Huyện Lý Sơn","ru":"Huyện Lý Sơn","country":"72eabe88-a4d6-4f90-b8de-3fdd35a09846","countryCode":"VN","state":"48938805-3e89-4063-9727-fabc78439c94","stateCode":"29","latitude":"15.40608000","longitude":"109.09707000"},{"id":"5278d668-1514-4146-a3f0-0373a7600c1f","name":"Huyện Mộ Đức","ru":"Huyện Mộ Đức","country":"72eabe88-a4d6-4f90-b8de-3fdd35a09846","countryCode":"VN","state":"48938805-3e89-4063-9727-fabc78439c94","stateCode":"29","latitude":"14.95515000","longitude":"108.88841000"},{"id":"34187d95-fae1-4d9f-8095-5aeac96b38cd","name":"Huyện Minh Long","ru":"Huyện Minh Long","country":"72eabe88-a4d6-4f90-b8de-3fdd35a09846","countryCode":"VN","state":"48938805-3e89-4063-9727-fabc78439c94","stateCode":"29","latitude":"14.95375000","longitude":"108.67724000"},{"id":"216ffea5-2cd9-4b58-86b0-aeda7b7882e3","name":"Huyện Nghĩa Hành","ru":"Huyện Nghĩa Hành","country":"72eabe88-a4d6-4f90-b8de-3fdd35a09846","countryCode":"VN","state":"48938805-3e89-4063-9727-fabc78439c94","stateCode":"29","latitude":"14.98712000","longitude":"108.80036000"},{"id":"1a6ab337-cb7e-4d17-8ed1-6a28e47efe0a","name":"Huyện Sơn Hà","ru":"Huyện Sơn Hà","country":"72eabe88-a4d6-4f90-b8de-3fdd35a09846","countryCode":"VN","state":"48938805-3e89-4063-9727-fabc78439c94","stateCode":"29","latitude":"14.98427000","longitude":"108.53643000"},{"id":"4a3472b6-78f5-428a-8146-5cce87c49d11","name":"Huyện Sơn Tây","ru":"Huyện Sơn Tây","country":"72eabe88-a4d6-4f90-b8de-3fdd35a09846","countryCode":"VN","state":"48938805-3e89-4063-9727-fabc78439c94","stateCode":"29","latitude":"14.96392000","longitude":"108.36419000"},{"id":"ae3d4d62-a2b5-4024-9ee3-d823361589b0","name":"Huyện Sơn Tịnh","ru":"Huyện Sơn Tịnh","country":"72eabe88-a4d6-4f90-b8de-3fdd35a09846","countryCode":"VN","state":"48938805-3e89-4063-9727-fabc78439c94","stateCode":"29","latitude":"15.19090000","longitude":"108.74295000"},{"id":"b251c7f7-a36c-4407-b3c8-2317b77cdd0d","name":"Huyện Trà Bồng","ru":"Huyện Trà Bồng","country":"72eabe88-a4d6-4f90-b8de-3fdd35a09846","countryCode":"VN","state":"48938805-3e89-4063-9727-fabc78439c94","stateCode":"29","latitude":"15.23752000","longitude":"108.52633000"},{"id":"5fbd13a6-70f5-4679-a7cb-5fd766d2481d","name":"Huyện Tư Nghĩa","ru":"Huyện Tư Nghĩa","country":"72eabe88-a4d6-4f90-b8de-3fdd35a09846","countryCode":"VN","state":"48938805-3e89-4063-9727-fabc78439c94","stateCode":"29","latitude":"15.09499000","longitude":"108.77053000"},{"id":"df18df89-3595-43d0-a8f5-851f4a21e8d8","name":"Quảng Ngãi","ru":"Quảng Ngãi","country":"72eabe88-a4d6-4f90-b8de-3fdd35a09846","countryCode":"VN","state":"48938805-3e89-4063-9727-fabc78439c94","stateCode":"29","latitude":"15.12047000","longitude":"108.79232000"},{"id":"483e193e-dc8f-40b4-8d7f-3cd64d86a455","name":"Cẩm Phả","ru":"Cẩm Phả","country":"72eabe88-a4d6-4f90-b8de-3fdd35a09846","countryCode":"VN","state":"7ef38abb-b5d8-4e9c-ba2c-538d7405317b","stateCode":"13","latitude":"21.01004000","longitude":"107.27345000"},{"id":"3c9542ee-578b-4bcd-aefc-243f5569c8da","name":"Cẩm Phả Mines","ru":"Cẩm Phả Mines","country":"72eabe88-a4d6-4f90-b8de-3fdd35a09846","countryCode":"VN","state":"7ef38abb-b5d8-4e9c-ba2c-538d7405317b","stateCode":"13","latitude":"21.01667000","longitude":"107.30000000"},{"id":"cd3c8896-003d-436e-b5b1-5bcced7be867","name":"Hạ Long","ru":"Hạ Long","country":"72eabe88-a4d6-4f90-b8de-3fdd35a09846","countryCode":"VN","state":"7ef38abb-b5d8-4e9c-ba2c-538d7405317b","stateCode":"13","latitude":"20.95045000","longitude":"107.07336000"},{"id":"0a1f944c-ff9d-4cd2-be85-4a1ce3a78407","name":"Huyện Đông Triều","ru":"Huyện Đông Triều","country":"72eabe88-a4d6-4f90-b8de-3fdd35a09846","countryCode":"VN","state":"7ef38abb-b5d8-4e9c-ba2c-538d7405317b","stateCode":"13","latitude":"21.11043000","longitude":"106.59662000"},{"id":"de29fc6f-264c-410c-abaa-21bbc6a99672","name":"Huyện Đầm Hà","ru":"Huyện Đầm Hà","country":"72eabe88-a4d6-4f90-b8de-3fdd35a09846","countryCode":"VN","state":"7ef38abb-b5d8-4e9c-ba2c-538d7405317b","stateCode":"13","latitude":"21.39689000","longitude":"107.56175000"},{"id":"b94e95d7-4a1e-49ad-8669-8f0d401adac7","name":"Huyện Ba Chẽ","ru":"Huyện Ba Chẽ","country":"72eabe88-a4d6-4f90-b8de-3fdd35a09846","countryCode":"VN","state":"7ef38abb-b5d8-4e9c-ba2c-538d7405317b","stateCode":"13","latitude":"21.29503000","longitude":"107.19298000"},{"id":"e8158060-a9f4-4dd8-a81c-ed6e2da39efe","name":"Huyện Bình Liêu","ru":"Huyện Bình Liêu","country":"72eabe88-a4d6-4f90-b8de-3fdd35a09846","countryCode":"VN","state":"7ef38abb-b5d8-4e9c-ba2c-538d7405317b","stateCode":"13","latitude":"21.54389000","longitude":"107.44047000"},{"id":"e03a3e4b-2353-41e8-976b-4fbc1178d308","name":"Huyện Cô Tô","ru":"Huyện Cô Tô","country":"72eabe88-a4d6-4f90-b8de-3fdd35a09846","countryCode":"VN","state":"7ef38abb-b5d8-4e9c-ba2c-538d7405317b","stateCode":"13","latitude":"21.05418000","longitude":"107.80698000"},{"id":"1cf7f1b8-0dfc-4016-8a8f-86f329b1546d","name":"Huyện Hải Hà","ru":"Huyện Hải Hà","country":"72eabe88-a4d6-4f90-b8de-3fdd35a09846","countryCode":"VN","state":"7ef38abb-b5d8-4e9c-ba2c-538d7405317b","stateCode":"13","latitude":"21.49537000","longitude":"107.66790000"},{"id":"6c66337f-eabb-45c0-b52e-4de328f13ad1","name":"Huyện Hoành Bồ","ru":"Huyện Hoành Bồ","country":"72eabe88-a4d6-4f90-b8de-3fdd35a09846","countryCode":"VN","state":"7ef38abb-b5d8-4e9c-ba2c-538d7405317b","stateCode":"13","latitude":"21.11888000","longitude":"107.03149000"},{"id":"cbd5fd4e-e995-4a3c-892d-e253082f9b17","name":"Huyện Tiên Yên","ru":"Huyện Tiên Yên","country":"72eabe88-a4d6-4f90-b8de-3fdd35a09846","countryCode":"VN","state":"7ef38abb-b5d8-4e9c-ba2c-538d7405317b","stateCode":"13","latitude":"21.37571000","longitude":"107.37468000"},{"id":"6b7a9d71-711d-4e8f-945c-bae133c8b00e","name":"Huyện Vân Đồn","ru":"Huyện Vân Đồn","country":"72eabe88-a4d6-4f90-b8de-3fdd35a09846","countryCode":"VN","state":"7ef38abb-b5d8-4e9c-ba2c-538d7405317b","stateCode":"13","latitude":"21.04921000","longitude":"107.50971000"},{"id":"cfba46df-f1fa-46f9-b086-e41ac7d834ad","name":"Móng Cái","ru":"Móng Cái","country":"72eabe88-a4d6-4f90-b8de-3fdd35a09846","countryCode":"VN","state":"7ef38abb-b5d8-4e9c-ba2c-538d7405317b","stateCode":"13","latitude":"21.52471000","longitude":"107.96619000"},{"id":"195ff961-f8f4-405f-9829-14c4255218ca","name":"Thành Phố Uông Bí","ru":"Thành Phố Uông Bí","country":"72eabe88-a4d6-4f90-b8de-3fdd35a09846","countryCode":"VN","state":"7ef38abb-b5d8-4e9c-ba2c-538d7405317b","stateCode":"13","latitude":"21.03433000","longitude":"106.77049000"},{"id":"466a7af0-6269-4652-aac9-9effdda7e841","name":"Ðông Hà","ru":"Ðông Hà","country":"72eabe88-a4d6-4f90-b8de-3fdd35a09846","countryCode":"VN","state":"537f2f8a-4ec5-4339-bc96-c62cb8ed1a98","stateCode":"25","latitude":"16.81625000","longitude":"107.10031000"},{"id":"92b7da19-a438-44dc-bb15-c3a4a59632c7","name":"Huyện Đa Krông","ru":"Huyện Đa Krông","country":"72eabe88-a4d6-4f90-b8de-3fdd35a09846","countryCode":"VN","state":"537f2f8a-4ec5-4339-bc96-c62cb8ed1a98","stateCode":"25","latitude":"16.55543000","longitude":"106.97208000"},{"id":"624c3cf6-bba6-4f35-9cd4-2435feb39edf","name":"Huyện Cam Lộ","ru":"Huyện Cam Lộ","country":"72eabe88-a4d6-4f90-b8de-3fdd35a09846","countryCode":"VN","state":"537f2f8a-4ec5-4339-bc96-c62cb8ed1a98","stateCode":"25","latitude":"16.79335000","longitude":"106.96175000"},{"id":"98679563-2667-4423-9e02-708fa0f9a457","name":"Huyện Gio Linh","ru":"Huyện Gio Linh","country":"72eabe88-a4d6-4f90-b8de-3fdd35a09846","countryCode":"VN","state":"537f2f8a-4ec5-4339-bc96-c62cb8ed1a98","stateCode":"25","latitude":"16.91667000","longitude":"107.00000000"},{"id":"eb1b4a59-c3db-40da-9643-1e3671f1092c","name":"Huyện Hải Lăng","ru":"Huyện Hải Lăng","country":"72eabe88-a4d6-4f90-b8de-3fdd35a09846","countryCode":"VN","state":"537f2f8a-4ec5-4339-bc96-c62cb8ed1a98","stateCode":"25","latitude":"16.67574000","longitude":"107.23388000"},{"id":"d69d0317-9fd3-422b-89fd-05c6ff8cee3f","name":"Huyện Hướng Hóa","ru":"Huyện Hướng Hóa","country":"72eabe88-a4d6-4f90-b8de-3fdd35a09846","countryCode":"VN","state":"537f2f8a-4ec5-4339-bc96-c62cb8ed1a98","stateCode":"25","latitude":"16.70132000","longitude":"106.67036000"},{"id":"fa29a4a7-1499-4930-b482-111511f8423f","name":"Huyện Triệu Phong","ru":"Huyện Triệu Phong","country":"72eabe88-a4d6-4f90-b8de-3fdd35a09846","countryCode":"VN","state":"537f2f8a-4ec5-4339-bc96-c62cb8ed1a98","stateCode":"25","latitude":"16.78132000","longitude":"107.16034000"},{"id":"9753c17e-66ac-4c72-916b-8db6d1c43d07","name":"Huyện Vĩnh Linh","ru":"Huyện Vĩnh Linh","country":"72eabe88-a4d6-4f90-b8de-3fdd35a09846","countryCode":"VN","state":"537f2f8a-4ec5-4339-bc96-c62cb8ed1a98","stateCode":"25","latitude":"17.01600000","longitude":"106.93384000"},{"id":"81fd8da5-98d5-4e6f-94f3-a60273fd5f5b","name":"Huyện Kế Sách","ru":"Huyện Kế Sách","country":"72eabe88-a4d6-4f90-b8de-3fdd35a09846","countryCode":"VN","state":"cb7be1c7-81ee-4664-a592-a38ff18a3bca","stateCode":"52","latitude":"9.81771000","longitude":"105.94190000"},{"id":"915aaa2e-99c4-406a-a073-0641ea8bfb4a","name":"Huyện Long Phú","ru":"Huyện Long Phú","country":"72eabe88-a4d6-4f90-b8de-3fdd35a09846","countryCode":"VN","state":"cb7be1c7-81ee-4664-a592-a38ff18a3bca","stateCode":"52","latitude":"9.63715000","longitude":"106.08226000"},{"id":"ab78c49d-9b83-4ed8-bcfd-d6fb44d8b5b6","name":"Huyện Mỹ Tú","ru":"Huyện Mỹ Tú","country":"72eabe88-a4d6-4f90-b8de-3fdd35a09846","countryCode":"VN","state":"cb7be1c7-81ee-4664-a592-a38ff18a3bca","stateCode":"52","latitude":"9.60849000","longitude":"105.80681000"},{"id":"506bf490-2404-43df-9f82-11c08697796e","name":"Huyện Mỹ Xuyên","ru":"Huyện Mỹ Xuyên","country":"72eabe88-a4d6-4f90-b8de-3fdd35a09846","countryCode":"VN","state":"cb7be1c7-81ee-4664-a592-a38ff18a3bca","stateCode":"52","latitude":"9.44200000","longitude":"105.88546000"},{"id":"21c04a54-8205-4f0d-af32-b9fa772e494d","name":"Huyện Thạnh Trị","ru":"Huyện Thạnh Trị","country":"72eabe88-a4d6-4f90-b8de-3fdd35a09846","countryCode":"VN","state":"cb7be1c7-81ee-4664-a592-a38ff18a3bca","stateCode":"52","latitude":"9.46939000","longitude":"105.71196000"},{"id":"a62b9a14-3fa3-4704-bf42-c0dd131cf8a8","name":"Huyen Nga Nam","ru":"Huyen Nga Nam","country":"72eabe88-a4d6-4f90-b8de-3fdd35a09846","countryCode":"VN","state":"cb7be1c7-81ee-4664-a592-a38ff18a3bca","stateCode":"52","latitude":"9.56127000","longitude":"105.59476000"},