[{"id":"1e2d57d7-bbe1-44dc-a885-7efc1ee1f8b5","name":"Teyateyaneng","ru":"Teyateyaneng","country":"4d063863-f24d-4bfc-baac-a927970163c0","countryCode":"LS","state":"dc848d70-7454-480a-a4ee-c53622085bd0","stateCode":"D","latitude":"-29.14719000","longitude":"27.74895000"},{"id":"57719b9a-73f3-49e7-b75d-e1a2134d5111","name":"Butha-Buthe","ru":"Butha-Buthe","country":"4d063863-f24d-4bfc-baac-a927970163c0","countryCode":"LS","state":"6952a997-ff48-4090-9fb4-ae65994c6e18","stateCode":"B","latitude":"-28.76659000","longitude":"28.24937000"},{"id":"9824955a-20bb-4458-8e68-b43adce7bc3a","name":"Leribe","ru":"Leribe","country":"4d063863-f24d-4bfc-baac-a927970163c0","countryCode":"LS","state":"9c014aa4-c35c-46cb-8b63-3dff84bf8935","stateCode":"C","latitude":"-28.87185000","longitude":"28.04501000"},{"id":"79ea74df-b28f-43d4-b38e-f58a5fba9192","name":"Maputsoe","ru":"Maputsoe","country":"4d063863-f24d-4bfc-baac-a927970163c0","countryCode":"LS","state":"9c014aa4-c35c-46cb-8b63-3dff84bf8935","stateCode":"C","latitude":"-28.88660000","longitude":"27.89915000"},{"id":"cff6d77a-75eb-4d0d-9628-36065f92d3bd","name":"Mafeteng","ru":"Mafeteng","country":"4d063863-f24d-4bfc-baac-a927970163c0","countryCode":"LS","state":"2f58f125-070b-4731-9656-d034aba6e1c0","stateCode":"E","latitude":"-29.82299000","longitude":"27.23744000"},{"id":"d52f91b5-d6b8-489e-9a08-c95b9c20fcb0","name":"Maseru","ru":"Maseru","country":"4d063863-f24d-4bfc-baac-a927970163c0","countryCode":"LS","state":"09d0cfda-b4a4-4d61-be5e-96001d571cd6","stateCode":"A","latitude":"-29.31667000","longitude":"27.48333000"},{"id":"c3a56a18-054c-4c15-b78e-7036119a09dd","name":"Nako","ru":"Nako","country":"4d063863-f24d-4bfc-baac-a927970163c0","countryCode":"LS","state":"09d0cfda-b4a4-4d61-be5e-96001d571cd6","stateCode":"A","latitude":"-29.61667000","longitude":"27.76667000"},{"id":"2fe9e70c-07ae-4611-8776-de04dbdb1d1d","name":"Mohale’s Hoek","ru":"Mohale’s Hoek","country":"4d063863-f24d-4bfc-baac-a927970163c0","countryCode":"LS","state":"757c5a6b-1fee-4404-95bc-2daa27a73080","stateCode":"F","latitude":"-30.15137000","longitude":"27.47691000"},{"id":"e990ccc3-edd5-4afb-8132-41e21533aded","name":"Mokhotlong","ru":"Mokhotlong","country":"4d063863-f24d-4bfc-baac-a927970163c0","countryCode":"LS","state":"6a1b5504-ce75-403d-aa73-2b5854e36d34","stateCode":"J","latitude":"-29.28939000","longitude":"29.06751000"},{"id":"e50ea95e-a83d-4c7a-b569-961f931bb846","name":"Qacha’s Nek","ru":"Qacha’s Nek","country":"4d063863-f24d-4bfc-baac-a927970163c0","countryCode":"LS","state":"fe7f97e4-d9e9-4ea5-ba4d-5666e2e6d34e","stateCode":"H","latitude":"-30.11537000","longitude":"28.68936000"},{"id":"c9567fd1-325b-47cd-a94c-8dde55d7b98c","name":"Quthing","ru":"Quthing","country":"4d063863-f24d-4bfc-baac-a927970163c0","countryCode":"LS","state":"92de31f9-9230-4f7b-9ed3-3c2054a73cd6","stateCode":"G","latitude":"-30.40001000","longitude":"27.70027000"},{"id":"2f307d32-2dfc-4576-9b5a-01f3611a0d0a","name":"Thaba-Tseka","ru":"Thaba-Tseka","country":"4d063863-f24d-4bfc-baac-a927970163c0","countryCode":"LS","state":"dc3b41e5-f4bd-4f07-aba2-936827e5dad6","stateCode":"K","latitude":"-29.52204000","longitude":"28.60840000"}]