[{"id":"4de4ddeb-2a77-4abd-b101-578db8fb6113","name":"Aarau","ru":"Aarau","country":"eb0102b4-65d5-4711-8ca4-79efc42b5b70","countryCode":"CH","state":"7112ba2d-ce2f-4a6e-90e3-3686e449f321","stateCode":"AG","latitude":"47.39254000","longitude":"8.04422000"},{"id":"5da1d924-22cd-4bfb-9390-9ca64ac5e4df","name":"Aarburg","ru":"Aarburg","country":"eb0102b4-65d5-4711-8ca4-79efc42b5b70","countryCode":"CH","state":"7112ba2d-ce2f-4a6e-90e3-3686e449f321","stateCode":"AG","latitude":"47.32067000","longitude":"7.89986000"},{"id":"30df2ca1-17fd-4773-9599-8418cdf98d11","name":"Aristau","ru":"Aristau","country":"eb0102b4-65d5-4711-8ca4-79efc42b5b70","countryCode":"CH","state":"7112ba2d-ce2f-4a6e-90e3-3686e449f321","stateCode":"AG","latitude":"47.28692000","longitude":"8.36356000"},{"id":"100589e7-7369-4754-84d6-94d7153a01c1","name":"Auw","ru":"Auw","country":"eb0102b4-65d5-4711-8ca4-79efc42b5b70","countryCode":"CH","state":"7112ba2d-ce2f-4a6e-90e3-3686e449f321","stateCode":"AG","latitude":"47.21082000","longitude":"8.36583000"},{"id":"2fb66f31-f2ed-4ade-8ca9-e5eee59fc418","name":"Bad Zurzach","ru":"Bad Zurzach","country":"eb0102b4-65d5-4711-8ca4-79efc42b5b70","countryCode":"CH","state":"7112ba2d-ce2f-4a6e-90e3-3686e449f321","stateCode":"AG","latitude":"47.58764000","longitude":"8.29365000"},{"id":"d017176c-81f5-4695-af46-9dfa24188fa8","name":"Baden","ru":"Baden","country":"eb0102b4-65d5-4711-8ca4-79efc42b5b70","countryCode":"CH","state":"7112ba2d-ce2f-4a6e-90e3-3686e449f321","stateCode":"AG","latitude":"47.47333000","longitude":"8.30592000"},{"id":"01afd990-5e83-4596-939d-489bb0a576de","name":"Berikon","ru":"Berikon","country":"eb0102b4-65d5-4711-8ca4-79efc42b5b70","countryCode":"CH","state":"7112ba2d-ce2f-4a6e-90e3-3686e449f321","stateCode":"AG","latitude":"47.35155000","longitude":"8.37232000"},{"id":"f9153ee4-80d3-4046-8cfa-e6d7d71b69bf","name":"Besenbüren","ru":"Besenbüren","country":"eb0102b4-65d5-4711-8ca4-79efc42b5b70","countryCode":"CH","state":"7112ba2d-ce2f-4a6e-90e3-3686e449f321","stateCode":"AG","latitude":"47.31439000","longitude":"8.34586000"},{"id":"4e12dbf0-100a-4914-982a-f68a91ebdb2c","name":"Bezirk Aarau","ru":"Bezirk Aarau","country":"eb0102b4-65d5-4711-8ca4-79efc42b5b70","countryCode":"CH","state":"7112ba2d-ce2f-4a6e-90e3-3686e449f321","stateCode":"AG","latitude":"47.37706000","longitude":"8.05235000"},{"id":"d4071a24-755f-4b8d-9739-ff0f16fe7836","name":"Bezirk Baden","ru":"Bezirk Baden","country":"eb0102b4-65d5-4711-8ca4-79efc42b5b70","countryCode":"CH","state":"7112ba2d-ce2f-4a6e-90e3-3686e449f321","stateCode":"AG","latitude":"47.45660000","longitude":"8.30059000"},{"id":"c7523839-7313-4af9-9a87-6217e1a60fbc","name":"Bezirk Bremgarten","ru":"Bezirk Bremgarten","country":"eb0102b4-65d5-4711-8ca4-79efc42b5b70","countryCode":"CH","state":"7112ba2d-ce2f-4a6e-90e3-3686e449f321","stateCode":"AG","latitude":"47.34927000","longitude":"8.33343000"},{"id":"3096ec9d-8fe8-45fe-8d76-58914362cb2c","name":"Bezirk Brugg","ru":"Bezirk Brugg","country":"eb0102b4-65d5-4711-8ca4-79efc42b5b70","countryCode":"CH","state":"7112ba2d-ce2f-4a6e-90e3-3686e449f321","stateCode":"AG","latitude":"47.47776000","longitude":"8.17798000"},{"id":"fb3198ad-9e1f-4567-82c5-8f5f17b501fe","name":"Bezirk Kulm","ru":"Bezirk Kulm","country":"eb0102b4-65d5-4711-8ca4-79efc42b5b70","countryCode":"CH","state":"7112ba2d-ce2f-4a6e-90e3-3686e449f321","stateCode":"AG","latitude":"47.28757000","longitude":"8.13302000"},{"id":"4c22fe79-94f4-4e1f-a429-b332a445a0e8","name":"Bezirk Laufenburg","ru":"Bezirk Laufenburg","country":"eb0102b4-65d5-4711-8ca4-79efc42b5b70","countryCode":"CH","state":"7112ba2d-ce2f-4a6e-90e3-3686e449f321","stateCode":"AG","latitude":"47.51844000","longitude":"8.03878000"},{"id":"ca99d6fd-f9a8-4620-b03e-aa9bc5091b2d","name":"Bezirk Lenzburg","ru":"Bezirk Lenzburg","country":"eb0102b4-65d5-4711-8ca4-79efc42b5b70","countryCode":"CH","state":"7112ba2d-ce2f-4a6e-90e3-3686e449f321","stateCode":"AG","latitude":"47.37184000","longitude":"8.18910000"},{"id":"c659858e-9941-4c94-b0d0-43b966fe55a2","name":"Bezirk Muri","ru":"Bezirk Muri","country":"eb0102b4-65d5-4711-8ca4-79efc42b5b70","countryCode":"CH","state":"7112ba2d-ce2f-4a6e-90e3-3686e449f321","stateCode":"AG","latitude":"47.25233000","longitude":"8.35362000"},{"id":"7f83d32e-9724-44f9-b7cb-a3142975b457","name":"Bezirk Rheinfelden","ru":"Bezirk Rheinfelden","country":"eb0102b4-65d5-4711-8ca4-79efc42b5b70","countryCode":"CH","state":"7112ba2d-ce2f-4a6e-90e3-3686e449f321","stateCode":"AG","latitude":"47.54048000","longitude":"7.83331000"},{"id":"4a8372c2-7fbf-4ca9-ac95-19016c9161eb","name":"Bezirk Zofingen","ru":"Bezirk Zofingen","country":"eb0102b4-65d5-4711-8ca4-79efc42b5b70","countryCode":"CH","state":"7112ba2d-ce2f-4a6e-90e3-3686e449f321","stateCode":"AG","latitude":"47.28864000","longitude":"7.95697000"},{"id":"3b74c698-b05f-41aa-91de-5565643430a9","name":"Bezirk Zurzach","ru":"Bezirk Zurzach","country":"eb0102b4-65d5-4711-8ca4-79efc42b5b70","countryCode":"CH","state":"7112ba2d-ce2f-4a6e-90e3-3686e449f321","stateCode":"AG","latitude":"47.56182000","longitude":"8.28020000"},{"id":"c024fd29-3eef-4cbd-8eed-39e8c1443de9","name":"Birmenstorf","ru":"Birmenstorf","country":"eb0102b4-65d5-4711-8ca4-79efc42b5b70","countryCode":"CH","state":"7112ba2d-ce2f-4a6e-90e3-3686e449f321","stateCode":"AG","latitude":"47.46152000","longitude":"8.24816000"},{"id":"95d0ab84-5975-4f26-97a7-f915cce81e1d","name":"Birr","ru":"Birr","country":"eb0102b4-65d5-4711-8ca4-79efc42b5b70","countryCode":"CH","state":"7112ba2d-ce2f-4a6e-90e3-3686e449f321","stateCode":"AG","latitude":"47.43432000","longitude":"8.20891000"},{"id":"076788c1-f93f-42b5-b8a1-e2372ba5c65c","name":"Boniswil","ru":"Boniswil","country":"eb0102b4-65d5-4711-8ca4-79efc42b5b70","countryCode":"CH","state":"7112ba2d-ce2f-4a6e-90e3-3686e449f321","stateCode":"AG","latitude":"47.31725000","longitude":"8.18963000"},{"id":"4bcdae9b-8374-4a2c-bc1f-739578dd839d","name":"Bremgarten","ru":"Bremgarten","country":"eb0102b4-65d5-4711-8ca4-79efc42b5b70","countryCode":"CH","state":"7112ba2d-ce2f-4a6e-90e3-3686e449f321","stateCode":"AG","latitude":"47.35109000","longitude":"8.34214000"},{"id":"a113ebc6-b5ca-4caf-8a8a-d4068f93404e","name":"Brittnau","ru":"Brittnau","country":"eb0102b4-65d5-4711-8ca4-79efc42b5b70","countryCode":"CH","state":"7112ba2d-ce2f-4a6e-90e3-3686e449f321","stateCode":"AG","latitude":"47.25954000","longitude":"7.94689000"},{"id":"e302de70-ed95-4b7e-8d45-9af654b54add","name":"Brugg","ru":"Brugg","country":"eb0102b4-65d5-4711-8ca4-79efc42b5b70","countryCode":"CH","state":"7112ba2d-ce2f-4a6e-90e3-3686e449f321","stateCode":"AG","latitude":"47.48096000","longitude":"8.20869000"},{"id":"d4938236-9a36-45b4-a7c2-c42d1c69e8dd","name":"Buchs","ru":"Buchs","country":"eb0102b4-65d5-4711-8ca4-79efc42b5b70","countryCode":"CH","state":"7112ba2d-ce2f-4a6e-90e3-3686e449f321","stateCode":"AG","latitude":"47.39358000","longitude":"8.08233000"},{"id":"0e88e623-bbff-41d1-8cb4-013836eb129d","name":"Buttwil","ru":"Buttwil","country":"eb0102b4-65d5-4711-8ca4-79efc42b5b70","countryCode":"CH","state":"7112ba2d-ce2f-4a6e-90e3-3686e449f321","stateCode":"AG","latitude":"47.26828000","longitude":"8.31064000"},{"id":"050538b2-6f48-4e82-bba4-ad9e36e466f6","name":"Dürrenäsch","ru":"Dürrenäsch","country":"eb0102b4-65d5-4711-8ca4-79efc42b5b70","countryCode":"CH","state":"7112ba2d-ce2f-4a6e-90e3-3686e449f321","stateCode":"AG","latitude":"47.32094000","longitude":"8.15874000"},{"id":"a7e379c3-2ec3-40de-af44-35b9231612a7","name":"Densbüren","ru":"Densbüren","country":"eb0102b4-65d5-4711-8ca4-79efc42b5b70","countryCode":"CH","state":"7112ba2d-ce2f-4a6e-90e3-3686e449f321","stateCode":"AG","latitude":"47.45260000","longitude":"8.05330000"},{"id":"53e14eed-1834-44d8-82bc-bc21b075428c","name":"Dottikon","ru":"Dottikon","country":"eb0102b4-65d5-4711-8ca4-79efc42b5b70","countryCode":"CH","state":"7112ba2d-ce2f-4a6e-90e3-3686e449f321","stateCode":"AG","latitude":"47.38437000","longitude":"8.23981000"},{"id":"1589999a-2911-4c0d-aee9-d7c7484f041e","name":"Egliswil","ru":"Egliswil","country":"eb0102b4-65d5-4711-8ca4-79efc42b5b70","countryCode":"CH","state":"7112ba2d-ce2f-4a6e-90e3-3686e449f321","stateCode":"AG","latitude":"47.34922000","longitude":"8.18553000"},{"id":"a9681d34-70a4-4a25-b3cb-783e42ed448b","name":"Ehrendingen","ru":"Ehrendingen","country":"eb0102b4-65d5-4711-8ca4-79efc42b5b70","countryCode":"CH","state":"7112ba2d-ce2f-4a6e-90e3-3686e449f321","stateCode":"AG","latitude":"47.50250000","longitude":"8.34729000"},{"id":"c0b61d0f-2457-4636-a9e0-1958a28aed29","name":"Eiken","ru":"Eiken","country":"eb0102b4-65d5-4711-8ca4-79efc42b5b70","countryCode":"CH","state":"7112ba2d-ce2f-4a6e-90e3-3686e449f321","stateCode":"AG","latitude":"47.53361000","longitude":"7.98801000"},{"id":"6eda7a83-e705-43df-8fe1-351e3a1db74b","name":"Endingen","ru":"Endingen","country":"eb0102b4-65d5-4711-8ca4-79efc42b5b70","countryCode":"CH","state":"7112ba2d-ce2f-4a6e-90e3-3686e449f321","stateCode":"AG","latitude":"47.53742000","longitude":"8.29036000"},{"id":"92d228d5-3660-40e2-9ca3-902a3de45225","name":"Frick","ru":"Frick","country":"eb0102b4-65d5-4711-8ca4-79efc42b5b70","countryCode":"CH","state":"7112ba2d-ce2f-4a6e-90e3-3686e449f321","stateCode":"AG","latitude":"47.51169000","longitude":"8.02471000"},{"id":"abc5c343-c04d-44a3-8eaa-838acea1c081","name":"Gebenstorf","ru":"Gebenstorf","country":"eb0102b4-65d5-4711-8ca4-79efc42b5b70","countryCode":"CH","state":"7112ba2d-ce2f-4a6e-90e3-3686e449f321","stateCode":"AG","latitude":"47.48136000","longitude":"8.23949000"},{"id":"0acd9d7d-3ae0-435f-aa5d-2447ef474270","name":"Gipf-Oberfrick","ru":"Gipf-Oberfrick","country":"eb0102b4-65d5-4711-8ca4-79efc42b5b70","countryCode":"CH","state":"7112ba2d-ce2f-4a6e-90e3-3686e449f321","stateCode":"AG","latitude":"47.49875000","longitude":"8.00497000"},{"id":"8a3bc337-d15b-48ef-99a8-c3f92968645b","name":"Gontenschwil","ru":"Gontenschwil","country":"eb0102b4-65d5-4711-8ca4-79efc42b5b70","countryCode":"CH","state":"7112ba2d-ce2f-4a6e-90e3-3686e449f321","stateCode":"AG","latitude":"47.27166000","longitude":"8.14396000"},{"id":"f572d621-716a-4848-bf1b-a4c9598208c9","name":"Gränichen","ru":"Gränichen","country":"eb0102b4-65d5-4711-8ca4-79efc42b5b70","countryCode":"CH","state":"7112ba2d-ce2f-4a6e-90e3-3686e449f321","stateCode":"AG","latitude":"47.35930000","longitude":"8.10243000"},{"id":"e7094742-6135-4735-b66b-a9f43c6539c8","name":"Hausen","ru":"Hausen","country":"eb0102b4-65d5-4711-8ca4-79efc42b5b70","countryCode":"CH","state":"7112ba2d-ce2f-4a6e-90e3-3686e449f321","stateCode":"AG","latitude":"47.46396000","longitude":"8.20988000"},{"id":"c111f669-42e9-457b-9fac-43361a305aaa","name":"Hägglingen","ru":"Hägglingen","country":"eb0102b4-65d5-4711-8ca4-79efc42b5b70","countryCode":"CH","state":"7112ba2d-ce2f-4a6e-90e3-3686e449f321","stateCode":"AG","latitude":"47.38851000","longitude":"8.25285000"},{"id":"6a53c9c7-051f-4504-a57e-8459d43a0609","name":"Jonen","ru":"Jonen","country":"eb0102b4-65d5-4711-8ca4-79efc42b5b70","countryCode":"CH","state":"7112ba2d-ce2f-4a6e-90e3-3686e449f321","stateCode":"AG","latitude":"47.29750000","longitude":"8.39282000"},{"id":"37a220e1-218a-4f41-abb3-2fc6407c67dd","name":"Kaiseraugst","ru":"Kaiseraugst","country":"eb0102b4-65d5-4711-8ca4-79efc42b5b70","countryCode":"CH","state":"7112ba2d-ce2f-4a6e-90e3-3686e449f321","stateCode":"AG","latitude":"47.53966000","longitude":"7.72605000"},{"id":"3415664b-0e23-4686-8681-39a653f41dad","name":"Kaisten","ru":"Kaisten","country":"eb0102b4-65d5-4711-8ca4-79efc42b5b70","countryCode":"CH","state":"7112ba2d-ce2f-4a6e-90e3-3686e449f321","stateCode":"AG","latitude":"47.54160000","longitude":"8.04337000"},{"id":"d3d7b9bd-a8d1-4748-8760-3e3d4c0a7df7","name":"Kölliken","ru":"Kölliken","country":"eb0102b4-65d5-4711-8ca4-79efc42b5b70","countryCode":"CH","state":"7112ba2d-ce2f-4a6e-90e3-3686e449f321","stateCode":"AG","latitude":"47.33337000","longitude":"8.02237000"},{"id":"d2f72652-b3a1-4309-9ac6-e53953faf084","name":"Künten","ru":"Künten","country":"eb0102b4-65d5-4711-8ca4-79efc42b5b70","countryCode":"CH","state":"7112ba2d-ce2f-4a6e-90e3-3686e449f321","stateCode":"AG","latitude":"47.38887000","longitude":"8.33045000"},{"id":"f4b902da-4c47-471e-9c15-d5b7475f3b0a","name":"Küttigen","ru":"Küttigen","country":"eb0102b4-65d5-4711-8ca4-79efc42b5b70","countryCode":"CH","state":"7112ba2d-ce2f-4a6e-90e3-3686e449f321","stateCode":"AG","latitude":"47.41484000","longitude":"8.04979000"},{"id":"f08823b1-c60c-4aa0-ae62-36f2943dc9d8","name":"Killwangen","ru":"Killwangen","country":"eb0102b4-65d5-4711-8ca4-79efc42b5b70","countryCode":"CH","state":"7112ba2d-ce2f-4a6e-90e3-3686e449f321","stateCode":"AG","latitude":"47.43223000","longitude":"8.35097000"},{"id":"a897053a-630a-4992-a29a-211c72c5260e","name":"Klingnau","ru":"Klingnau","country":"eb0102b4-65d5-4711-8ca4-79efc42b5b70","countryCode":"CH","state":"7112ba2d-ce2f-4a6e-90e3-3686e449f321","stateCode":"AG","latitude":"47.58361000","longitude":"8.24880000"},{"id":"9f3a2f3a-efde-4883-bac3-34107dbd13ce","name":"Koblenz","ru":"Koblenz","country":"eb0102b4-65d5-4711-8ca4-79efc42b5b70","countryCode":"CH","state":"7112ba2d-ce2f-4a6e-90e3-3686e449f321","stateCode":"AG","latitude":"47.60972000","longitude":"8.23750000"},{"id":"e12b6cdd-da89-4c92-9b20-a37973f869ef","name":"Laufenburg","ru":"Laufenburg","country":"eb0102b4-65d5-4711-8ca4-79efc42b5b70","countryCode":"CH","state":"7112ba2d-ce2f-4a6e-90e3-3686e449f321","stateCode":"AG","latitude":"47.55985000","longitude":"8.06225000"},{"id":"6eefd7ec-f85e-4ae3-9271-0b9405074315","name":"Lauffohr (Brugg)","ru":"Lauffohr (Brugg)","country":"eb0102b4-65d5-4711-8ca4-79efc42b5b70","countryCode":"CH","state":"7112ba2d-ce2f-4a6e-90e3-3686e449f321","stateCode":"AG","latitude":"47.50154000","longitude":"8.23122000"},{"id":"16b88b35-356b-4094-b807-6939a98f0faf","name":"Leibstadt","ru":"Leibstadt","country":"eb0102b4-65d5-4711-8ca4-79efc42b5b70","countryCode":"CH","state":"7112ba2d-ce2f-4a6e-90e3-3686e449f321","stateCode":"AG","latitude":"47.58790000","longitude":"8.17611000"},{"id":"b3905737-f82e-41ed-b9d1-afd12cf5a55a","name":"Lenzburg","ru":"Lenzburg","country":"eb0102b4-65d5-4711-8ca4-79efc42b5b70","countryCode":"CH","state":"7112ba2d-ce2f-4a6e-90e3-3686e449f321","stateCode":"AG","latitude":"47.38853000","longitude":"8.17503000"},{"id":"a4658d0b-5a3e-47f7-b2e0-4cd7193aad0d","name":"Magden","ru":"Magden","country":"eb0102b4-65d5-4711-8ca4-79efc42b5b70","countryCode":"CH","state":"7112ba2d-ce2f-4a6e-90e3-3686e449f321","stateCode":"AG","latitude":"47.52868000","longitude":"7.81128000"},{"id":"f593b085-b1c4-4d62-aabd-6f9d8b76ed98","name":"Möhlin","ru":"Möhlin","country":"eb0102b4-65d5-4711-8ca4-79efc42b5b70","countryCode":"CH","state":"7112ba2d-ce2f-4a6e-90e3-3686e449f321","stateCode":"AG","latitude":"47.55915000","longitude":"7.84329000"},{"id":"f6efe9ba-1e00-4671-93d8-c427177b47f3","name":"Meisterschwanden","ru":"Meisterschwanden","country":"eb0102b4-65d5-4711-8ca4-79efc42b5b70","countryCode":"CH","state":"7112ba2d-ce2f-4a6e-90e3-3686e449f321","stateCode":"AG","latitude":"47.29489000","longitude":"8.22867000"},{"id":"701a048b-a4c1-40e0-8d22-93b4f602242b","name":"Mellingen","ru":"Mellingen","country":"eb0102b4-65d5-4711-8ca4-79efc42b5b70","countryCode":"CH","state":"7112ba2d-ce2f-4a6e-90e3-3686e449f321","stateCode":"AG","latitude":"47.41903000","longitude":"8.27331000"},{"id":"bd030dc1-3597-4888-b977-f9a8cd9c0c67","name":"Menziken","ru":"Menziken","country":"eb0102b4-65d5-4711-8ca4-79efc42b5b70","countryCode":"CH","state":"7112ba2d-ce2f-4a6e-90e3-3686e449f321","stateCode":"AG","latitude":"47.23965000","longitude":"8.18996000"},{"id":"56ea3580-6e57-46cf-a32c-c9b46a8b872f","name":"Merenschwand","ru":"Merenschwand","country":"eb0102b4-65d5-4711-8ca4-79efc42b5b70","countryCode":"CH","state":"7112ba2d-ce2f-4a6e-90e3-3686e449f321","stateCode":"AG","latitude":"47.25944000","longitude":"8.37633000"},{"id":"fbf62130-65d6-4b7b-86e5-09fd1891eb2f","name":"Muhen","ru":"Muhen","country":"eb0102b4-65d5-4711-8ca4-79efc42b5b70","countryCode":"CH","state":"7112ba2d-ce2f-4a6e-90e3-3686e449f321","stateCode":"AG","latitude":"47.33578000","longitude":"8.05536000"},{"id":"289cde35-5eff-4b66-9c0f-d606c6fa1122","name":"Mumpf","ru":"Mumpf","country":"eb0102b4-65d5-4711-8ca4-79efc42b5b70","countryCode":"CH","state":"7112ba2d-ce2f-4a6e-90e3-3686e449f321","stateCode":"AG","latitude":"47.54563000","longitude":"7.92123000"},{"id":"a85bfc35-c463-411e-9103-d76b77d34114","name":"Murgenthal","ru":"Murgenthal","country":"eb0102b4-65d5-4711-8ca4-79efc42b5b70","countryCode":"CH","state":"7112ba2d-ce2f-4a6e-90e3-3686e449f321","stateCode":"AG","latitude":"47.27145000","longitude":"7.83935000"},{"id":"0c44c441-7d0b-42fa-86a6-79d2c9b99b96","name":"Muri","ru":"Muri","country":"eb0102b4-65d5-4711-8ca4-79efc42b5b70","countryCode":"CH","state":"7112ba2d-ce2f-4a6e-90e3-3686e449f321","stateCode":"AG","latitude":"47.27428000","longitude":"8.33854000"},{"id":"4ffd2649-5aa4-4eb8-bf9b-29d919578b10","name":"Neuenhof","ru":"Neuenhof","country":"eb0102b4-65d5-4711-8ca4-79efc42b5b70","countryCode":"CH","state":"7112ba2d-ce2f-4a6e-90e3-3686e449f321","stateCode":"AG","latitude":"47.44985000","longitude":"8.32682000"},{"id":"cd6d506b-c086-4e0f-9cab-f8383cb4d69c","name":"Niederlenz","ru":"Niederlenz","country":"eb0102b4-65d5-4711-8ca4-79efc42b5b70","countryCode":"CH","state":"7112ba2d-ce2f-4a6e-90e3-3686e449f321","stateCode":"AG","latitude":"47.40079000","longitude":"8.17640000"},{"id":"ea54cbd4-e514-4650-ad12-906187fcddf8","name":"Niederrohrdorf","ru":"Niederrohrdorf","country":"eb0102b4-65d5-4711-8ca4-79efc42b5b70","countryCode":"CH","state":"7112ba2d-ce2f-4a6e-90e3-3686e449f321","stateCode":"AG","latitude":"47.42409000","longitude":"8.30404000"},{"id":"dc599266-a60d-4e84-b305-924d8d25435c","name":"Oberentfelden","ru":"Oberentfelden","country":"eb0102b4-65d5-4711-8ca4-79efc42b5b70","countryCode":"CH","state":"7112ba2d-ce2f-4a6e-90e3-3686e449f321","stateCode":"AG","latitude":"47.35639000","longitude":"8.04594000"},{"id":"4f0a8c09-547e-4555-a33f-e0f2b63a5f6d","name":"Oberlunkhofen","ru":"Oberlunkhofen","country":"eb0102b4-65d5-4711-8ca4-79efc42b5b70","countryCode":"CH","state":"7112ba2d-ce2f-4a6e-90e3-3686e449f321","stateCode":"AG","latitude":"47.31244000","longitude":"8.39242000"},{"id":"70e0bd52-4ed5-4256-9e2c-449a814d97d8","name":"Oberrüti","ru":"Oberrüti","country":"eb0102b4-65d5-4711-8ca4-79efc42b5b70","countryCode":"CH","state":"7112ba2d-ce2f-4a6e-90e3-3686e449f321","stateCode":"AG","latitude":"47.16673000","longitude":"8.39441000"},{"id":"901c2081-fe0b-4101-b304-f8d285c19233","name":"Oberrohrdorf","ru":"Oberrohrdorf","country":"eb0102b4-65d5-4711-8ca4-79efc42b5b70","countryCode":"CH","state":"7112ba2d-ce2f-4a6e-90e3-3686e449f321","stateCode":"AG","latitude":"47.41833000","longitude":"8.31983000"},{"id":"baead330-37f0-442d-b1f3-51264f658f43","name":"Obersiggenthal","ru":"Obersiggenthal","country":"eb0102b4-65d5-4711-8ca4-79efc42b5b70","countryCode":"CH","state":"7112ba2d-ce2f-4a6e-90e3-3686e449f321","stateCode":"AG","latitude":"47.48750000","longitude":"8.29652000"},{"id":"f3588bc0-684d-4cd3-829e-9a94ab99510b","name":"Oftringen","ru":"Oftringen","country":"eb0102b4-65d5-4711-8ca4-79efc42b5b70","countryCode":"CH","state":"7112ba2d-ce2f-4a6e-90e3-3686e449f321","stateCode":"AG","latitude":"47.31382000","longitude":"7.92533000"},{"id":"ff84c564-865b-4f89-80ff-5341e801c1ca","name":"Othmarsingen","ru":"Othmarsingen","country":"eb0102b4-65d5-4711-8ca4-79efc42b5b70","countryCode":"CH","state":"7112ba2d-ce2f-4a6e-90e3-3686e449f321","stateCode":"AG","latitude":"47.40125000","longitude":"8.21383000"},{"id":"1d1c8b22-b601-476f-8b23-88e86646d143","name":"Reinach","ru":"Reinach","country":"eb0102b4-65d5-4711-8ca4-79efc42b5b70","countryCode":"CH","state":"7112ba2d-ce2f-4a6e-90e3-3686e449f321","stateCode":"AG","latitude":"47.25732000","longitude":"8.18091000"},{"id":"218f9f71-dd55-4ca4-8b0b-d45d4c11578e","name":"Rheinfelden","ru":"Rheinfelden","country":"eb0102b4-65d5-4711-8ca4-79efc42b5b70","countryCode":"CH","state":"7112ba2d-ce2f-4a6e-90e3-3686e449f321","stateCode":"AG","latitude":"47.55437000","longitude":"7.79403000"},{"id":"062a1379-df4a-4b4c-b1fb-ad6aeaff1dee","name":"Rothrist","ru":"Rothrist","country":"eb0102b4-65d5-4711-8ca4-79efc42b5b70","countryCode":"CH","state":"7112ba2d-ce2f-4a6e-90e3-3686e449f321","stateCode":"AG","latitude":"47.30508000","longitude":"7.89196000"},{"id":"213e6a7d-7786-4942-be52-b32cc8e60397","name":"Rudolfstetten","ru":"Rudolfstetten","country":"eb0102b4-65d5-4711-8ca4-79efc42b5b70","countryCode":"CH","state":"7112ba2d-ce2f-4a6e-90e3-3686e449f321","stateCode":"AG","latitude":"47.37101000","longitude":"8.38083000"},{"id":"22bcd63b-9ebf-4447-b798-7c3d28ae083f","name":"Rupperswil","ru":"Rupperswil","country":"eb0102b4-65d5-4711-8ca4-79efc42b5b70","countryCode":"CH","state":"7112ba2d-ce2f-4a6e-90e3-3686e449f321","stateCode":"AG","latitude":"47.40131000","longitude":"8.12877000"},{"id":"2956a819-b744-45e5-ac6a-dc3f67de9f25","name":"Safenwil","ru":"Safenwil","country":"eb0102b4-65d5-4711-8ca4-79efc42b5b70","countryCode":"CH","state":"7112ba2d-ce2f-4a6e-90e3-3686e449f321","stateCode":"AG","latitude":"47.32163000","longitude":"7.98254000"},{"id":"549fd013-2d01-4764-9178-ea5cabf48156","name":"Sarmenstorf","ru":"Sarmenstorf","country":"eb0102b4-65d5-4711-8ca4-79efc42b5b70","countryCode":"CH","state":"7112ba2d-ce2f-4a6e-90e3-3686e449f321","stateCode":"AG","latitude":"47.31109000","longitude":"8.24950000"},{"id":"bff1781b-7ddb-459f-82f3-135d0f061dc3","name":"Schafisheim","ru":"Schafisheim","country":"eb0102b4-65d5-4711-8ca4-79efc42b5b70","countryCode":"CH","state":"7112ba2d-ce2f-4a6e-90e3-3686e449f321","stateCode":"AG","latitude":"47.37664000","longitude":"8.14263000"},{"id":"3e44b85f-d931-47a1-a892-6cd0e04bedc6","name":"Schöftland","ru":"Schöftland","country":"eb0102b4-65d5-4711-8ca4-79efc42b5b70","countryCode":"CH","state":"7112ba2d-ce2f-4a6e-90e3-3686e449f321","stateCode":"AG","latitude":"47.30590000","longitude":"8.05119000"},{"id":"22687c5e-80e3-415f-995a-838e416e7c03","name":"Schinznach Bad","ru":"Schinznach Bad","country":"eb0102b4-65d5-4711-8ca4-79efc42b5b70","countryCode":"CH","state":"7112ba2d-ce2f-4a6e-90e3-3686e449f321","stateCode":"AG","latitude":"47.44992000","longitude":"8.16833000"},{"id":"943b58bc-dcb7-4758-844b-db70eceb1b85","name":"Schinznach Dorf","ru":"Schinznach Dorf","country":"eb0102b4-65d5-4711-8ca4-79efc42b5b70","countryCode":"CH","state":"7112ba2d-ce2f-4a6e-90e3-3686e449f321","stateCode":"AG","latitude":"47.44650000","longitude":"8.14089000"},{"id":"18bb5c19-da59-48e8-81ca-1a59b5071910","name":"Schwaderloch","ru":"Schwaderloch","country":"eb0102b4-65d5-4711-8ca4-79efc42b5b70","countryCode":"CH","state":"7112ba2d-ce2f-4a6e-90e3-3686e449f321","stateCode":"AG","latitude":"47.58541000","longitude":"8.14455000"},{"id":"517c0f0f-aae5-4670-8b44-8ed3a4bc9b42","name":"Seengen","ru":"Seengen","country":"eb0102b4-65d5-4711-8ca4-79efc42b5b70","countryCode":"CH","state":"7112ba2d-ce2f-4a6e-90e3-3686e449f321","stateCode":"AG","latitude":"47.32503000","longitude":"8.20724000"},{"id":"1003d5bf-84b5-490c-9394-5a573258ae84","name":"Seon","ru":"Seon","country":"eb0102b4-65d5-4711-8ca4-79efc42b5b70","countryCode":"CH","state":"7112ba2d-ce2f-4a6e-90e3-3686e449f321","stateCode":"AG","latitude":"47.34848000","longitude":"8.16072000"},{"id":"6124f6b2-c317-4dd1-ba82-cc2c970c38b4","name":"Sins","ru":"Sins","country":"eb0102b4-65d5-4711-8ca4-79efc42b5b70","countryCode":"CH","state":"7112ba2d-ce2f-4a6e-90e3-3686e449f321","stateCode":"AG","latitude":"47.19296000","longitude":"8.39384000"},{"id":"739d2df0-82ba-4413-8585-e1e0602eef50","name":"Spreitenbach","ru":"Spreitenbach","country":"eb0102b4-65d5-4711-8ca4-79efc42b5b70","countryCode":"CH","state":"7112ba2d-ce2f-4a6e-90e3-3686e449f321","stateCode":"AG","latitude":"47.42285000","longitude":"8.36792000"},{"id":"6cc5dcbc-4e77-4a4c-8c18-dc86e818a140","name":"Staffelbach","ru":"Staffelbach","country":"eb0102b4-65d5-4711-8ca4-79efc42b5b70","countryCode":"CH","state":"7112ba2d-ce2f-4a6e-90e3-3686e449f321","stateCode":"AG","latitude":"47.28395000","longitude":"8.04208000"},{"id":"77b55bc3-de88-4f61-bcc4-86fb42667b41","name":"Staufen","ru":"Staufen","country":"eb0102b4-65d5-4711-8ca4-79efc42b5b70","countryCode":"CH","state":"7112ba2d-ce2f-4a6e-90e3-3686e449f321","stateCode":"AG","latitude":"47.38197000","longitude":"8.16681000"},{"id":"25c3b756-2692-4020-974f-4fef34b34350","name":"Stein","ru":"Stein","country":"eb0102b4-65d5-4711-8ca4-79efc42b5b70","countryCode":"CH","state":"7112ba2d-ce2f-4a6e-90e3-3686e449f321","stateCode":"AG","latitude":"47.54403000","longitude":"7.95256000"},{"id":"f666fd5d-35da-4256-8742-4fab26b52e0c","name":"Strengelbach","ru":"Strengelbach","country":"eb0102b4-65d5-4711-8ca4-79efc42b5b70","countryCode":"CH","state":"7112ba2d-ce2f-4a6e-90e3-3686e449f321","stateCode":"AG","latitude":"47.27917000","longitude":"7.92895000"},{"id":"6f498866-17f6-418a-8bc4-9e77ba78547d","name":"Suhr","ru":"Suhr","country":"eb0102b4-65d5-4711-8ca4-79efc42b5b70","countryCode":"CH","state":"7112ba2d-ce2f-4a6e-90e3-3686e449f321","stateCode":"AG","latitude":"47.37172000","longitude":"8.07967000"},{"id":"73737085-2671-4612-9588-c3198b70d5b3","name":"Sulz","ru":"Sulz","country":"eb0102b4-65d5-4711-8ca4-79efc42b5b70","countryCode":"CH","state":"7112ba2d-ce2f-4a6e-90e3-3686e449f321","stateCode":"AG","latitude":"47.53602000","longitude":"8.09628000"},{"id":"61d2e13f-704d-471b-b308-819fb0e20f9f","name":"Tegerfelden","ru":"Tegerfelden","country":"eb0102b4-65d5-4711-8ca4-79efc42b5b70","countryCode":"CH","state":"7112ba2d-ce2f-4a6e-90e3-3686e449f321","stateCode":"AG","latitude":"47.55809000","longitude":"8.28914000"},{"id":"49ad845a-3403-427a-9d1d-4ce4077a0771","name":"Teufenthal","ru":"Teufenthal","country":"eb0102b4-65d5-4711-8ca4-79efc42b5b70","countryCode":"CH","state":"7112ba2d-ce2f-4a6e-90e3-3686e449f321","stateCode":"AG","latitude":"47.32896000","longitude":"8.11777000"},{"id":"b2e837fd-37c9-4ec1-a4dc-ee21c7685a72","name":"Turgi","ru":"Turgi","country":"eb0102b4-65d5-4711-8ca4-79efc42b5b70","countryCode":"CH","state":"7112ba2d-ce2f-4a6e-90e3-3686e449f321","stateCode":"AG","latitude":"47.49201000","longitude":"8.25412000"},{"id":"9c94a535-a9ed-45ae-acfb-928092520f3f","name":"Uerkheim","ru":"Uerkheim","country":"eb0102b4-65d5-4711-8ca4-79efc42b5b70","countryCode":"CH","state":"7112ba2d-ce2f-4a6e-90e3-3686e449f321","stateCode":"AG","latitude":"47.30353000","longitude":"8.02320000"},{"id":"89dcaffb-dce5-4a1a-ba0c-c631e43c5f7e","name":"Unterkulm","ru":"Unterkulm","country":"eb0102b4-65d5-4711-8ca4-79efc42b5b70","countryCode":"CH","state":"7112ba2d-ce2f-4a6e-90e3-3686e449f321","stateCode":"AG","latitude":"47.30998000","longitude":"8.11371000"},{"id":"3423996e-e030-417a-a22f-7dcb4c1dd7f5","name":"Unterlunkhofen","ru":"Unterlunkhofen","country":"eb0102b4-65d5-4711-8ca4-79efc42b5b70","countryCode":"CH","state":"7112ba2d-ce2f-4a6e-90e3-3686e449f321","stateCode":"AG","latitude":"47.32120000","longitude":"8.38102000"},{"id":"d935f500-afda-4d2c-848c-e760bcce4cfe","name":"Untersiggenthal","ru":"Untersiggenthal","country":"eb0102b4-65d5-4711-8ca4-79efc42b5b70","countryCode":"CH","state":"7112ba2d-ce2f-4a6e-90e3-3686e449f321","stateCode":"AG","latitude":"47.50213000","longitude":"8.25554000"},{"id":"a94506bf-554a-4c1b-b664-d8533d37a744","name":"Veltheim","ru":"Veltheim","country":"eb0102b4-65d5-4711-8ca4-79efc42b5b70","countryCode":"CH","state":"7112ba2d-ce2f-4a6e-90e3-3686e449f321","stateCode":"AG","latitude":"47.43796000","longitude":"8.14722000"},{"id":"a085550b-018a-4562-9094-1449048a0120","name":"Villigen","ru":"Villigen","country":"eb0102b4-65d5-4711-8ca4-79efc42b5b70","countryCode":"CH","state":"7112ba2d-ce2f-4a6e-90e3-3686e449f321","stateCode":"AG","latitude":"47.52682000","longitude":"8.21486000"},{"id":"0cb37966-a55e-4070-8d4e-1717b64b0624","name":"Villmergen","ru":"Villmergen","country":"eb0102b4-65d5-4711-8ca4-79efc42b5b70","countryCode":"CH","state":"7112ba2d-ce2f-4a6e-90e3-3686e449f321","stateCode":"AG","latitude":"47.35009000","longitude":"8.24762000"},{"id":"f626bd88-acd8-4eb4-8801-cd810d136641","name":"Villnachern","ru":"Villnachern","country":"eb0102b4-65d5-4711-8ca4-79efc42b5b70","countryCode":"CH","state":"7112ba2d-ce2f-4a6e-90e3-3686e449f321","stateCode":"AG","latitude":"47.47098000","longitude":"8.15975000"},{"id":"bb3b4330-aeaf-48d9-b046-2fdf2094bdbb","name":"Vordemwald","ru":"Vordemwald","country":"eb0102b4-65d5-4711-8ca4-79efc42b5b70","countryCode":"CH","state":"7112ba2d-ce2f-4a6e-90e3-3686e449f321","stateCode":"AG","latitude":"47.27585000","longitude":"7.90114000"},{"id":"06edb280-7e7f-4fae-ab3b-c36a37140252","name":"Waltenschwil","ru":"Waltenschwil","country":"eb0102b4-65d5-4711-8ca4-79efc42b5b70","countryCode":"CH","state":"7112ba2d-ce2f-4a6e-90e3-3686e449f321","stateCode":"AG","latitude":"47.33339000","longitude":"8.29791000"},{"id":"9934dd9e-fe90-4fa8-b8d5-65a274162f84","name":"Wölflinswil","ru":"Wölflinswil","country":"eb0102b4-65d5-4711-8ca4-79efc42b5b70","countryCode":"CH","state":"7112ba2d-ce2f-4a6e-90e3-3686e449f321","stateCode":"AG","latitude":"47.46070000","longitude":"7.99835000"},{"id":"7bfd75e0-013a-4a4b-a0bd-1ce31a7844e5","name":"Würenlingen","ru":"Würenlingen","country":"eb0102b4-65d5-4711-8ca4-79efc42b5b70","countryCode":"CH","state":"7112ba2d-ce2f-4a6e-90e3-3686e449f321","stateCode":"AG","latitude":"47.53356000","longitude":"8.25666000"},{"id":"f43d9e7c-2b2a-4359-9904-88c05859b7f5","name":"Würenlos","ru":"Würenlos","country":"eb0102b4-65d5-4711-8ca4-79efc42b5b70","countryCode":"CH","state":"7112ba2d-ce2f-4a6e-90e3-3686e449f321","stateCode":"AG","latitude":"47.44205000","longitude":"8.36261000"},{"id":"f0aa25e6-389b-459b-98e5-8e2a4669f363","name":"Wegenstetten","ru":"Wegenstetten","country":"eb0102b4-65d5-4711-8ca4-79efc42b5b70","countryCode":"CH","state":"7112ba2d-ce2f-4a6e-90e3-3686e449f321","stateCode":"AG","latitude":"47.49797000","longitude":"7.93141000"},{"id":"ad05705c-a7a9-4a17-ba9d-d855d4daeb2b","name":"Wettingen","ru":"Wettingen","country":"eb0102b4-65d5-4711-8ca4-79efc42b5b70","countryCode":"CH","state":"7112ba2d-ce2f-4a6e-90e3-3686e449f321","stateCode":"AG","latitude":"47.47049000","longitude":"8.31636000"},{"id":"b905ea92-e1ef-4cc2-b14b-29307e19c40c","name":"Windisch","ru":"Windisch","country":"eb0102b4-65d5-4711-8ca4-79efc42b5b70","countryCode":"CH","state":"7112ba2d-ce2f-4a6e-90e3-3686e449f321","stateCode":"AG","latitude":"47.47899000","longitude":"8.21842000"},{"id":"8baf8994-c30b-47f3-bd52-f41f259bfd88","name":"Wittnau","ru":"Wittnau","country":"eb0102b4-65d5-4711-8ca4-79efc42b5b70","countryCode":"CH","state":"7112ba2d-ce2f-4a6e-90e3-3686e449f321","stateCode":"AG","latitude":"47.48139000","longitude":"7.97577000"},{"id":"fdae255f-90f7-4733-a067-f1a4b7af916f","name":"Wohlen","ru":"Wohlen","country":"eb0102b4-65d5-4711-8ca4-79efc42b5b70","countryCode":"CH","state":"7112ba2d-ce2f-4a6e-90e3-3686e449f321","stateCode":"AG","latitude":"47.35066000","longitude":"8.27517000"},{"id":"4b88e977-50e1-48d6-a756-f7abfe22d861","name":"Zofingen","ru":"Zofingen","country":"eb0102b4-65d5-4711-8ca4-79efc42b5b70","countryCode":"CH","state":"7112ba2d-ce2f-4a6e-90e3-3686e449f321","stateCode":"AG","latitude":"47.28779000","longitude":"7.94586000"},{"id":"81b4a2aa-45c6-4999-b10f-16925cac692e","name":"Bühler","ru":"Bühler","country":"eb0102b4-65d5-4711-8ca4-79efc42b5b70","countryCode":"CH","state":"b146e02d-8406-4f04-84fc-00addc8da729","stateCode":"AR","latitude":"47.37348000","longitude":"9.42507000"},{"id":"e28dd99f-d9f1-4f07-ac76-2d2cbc1d97be","name":"Bezirk Hinterland","ru":"Bezirk Hinterland","country":"eb0102b4-65d5-4711-8ca4-79efc42b5b70","countryCode":"CH","state":"b146e02d-8406-4f04-84fc-00addc8da729","stateCode":"AR","latitude":"47.36470000","longitude":"9.27350000"},{"id":"3c398b54-39f0-487f-bcba-78631530b59e","name":"Bezirk Mittelland","ru":"Bezirk Mittelland","country":"eb0102b4-65d5-4711-8ca4-79efc42b5b70","countryCode":"CH","state":"b146e02d-8406-4f04-84fc-00addc8da729","stateCode":"AR","latitude":"47.37700000","longitude":"9.43469000"},{"id":"c8d66329-5b43-4fa3-94ab-4b1a632fd58b","name":"Bezirk Vorderland","ru":"Bezirk Vorderland","country":"eb0102b4-65d5-4711-8ca4-79efc42b5b70","countryCode":"CH","state":"b146e02d-8406-4f04-84fc-00addc8da729","stateCode":"AR","latitude":"47.44167000","longitude":"9.53869000"},{"id":"1f35c59c-117e-48d5-9b25-a421575bd818","name":"Gais","ru":"Gais","country":"eb0102b4-65d5-4711-8ca4-79efc42b5b70","countryCode":"CH","state":"b146e02d-8406-4f04-84fc-00addc8da729","stateCode":"AR","latitude":"47.36150000","longitude":"9.45356000"},{"id":"87844540-e9f6-47d8-8df5-7aa4d3c6299e","name":"Heiden","ru":"Heiden","country":"eb0102b4-65d5-4711-8ca4-79efc42b5b70","countryCode":"CH","state":"b146e02d-8406-4f04-84fc-00addc8da729","stateCode":"AR","latitude":"47.44255000","longitude":"9.53293000"},{"id":"b326a71b-e83c-4b0a-9280-2ceeb0eef8aa","name":"Herisau","ru":"Herisau","country":"eb0102b4-65d5-4711-8ca4-79efc42b5b70","countryCode":"CH","state":"b146e02d-8406-4f04-84fc-00addc8da729","stateCode":"AR","latitude":"47.38615000","longitude":"9.27916000"},{"id":"6cb6e7fc-9479-4689-a68b-068d6a7a7a4f","name":"Rehetobel","ru":"Rehetobel","country":"eb0102b4-65d5-4711-8ca4-79efc42b5b70","countryCode":"CH","state":"b146e02d-8406-4f04-84fc-00addc8da729","stateCode":"AR","latitude":"47.42611000","longitude":"9.48300000"},{"id":"5bf4c1f9-a301-432d-8d15-fb6829ff0aa4","name":"Schwellbrunn","ru":"Schwellbrunn","country":"eb0102b4-65d5-4711-8ca4-79efc42b5b70","countryCode":"CH","state":"b146e02d-8406-4f04-84fc-00addc8da729","stateCode":"AR","latitude":"47.35255000","longitude":"9.24894000"},{"id":"4924a3eb-2c93-456b-8634-440b0e26d3ab","name":"Speicher","ru":"Speicher","country":"eb0102b4-65d5-4711-8ca4-79efc42b5b70","countryCode":"CH","state":"b146e02d-8406-4f04-84fc-00addc8da729","stateCode":"AR","latitude":"47.41090000","longitude":"9.44335000"},{"id":"d6fa4bc0-3326-4e40-8f16-21cd54087a2b","name":"Teufen","ru":"Teufen","country":"eb0102b4-65d5-4711-8ca4-79efc42b5b70","countryCode":"CH","state":"b146e02d-8406-4f04-84fc-00addc8da729","stateCode":"AR","latitude":"47.39080000","longitude":"9.38644000"},{"id":"518399f6-b022-499e-b7d0-3ae6e434012b","name":"Trogen","ru":"Trogen","country":"eb0102b4-65d5-4711-8ca4-79efc42b5b70","countryCode":"CH","state":"b146e02d-8406-4f04-84fc-00addc8da729","stateCode":"AR","latitude":"47.40782000","longitude":"9.46498000"},{"id":"182bd642-0b3e-416a-827a-f051c8f28365","name":"Urnäsch","ru":"Urnäsch","country":"eb0102b4-65d5-4711-8ca4-79efc42b5b70","countryCode":"CH","state":"b146e02d-8406-4f04-84fc-00addc8da729","stateCode":"AR","latitude":"47.31669000","longitude":"9.27950000"},{"id":"0e71ee50-25e8-4bf0-ab84-54578c3fe1f1","name":"Waldstatt","ru":"Waldstatt","country":"eb0102b4-65d5-4711-8ca4-79efc42b5b70","countryCode":"CH","state":"b146e02d-8406-4f04-84fc-00addc8da729","stateCode":"AR","latitude":"47.35627000","longitude":"9.28345000"},{"id":"7cc8f7ce-a4a7-4d95-9dd1-848ae25aa91f","name":"Walzenhausen","ru":"Walzenhausen","country":"eb0102b4-65d5-4711-8ca4-79efc42b5b70","countryCode":"CH","state":"b146e02d-8406-4f04-84fc-00addc8da729","stateCode":"AR","latitude":"47.44867000","longitude":"9.60495000"},{"id":"7c43c66c-2512-4018-81bb-122c9543234f","name":"Appenzell","ru":"Appenzell","country":"eb0102b4-65d5-4711-8ca4-79efc42b5b70","countryCode":"CH","state":"94609169-b075-40f6-9f48-c32135ea2c5b","stateCode":"AI","latitude":"47.33103000","longitude":"9.40996000"},{"id":"cdcd2f7c-7a6e-421e-be91-4ec86a23c33c","name":"Gonten","ru":"Gonten","country":"eb0102b4-65d5-4711-8ca4-79efc42b5b70","countryCode":"CH","state":"94609169-b075-40f6-9f48-c32135ea2c5b","stateCode":"AI","latitude":"47.32725000","longitude":"9.34705000"},{"id":"0df01cbc-0a12-4ace-bde2-90a94b6d8151","name":"Haslen","ru":"Haslen","country":"eb0102b4-65d5-4711-8ca4-79efc42b5b70","countryCode":"CH","state":"94609169-b075-40f6-9f48-c32135ea2c5b","stateCode":"AI","latitude":"47.36931000","longitude":"9.36752000"},{"id":"26c890db-b81f-4003-a259-adff68cbd005","name":"Oberegg","ru":"Oberegg","country":"eb0102b4-65d5-4711-8ca4-79efc42b5b70","countryCode":"CH","state":"94609169-b075-40f6-9f48-c32135ea2c5b","stateCode":"AI","latitude":"47.42531000","longitude":"9.55134000"},{"id":"c4beaa6a-315d-434d-b90f-ec9aea0edbe7","name":"Aesch","ru":"Aesch","country":"eb0102b4-65d5-4711-8ca4-79efc42b5b70","countryCode":"CH","state":"3d24f25a-62f0-4f2f-8771-8c5e09571969","stateCode":"BL","latitude":"47.47104000","longitude":"7.59730000"},{"id":"4bebe5e0-9909-44b3-8bb1-56b2fe2e7f04","name":"Allschwil","ru":"Allschwil","country":"eb0102b4-65d5-4711-8ca4-79efc42b5b70","countryCode":"CH","state":"3d24f25a-62f0-4f2f-8771-8c5e09571969","stateCode":"BL","latitude":"47.55074000","longitude":"7.53599000"},{"id":"2c237532-ab8b-444c-a38d-9380426d5bec","name":"Arisdorf","ru":"Arisdorf","country":"eb0102b4-65d5-4711-8ca4-79efc42b5b70","countryCode":"CH","state":"3d24f25a-62f0-4f2f-8771-8c5e09571969","stateCode":"BL","latitude":"47.51323000","longitude":"7.76515000"},{"id":"b100c55f-1f2a-4154-acfc-207aa9df1fa3","name":"Arlesheim","ru":"Arlesheim","country":"eb0102b4-65d5-4711-8ca4-79efc42b5b70","countryCode":"CH","state":"3d24f25a-62f0-4f2f-8771-8c5e09571969","stateCode":"BL","latitude":"47.49412000","longitude":"7.61979000"},{"id":"1c93a084-9e5f-4a5c-86cc-cd373ea27deb","name":"Bezirk Arlesheim","ru":"Bezirk Arlesheim","country":"eb0102b4-65d5-4711-8ca4-79efc42b5b70","countryCode":"CH","state":"3d24f25a-62f0-4f2f-8771-8c5e09571969","stateCode":"BL","latitude":"47.51668000","longitude":"7.58733000"},{"id":"42f9572f-ae83-4b11-8fbc-77433b0c5366","name":"Bezirk Laufen","ru":"Bezirk Laufen","country":"eb0102b4-65d5-4711-8ca4-79efc42b5b70","countryCode":"CH","state":"3d24f25a-62f0-4f2f-8771-8c5e09571969","stateCode":"BL","latitude":"47.42324000","longitude":"7.48750000"},{"id":"d824b9c8-89a5-4185-85e7-9cd93c099bc2","name":"Bezirk Liestal","ru":"Bezirk Liestal","country":"eb0102b4-65d5-4711-8ca4-79efc42b5b70","countryCode":"CH","state":"3d24f25a-62f0-4f2f-8771-8c5e09571969","stateCode":"BL","latitude":"47.48124000","longitude":"7.72714000"},{"id":"4afdf904-48ec-466d-a493-6072643809f5","name":"Bezirk Sissach","ru":"Bezirk Sissach","country":"eb0102b4-65d5-4711-8ca4-79efc42b5b70","countryCode":"CH","state":"3d24f25a-62f0-4f2f-8771-8c5e09571969","stateCode":"BL","latitude":"47.44237000","longitude":"7.84871000"},{"id":"1481d87c-b519-4e17-a8bc-fcba39e127ac","name":"Bezirk Waldenburg","ru":"Bezirk Waldenburg","country":"eb0102b4-65d5-4711-8ca4-79efc42b5b70","countryCode":"CH","state":"3d24f25a-62f0-4f2f-8771-8c5e09571969","stateCode":"BL","latitude":"47.39367000","longitude":"7.74137000"},{"id":"24737d39-4c44-4273-9fe4-4f6c9bb776ad","name":"Binningen","ru":"Binningen","country":"eb0102b4-65d5-4711-8ca4-79efc42b5b70","countryCode":"CH","state":"3d24f25a-62f0-4f2f-8771-8c5e09571969","stateCode":"BL","latitude":"47.54021000","longitude":"7.56932000"},{"id":"3e9f35d8-555d-40f3-9ac3-32c8bb7ec9b2","name":"Birsfelden","ru":"Birsfelden","country":"eb0102b4-65d5-4711-8ca4-79efc42b5b70","countryCode":"CH","state":"3d24f25a-62f0-4f2f-8771-8c5e09571969","stateCode":"BL","latitude":"47.55290000","longitude":"7.62322000"},{"id":"3b7ccfd9-8d5e-41b1-b896-f4f9b66eb20d","name":"Bottmingen","ru":"Bottmingen","country":"eb0102b4-65d5-4711-8ca4-79efc42b5b70","countryCode":"CH","state":"3d24f25a-62f0-4f2f-8771-8c5e09571969","stateCode":"BL","latitude":"47.52343000","longitude":"7.57211000"},{"id":"b877ae41-5c69-4e03-b526-2cfd4097eb13","name":"Brislach","ru":"Brislach","country":"eb0102b4-65d5-4711-8ca4-79efc42b5b70","countryCode":"CH","state":"3d24f25a-62f0-4f2f-8771-8c5e09571969","stateCode":"BL","latitude":"47.41763000","longitude":"7.54340000"},{"id":"2de3285e-330c-42a1-93e3-70325cc0cf30","name":"Bubendorf","ru":"Bubendorf","country":"eb0102b4-65d5-4711-8ca4-79efc42b5b70","countryCode":"CH","state":"3d24f25a-62f0-4f2f-8771-8c5e09571969","stateCode":"BL","latitude":"47.44586000","longitude":"7.73759000"},{"id":"2b8b0386-1715-4ec5-98b9-000d47157023","name":"Buus","ru":"Buus","country":"eb0102b4-65d5-4711-8ca4-79efc42b5b70","countryCode":"CH","state":"3d24f25a-62f0-4f2f-8771-8c5e09571969","stateCode":"BL","latitude":"47.50635000","longitude":"7.86414000"},{"id":"aac2e02d-7a47-4f93-9fba-becc4e4a9036","name":"Diegten","ru":"Diegten","country":"eb0102b4-65d5-4711-8ca4-79efc42b5b70","countryCode":"CH","state":"3d24f25a-62f0-4f2f-8771-8c5e09571969","stateCode":"BL","latitude":"47.41380000","longitude":"7.81085000"},{"id":"d5aae4c7-7536-4d61-b132-163ce2d91f92","name":"Ettingen","ru":"Ettingen","country":"eb0102b4-65d5-4711-8ca4-79efc42b5b70","countryCode":"CH","state":"3d24f25a-62f0-4f2f-8771-8c5e09571969","stateCode":"BL","latitude":"47.48225000","longitude":"7.54654000"},{"id":"35736b45-b3d3-4b0e-81f5-8b106e2b2a81","name":"Füllinsdorf","ru":"Füllinsdorf","country":"eb0102b4-65d5-4711-8ca4-79efc42b5b70","countryCode":"CH","state":"3d24f25a-62f0-4f2f-8771-8c5e09571969","stateCode":"BL","latitude":"47.50688000","longitude":"7.73129000"},{"id":"d8b4b63b-dba6-46ce-b792-e71d2302c968","name":"Frenkendorf","ru":"Frenkendorf","country":"eb0102b4-65d5-4711-8ca4-79efc42b5b70","countryCode":"CH","state":"3d24f25a-62f0-4f2f-8771-8c5e09571969","stateCode":"BL","latitude":"47.50686000","longitude":"7.71648000"},{"id":"983e51c6-a726-4424-b227-80a3efa78b74","name":"Gelterkinden","ru":"Gelterkinden","country":"eb0102b4-65d5-4711-8ca4-79efc42b5b70","countryCode":"CH","state":"3d24f25a-62f0-4f2f-8771-8c5e09571969","stateCode":"BL","latitude":"47.46497000","longitude":"7.85174000"},{"id":"f84c7563-4537-484d-80ce-86409718b4bd","name":"Grellingen","ru":"Grellingen","country":"eb0102b4-65d5-4711-8ca4-79efc42b5b70","countryCode":"CH","state":"3d24f25a-62f0-4f2f-8771-8c5e09571969","stateCode":"BL","latitude":"47.44231000","longitude":"7.58906000"},{"id":"1ca78380-06e5-418a-9f03-1921ed342717","name":"Hölstein","ru":"Hölstein","country":"eb0102b4-65d5-4711-8ca4-79efc42b5b70","countryCode":"CH","state":"3d24f25a-62f0-4f2f-8771-8c5e09571969","stateCode":"BL","latitude":"47.42290000","longitude":"7.77041000"},{"id":"71d45115-11c0-4ba9-8818-215d50bd4b0c","name":"Itingen","ru":"Itingen","country":"eb0102b4-65d5-4711-8ca4-79efc42b5b70","countryCode":"CH","state":"3d24f25a-62f0-4f2f-8771-8c5e09571969","stateCode":"BL","latitude":"47.46651000","longitude":"7.78502000"},{"id":"7b3b9aad-c07a-4fa0-b762-77c7ecdadc00","name":"Langenbruck","ru":"Langenbruck","country":"eb0102b4-65d5-4711-8ca4-79efc42b5b70","countryCode":"CH","state":"3d24f25a-62f0-4f2f-8771-8c5e09571969","stateCode":"BL","latitude":"47.34917000","longitude":"7.76802000"},{"id":"ef5a1e20-6ffc-4e7a-a974-a9f7e8b92e4c","name":"Laufen","ru":"Laufen","country":"eb0102b4-65d5-4711-8ca4-79efc42b5b70","countryCode":"CH","state":"3d24f25a-62f0-4f2f-8771-8c5e09571969","stateCode":"BL","latitude":"47.42193000","longitude":"7.49946000"},{"id":"12998172-2e70-4ddb-8e6c-43b2fce4bc0e","name":"Lausen","ru":"Lausen","country":"eb0102b4-65d5-4711-8ca4-79efc42b5b70","countryCode":"CH","state":"3d24f25a-62f0-4f2f-8771-8c5e09571969","stateCode":"BL","latitude":"47.47139000","longitude":"7.76030000"},{"id":"051e7a39-51fa-4caa-bfb7-dcb546cf8377","name":"Läufelfingen","ru":"Läufelfingen","country":"eb0102b4-65d5-4711-8ca4-79efc42b5b70","countryCode":"CH","state":"3d24f25a-62f0-4f2f-8771-8c5e09571969","stateCode":"BL","latitude":"47.39457000","longitude":"7.85578000"},{"id":"03224c1d-38c5-4fa0-a5d4-24615eb012de","name":"Liesberg","ru":"Liesberg","country":"eb0102b4-65d5-4711-8ca4-79efc42b5b70","countryCode":"CH","state":"3d24f25a-62f0-4f2f-8771-8c5e09571969","stateCode":"BL","latitude":"47.40398000","longitude":"7.42787000"},{"id":"bef9aac6-83cc-48b1-ae09-bb98426d9f31","name":"Liestal","ru":"Liestal","country":"eb0102b4-65d5-4711-8ca4-79efc42b5b70","countryCode":"CH","state":"3d24f25a-62f0-4f2f-8771-8c5e09571969","stateCode":"BL","latitude":"47.48455000","longitude":"7.73446000"},{"id":"c4bca78b-8869-4f89-b3f0-0d690050ff4b","name":"Münchenstein","ru":"Münchenstein","country":"eb0102b4-65d5-4711-8ca4-79efc42b5b70","countryCode":"CH","state":"3d24f25a-62f0-4f2f-8771-8c5e09571969","stateCode":"BL","latitude":"47.51848000","longitude":"7.60966000"},{"id":"d116350b-6008-482b-b3c2-db84aee4701e","name":"Muttenz","ru":"Muttenz","country":"eb0102b4-65d5-4711-8ca4-79efc42b5b70","countryCode":"CH","state":"3d24f25a-62f0-4f2f-8771-8c5e09571969","stateCode":"BL","latitude":"47.52271000","longitude":"7.64511000"},{"id":"8ac6a83a-fa6c-4d7c-9578-cd3a9eb95399","name":"Oberdorf","ru":"Oberdorf","country":"eb0102b4-65d5-4711-8ca4-79efc42b5b70","countryCode":"CH","state":"3d24f25a-62f0-4f2f-8771-8c5e09571969","stateCode":"BL","latitude":"47.39353000","longitude":"7.75169000"},{"id":"92086c00-dabf-4db3-a6b1-6010c013ee76","name":"Oberwil","ru":"Oberwil","country":"eb0102b4-65d5-4711-8ca4-79efc42b5b70","countryCode":"CH","state":"3d24f25a-62f0-4f2f-8771-8c5e09571969","stateCode":"BL","latitude":"47.51407000","longitude":"7.55786000"},{"id":"e27436e0-5ff1-4f84-9661-5d8f803c74a2","name":"Ormalingen","ru":"Ormalingen","country":"eb0102b4-65d5-4711-8ca4-79efc42b5b70","countryCode":"CH","state":"3d24f25a-62f0-4f2f-8771-8c5e09571969","stateCode":"BL","latitude":"47.46936000","longitude":"7.87248000"},{"id":"8fbd95f8-1691-4f69-9edc-b39276066225","name":"Pfeffingen","ru":"Pfeffingen","country":"eb0102b4-65d5-4711-8ca4-79efc42b5b70","countryCode":"CH","state":"3d24f25a-62f0-4f2f-8771-8c5e09571969","stateCode":"BL","latitude":"47.45984000","longitude":"7.58975000"},{"id":"9780fd64-f2a7-4002-809d-8e595aa5e1b0","name":"Pratteln","ru":"Pratteln","country":"eb0102b4-65d5-4711-8ca4-79efc42b5b70","countryCode":"CH","state":"3d24f25a-62f0-4f2f-8771-8c5e09571969","stateCode":"BL","latitude":"47.52071000","longitude":"7.69356000"},{"id":"d997380e-c089-4e0d-83dd-62677acd580d","name":"Röschenz","ru":"Röschenz","country":"eb0102b4-65d5-4711-8ca4-79efc42b5b70","countryCode":"CH","state":"3d24f25a-62f0-4f2f-8771-8c5e09571969","stateCode":"BL","latitude":"47.42366000","longitude":"7.48024000"},{"id":"08f57948-c1aa-45d9-bbe6-d5f674899832","name":"Reigoldswil","ru":"Reigoldswil","country":"eb0102b4-65d5-4711-8ca4-79efc42b5b70","countryCode":"CH","state":"3d24f25a-62f0-4f2f-8771-8c5e09571969","stateCode":"BL","latitude":"47.39824000","longitude":"7.68718000"},{"id":"9bdfb1e4-8a51-4db0-9720-af9c61d74e24","name":"Schönenbuch","ru":"Schönenbuch","country":"eb0102b4-65d5-4711-8ca4-79efc42b5b70","countryCode":"CH","state":"3d24f25a-62f0-4f2f-8771-8c5e09571969","stateCode":"BL","latitude":"47.53853000","longitude":"7.50572000"},{"id":"973427e0-4efc-4e3e-9047-e8a0f69181ef","name":"Seltisberg","ru":"Seltisberg","country":"eb0102b4-65d5-4711-8ca4-79efc42b5b70","countryCode":"CH","state":"3d24f25a-62f0-4f2f-8771-8c5e09571969","stateCode":"BL","latitude":"47.46249000","longitude":"7.72039000"},{"id":"5925ba1a-d9ff-450c-9661-46a44af13b84","name":"Sissach","ru":"Sissach","country":"eb0102b4-65d5-4711-8ca4-79efc42b5b70","countryCode":"CH","state":"3d24f25a-62f0-4f2f-8771-8c5e09571969","stateCode":"BL","latitude":"47.46408000","longitude":"7.80888000"},{"id":"ef31c44a-cc70-4755-a1ea-bd362e3aa14a","name":"Therwil","ru":"Therwil","country":"eb0102b4-65d5-4711-8ca4-79efc42b5b70","countryCode":"CH","state":"3d24f25a-62f0-4f2f-8771-8c5e09571969","stateCode":"BL","latitude":"47.49941000","longitude":"7.55669000"},{"id":"4c2c0c46-1522-4952-aaa7-d35a9cae50f6","name":"Wahlen","ru":"Wahlen","country":"eb0102b4-65d5-4711-8ca4-79efc42b5b70","countryCode":"CH","state":"3d24f25a-62f0-4f2f-8771-8c5e09571969","stateCode":"BL","latitude":"47.40226000","longitude":"7.51511000"},{"id":"0be3edb7-3e9a-41df-b943-11290c18de5e","name":"Waldenburg","ru":"Waldenburg","country":"eb0102b4-65d5-4711-8ca4-79efc42b5b70","countryCode":"CH","state":"3d24f25a-62f0-4f2f-8771-8c5e09571969","stateCode":"BL","latitude":"47.38333000","longitude":"7.75000000"},{"id":"62207199-effc-45da-9128-38f0211441c6","name":"Zunzgen","ru":"Zunzgen","country":"eb0102b4-65d5-4711-8ca4-79efc42b5b70","countryCode":"CH","state":"3d24f25a-62f0-4f2f-8771-8c5e09571969","stateCode":"BL","latitude":"47.44925000","longitude":"7.80789000"},{"id":"aff29768-3884-407e-9716-d563eb5067b9","name":"Zwingen","ru":"Zwingen","country":"eb0102b4-65d5-4711-8ca4-79efc42b5b70","countryCode":"CH","state":"3d24f25a-62f0-4f2f-8771-8c5e09571969","stateCode":"BL","latitude":"47.43825000","longitude":"7.53027000"},{"id":"1ff11190-d51e-4934-aad6-9760add7a2fd","name":"Aarberg","ru":"Aarberg","country":"eb0102b4-65d5-4711-8ca4-79efc42b5b70","countryCode":"CH","state":"564f88cc-6057-4784-bd2b-2ce2e379405d","stateCode":"BE","latitude":"47.04439000","longitude":"7.27578000"},{"id":"2475fd2e-5b43-45c9-b0f9-a54408997fa0","name":"Aarwangen","ru":"Aarwangen","country":"eb0102b4-65d5-4711-8ca4-79efc42b5b70","countryCode":"CH","state":"564f88cc-6057-4784-bd2b-2ce2e379405d","stateCode":"BE","latitude":"47.23845000","longitude":"7.76854000"},{"id":"7cacc82c-c312-40bb-8557-546ba749610d","name":"Adelboden","ru":"Adelboden","country":"eb0102b4-65d5-4711-8ca4-79efc42b5b70","countryCode":"CH","state":"564f88cc-6057-4784-bd2b-2ce2e379405d","stateCode":"BE","latitude":"46.49142000","longitude":"7.56031000"},{"id":"5a05948d-18b2-4506-b228-193aadd31d21","name":"Aeschi b. Spiez","ru":"Aeschi b. Spiez","country":"eb0102b4-65d5-4711-8ca4-79efc42b5b70","countryCode":"CH","state":"564f88cc-6057-4784-bd2b-2ce2e379405d","stateCode":"BE","latitude":"46.65848000","longitude":"7.69650000"},{"id":"03806598-c6e4-4547-a108-71c31cad5edf","name":"Arch","ru":"Arch","country":"eb0102b4-65d5-4711-8ca4-79efc42b5b70","countryCode":"CH","state":"564f88cc-6057-4784-bd2b-2ce2e379405d","stateCode":"BE","latitude":"47.16533000","longitude":"7.43139000"},{"id":"803b0573-4065-4bca-8130-fa8cfa128ac3","name":"Attiswil","ru":"Attiswil","country":"eb0102b4-65d5-4711-8ca4-79efc42b5b70","countryCode":"CH","state":"564f88cc-6057-4784-bd2b-2ce2e379405d","stateCode":"BE","latitude":"47.24673000","longitude":"7.61353000"},{"id":"b3dae782-a0f6-42af-880a-37f33fe29576","name":"Bäriswil","ru":"Bäriswil","country":"eb0102b4-65d5-4711-8ca4-79efc42b5b70","countryCode":"CH","state":"564f88cc-6057-4784-bd2b-2ce2e379405d","stateCode":"BE","latitude":"47.01947000","longitude":"7.52709000"},{"id":"a024863b-a2ea-4d36-ba56-c414bdb56918","name":"Bätterkinden","ru":"Bätterkinden","country":"eb0102b4-65d5-4711-8ca4-79efc42b5b70","countryCode":"CH","state":"564f88cc-6057-4784-bd2b-2ce2e379405d","stateCode":"BE","latitude":"47.13164000","longitude":"7.53817000"},{"id":"a240fdbe-7f97-4c5d-ab4b-68f744c7c4ee","name":"Bévilard","ru":"Bévilard","country":"eb0102b4-65d5-4711-8ca4-79efc42b5b70","countryCode":"CH","state":"564f88cc-6057-4784-bd2b-2ce2e379405d","stateCode":"BE","latitude":"47.23711000","longitude":"7.28325000"},{"id":"33bd6cdc-6638-41b7-afeb-6b0bcbaa0a4d","name":"Bönigen","ru":"Bönigen","country":"eb0102b4-65d5-4711-8ca4-79efc42b5b70","countryCode":"CH","state":"564f88cc-6057-4784-bd2b-2ce2e379405d","stateCode":"BE","latitude":"46.68736000","longitude":"7.89350000"},{"id":"b8996035-8296-4285-86b8-2833a3d52a71","name":"Beatenberg","ru":"Beatenberg","country":"eb0102b4-65d5-4711-8ca4-79efc42b5b70","countryCode":"CH","state":"564f88cc-6057-4784-bd2b-2ce2e379405d","stateCode":"BE","latitude":"46.69896000","longitude":"7.79428000"},{"id":"b6bf4921-0835-4f6d-8c0e-deefe1decdce","name":"Bellmund","ru":"Bellmund","country":"eb0102b4-65d5-4711-8ca4-79efc42b5b70","countryCode":"CH","state":"564f88cc-6057-4784-bd2b-2ce2e379405d","stateCode":"BE","latitude":"47.10852000","longitude":"7.24608000"},{"id":"84ed2586-2f26-494e-bf4d-b5f148aa9e64","name":"Belp","ru":"Belp","country":"eb0102b4-65d5-4711-8ca4-79efc42b5b70","countryCode":"CH","state":"564f88cc-6057-4784-bd2b-2ce2e379405d","stateCode":"BE","latitude":"46.89129000","longitude":"7.49825000"},{"id":"e879da5a-b848-4d08-8435-8fa3970ac0ce","name":"Bern","ru":"Bern","country":"eb0102b4-65d5-4711-8ca4-79efc42b5b70","countryCode":"CH","state":"564f88cc-6057-4784-bd2b-2ce2e379405d","stateCode":"BE","latitude":"46.94809000","longitude":"7.44744000"},{"id":"6b88acd6-bc66-4122-a7fb-5913c869d075","name":"Bern-Mittelland District","ru":"Bern-Mittelland District","country":"eb0102b4-65d5-4711-8ca4-79efc42b5b70","countryCode":"CH","state":"564f88cc-6057-4784-bd2b-2ce2e379405d","stateCode":"BE","latitude":"46.92526000","longitude":"7.49024000"},{"id":"22726074-dc79-4e14-ab64-69858e52bc53","name":"Biel/Bienne","ru":"Biel/Bienne","country":"eb0102b4-65d5-4711-8ca4-79efc42b5b70","countryCode":"CH","state":"564f88cc-6057-4784-bd2b-2ce2e379405d","stateCode":"BE","latitude":"47.13713000","longitude":"7.24608000"},{"id":"609e0666-ad1b-471d-94c5-50048051a8b2","name":"Biel/Bienne District","ru":"Biel/Bienne District","country":"eb0102b4-65d5-4711-8ca4-79efc42b5b70","countryCode":"CH","state":"564f88cc-6057-4784-bd2b-2ce2e379405d","stateCode":"BE","latitude":"47.12725000","longitude":"7.26174000"},{"id":"bc21274d-a01e-490a-937e-e3fc072a3051","name":"Biglen","ru":"Biglen","country":"eb0102b4-65d5-4711-8ca4-79efc42b5b70","countryCode":"CH","state":"564f88cc-6057-4784-bd2b-2ce2e379405d","stateCode":"BE","latitude":"46.92629000","longitude":"7.62508000"},{"id":"8962c00e-ef3b-44bf-991b-ee4dc9c222ad","name":"Blumenstein","ru":"Blumenstein","country":"eb0102b4-65d5-4711-8ca4-79efc42b5b70","countryCode":"CH","state":"564f88cc-6057-4784-bd2b-2ce2e379405d","stateCode":"BE","latitude":"46.74210000","longitude":"7.52136000"},{"id":"205a2b38-5051-4fc2-9f8d-5fde92c8b42a","name":"Bolligen","ru":"Bolligen","country":"eb0102b4-65d5-4711-8ca4-79efc42b5b70","countryCode":"CH","state":"564f88cc-6057-4784-bd2b-2ce2e379405d","stateCode":"BE","latitude":"46.97510000","longitude":"7.49697000"},{"id":"4c91c0c8-3138-4d4e-957c-65ca8a279d88","name":"Boltigen","ru":"Boltigen","country":"eb0102b4-65d5-4711-8ca4-79efc42b5b70","countryCode":"CH","state":"564f88cc-6057-4784-bd2b-2ce2e379405d","stateCode":"BE","latitude":"46.62847000","longitude":"7.39054000"},{"id":"6f80f1d7-9f15-4d0e-b3f5-bc575fe5978b","name":"Bowil","ru":"Bowil","country":"eb0102b4-65d5-4711-8ca4-79efc42b5b70","countryCode":"CH","state":"564f88cc-6057-4784-bd2b-2ce2e379405d","stateCode":"BE","latitude":"46.89304000","longitude":"7.69757000"},{"id":"08fb8521-5f48-4641-a37c-cad7a5e77867","name":"Brügg","ru":"Brügg","country":"eb0102b4-65d5-4711-8ca4-79efc42b5b70","countryCode":"CH","state":"564f88cc-6057-4784-bd2b-2ce2e379405d","stateCode":"BE","latitude":"47.12370000","longitude":"7.27887000"},{"id":"cafc9791-6728-4ad0-a9d6-c2968672d09a","name":"Brienz","ru":"Brienz","country":"eb0102b4-65d5-4711-8ca4-79efc42b5b70","countryCode":"CH","state":"564f88cc-6057-4784-bd2b-2ce2e379405d","stateCode":"BE","latitude":"46.75450000","longitude":"8.03847000"},{"id":"c7e8db5d-3db7-417e-aec5-ceaf84a3cba4","name":"Buchholterberg","ru":"Buchholterberg","country":"eb0102b4-65d5-4711-8ca4-79efc42b5b70","countryCode":"CH","state":"564f88cc-6057-4784-bd2b-2ce2e379405d","stateCode":"BE","latitude":"46.81351000","longitude":"7.67463000"},{"id":"cbb4fa4c-ac12-45f4-aeaf-7abc32aae2d4","name":"Burgdorf","ru":"Burgdorf","country":"eb0102b4-65d5-4711-8ca4-79efc42b5b70","countryCode":"CH","state":"564f88cc-6057-4784-bd2b-2ce2e379405d","stateCode":"BE","latitude":"47.05901000","longitude":"7.62786000"},{"id":"0c5e38a6-a0e4-45e0-be8e-f57555374296","name":"Burgistein","ru":"Burgistein","country":"eb0102b4-65d5-4711-8ca4-79efc42b5b70","countryCode":"CH","state":"564f88cc-6057-4784-bd2b-2ce2e379405d","stateCode":"BE","latitude":"46.78464000","longitude":"7.49988000"},{"id":"cac41292-3f72-4b7f-82fe-4d034679bb0b","name":"Corgémont","ru":"Corgémont","country":"eb0102b4-65d5-4711-8ca4-79efc42b5b70","countryCode":"CH","state":"564f88cc-6057-4784-bd2b-2ce2e379405d","stateCode":"BE","latitude":"47.19457000","longitude":"7.14517000"},{"id":"06fdadb7-2066-44d7-9f6e-3cc5e6948a05","name":"Court","ru":"Court","country":"eb0102b4-65d5-4711-8ca4-79efc42b5b70","countryCode":"CH","state":"564f88cc-6057-4784-bd2b-2ce2e379405d","stateCode":"BE","latitude":"47.23956000","longitude":"7.33655000"},{"id":"f744c0d5-76cb-452a-a012-dea02c43c3bb","name":"Courtelary","ru":"Courtelary","country":"eb0102b4-65d5-4711-8ca4-79efc42b5b70","countryCode":"CH","state":"564f88cc-6057-4784-bd2b-2ce2e379405d","stateCode":"BE","latitude":"47.17822000","longitude":"7.07236000"},{"id":"a252bda5-f26a-404b-97a1-e9a0aef9f831","name":"Därligen","ru":"Därligen","country":"eb0102b4-65d5-4711-8ca4-79efc42b5b70","countryCode":"CH","state":"564f88cc-6057-4784-bd2b-2ce2e379405d","stateCode":"BE","latitude":"46.66175000","longitude":"7.80808000"},{"id":"3aac5a73-d7ae-44c9-be1e-45bbd6af9583","name":"Dürrenroth","ru":"Dürrenroth","country":"eb0102b4-65d5-4711-8ca4-79efc42b5b70","countryCode":"CH","state":"564f88cc-6057-4784-bd2b-2ce2e379405d","stateCode":"BE","latitude":"47.08953000","longitude":"7.79170000"},{"id":"e49b7429-23f2-4c39-a22b-0a0e85a5decd","name":"Diemtigen","ru":"Diemtigen","country":"eb0102b4-65d5-4711-8ca4-79efc42b5b70","countryCode":"CH","state":"564f88cc-6057-4784-bd2b-2ce2e379405d","stateCode":"BE","latitude":"46.64928000","longitude":"7.56477000"},{"id":"e75c797c-63d5-4c5c-8192-881421e6ec97","name":"Eggiwil","ru":"Eggiwil","country":"eb0102b4-65d5-4711-8ca4-79efc42b5b70","countryCode":"CH","state":"564f88cc-6057-4784-bd2b-2ce2e379405d","stateCode":"BE","latitude":"46.87575000","longitude":"7.79567000"},{"id":"7f86de49-9314-4646-b58c-e862bae6dcd1","name":"Emmental District","ru":"Emmental District","country":"eb0102b4-65d5-4711-8ca4-79efc42b5b70","countryCode":"CH","state":"564f88cc-6057-4784-bd2b-2ce2e379405d","stateCode":"BE","latitude":"47.04425000","longitude":"7.66176000"},{"id":"a8c2c97f-6c3a-4512-9e6f-0785c81615b1","name":"Eriswil","ru":"Eriswil","country":"eb0102b4-65d5-4711-8ca4-79efc42b5b70","countryCode":"CH","state":"564f88cc-6057-4784-bd2b-2ce2e379405d","stateCode":"BE","latitude":"47.07816000","longitude":"7.85149000"},{"id":"582a3315-4d23-48cf-9521-f3ec0c2b1c27","name":"Erlach","ru":"Erlach","country":"eb0102b4-65d5-4711-8ca4-79efc42b5b70","countryCode":"CH","state":"564f88cc-6057-4784-bd2b-2ce2e379405d","stateCode":"BE","latitude":"47.04220000","longitude":"7.09728000"},{"id":"48174feb-1c02-49e6-bfa0-cf3d25597d74","name":"Erlenbach im Simmental","ru":"Erlenbach im Simmental","country":"eb0102b4-65d5-4711-8ca4-79efc42b5b70","countryCode":"CH","state":"564f88cc-6057-4784-bd2b-2ce2e379405d","stateCode":"BE","latitude":"46.66021000","longitude":"7.55445000"},{"id":"4ba16bc2-cc58-4656-953b-47446e432470","name":"Ersigen","ru":"Ersigen","country":"eb0102b4-65d5-4711-8ca4-79efc42b5b70","countryCode":"CH","state":"564f88cc-6057-4784-bd2b-2ce2e379405d","stateCode":"BE","latitude":"47.09368000","longitude":"7.59507000"},{"id":"2396a56f-ed9b-4845-815b-8e96cccde698","name":"Evilard","ru":"Evilard","country":"eb0102b4-65d5-4711-8ca4-79efc42b5b70","countryCode":"CH","state":"564f88cc-6057-4784-bd2b-2ce2e379405d","stateCode":"BE","latitude":"47.15046000","longitude":"7.23895000"},{"id":"134cb667-0ded-4abc-86b2-0b2267c11a85","name":"Ferenbalm","ru":"Ferenbalm","country":"eb0102b4-65d5-4711-8ca4-79efc42b5b70","countryCode":"CH","state":"564f88cc-6057-4784-bd2b-2ce2e379405d","stateCode":"BE","latitude":"46.94880000","longitude":"7.21124000"},{"id":"e904e5fc-5749-4144-a2a6-529be12b00ad","name":"Fraubrunnen","ru":"Fraubrunnen","country":"eb0102b4-65d5-4711-8ca4-79efc42b5b70","countryCode":"CH","state":"564f88cc-6057-4784-bd2b-2ce2e379405d","stateCode":"BE","latitude":"47.08620000","longitude":"7.52727000"},{"id":"2adff065-0c5a-4fe8-a434-e05dd585aa5d","name":"Frauenkappelen","ru":"Frauenkappelen","country":"eb0102b4-65d5-4711-8ca4-79efc42b5b70","countryCode":"CH","state":"564f88cc-6057-4784-bd2b-2ce2e379405d","stateCode":"BE","latitude":"46.95425000","longitude":"7.33835000"},{"id":"fcc1820d-9886-4980-af9d-9a182f614f89","name":"Frutigen","ru":"Frutigen","country":"eb0102b4-65d5-4711-8ca4-79efc42b5b70","countryCode":"CH","state":"564f88cc-6057-4784-bd2b-2ce2e379405d","stateCode":"BE","latitude":"46.58723000","longitude":"7.64945000"},{"id":"bf07b8e9-08a4-4067-874d-cd8a2ce4a2f0","name":"Frutigen-Niedersimmental District","ru":"Frutigen-Niedersimmental District","country":"eb0102b4-65d5-4711-8ca4-79efc42b5b70","countryCode":"CH","state":"564f88cc-6057-4784-bd2b-2ce2e379405d","stateCode":"BE","latitude":"46.60236000","longitude":"7.62292000"},{"id":"1ae81583-1beb-4983-9ae8-d5ba003bbd30","name":"Grindelwald","ru":"Grindelwald","country":"eb0102b4-65d5-4711-8ca4-79efc42b5b70","countryCode":"CH","state":"564f88cc-6057-4784-bd2b-2ce2e379405d","stateCode":"BE","latitude":"46.62396000","longitude":"8.03601000"},{"id":"8ae5f634-3ccc-49d2-95c5-d90f65d8a6db","name":"Grossaffoltern","ru":"Grossaffoltern","country":"eb0102b4-65d5-4711-8ca4-79efc42b5b70","countryCode":"CH","state":"564f88cc-6057-4784-bd2b-2ce2e379405d","stateCode":"BE","latitude":"47.06534000","longitude":"7.35689000"},{"id":"9477815b-a0d9-4465-96f2-1e9ebb0a9eb0","name":"Gstaad","ru":"Gstaad","country":"eb0102b4-65d5-4711-8ca4-79efc42b5b70","countryCode":"CH","state":"564f88cc-6057-4784-bd2b-2ce2e379405d","stateCode":"BE","latitude":"46.47215000","longitude":"7.28685000"},{"id":"5a0fd2cd-84ac-454a-9ade-acfae2282811","name":"Guggisberg","ru":"Guggisberg","country":"eb0102b4-65d5-4711-8ca4-79efc42b5b70","countryCode":"CH","state":"564f88cc-6057-4784-bd2b-2ce2e379405d","stateCode":"BE","latitude":"46.76756000","longitude":"7.32946000"},{"id":"03adcb74-456c-4d76-83f9-6fc95454a267","name":"Heimberg","ru":"Heimberg","country":"eb0102b4-65d5-4711-8ca4-79efc42b5b70","countryCode":"CH","state":"564f88cc-6057-4784-bd2b-2ce2e379405d","stateCode":"BE","latitude":"46.79482000","longitude":"7.60433000"},{"id":"526254ea-5ee1-4c8f-b126-062d8d427955","name":"Heimiswil","ru":"Heimiswil","country":"eb0102b4-65d5-4711-8ca4-79efc42b5b70","countryCode":"CH","state":"564f88cc-6057-4784-bd2b-2ce2e379405d","stateCode":"BE","latitude":"47.06755000","longitude":"7.66665000"},{"id":"df6f9c10-6419-432e-be0d-12f88cc2f9df","name":"Hermiswil","ru":"Hermiswil","country":"eb0102b4-65d5-4711-8ca4-79efc42b5b70","countryCode":"CH","state":"564f88cc-6057-4784-bd2b-2ce2e379405d","stateCode":"BE","latitude":"46.83125000","longitude":"7.47775000"},{"id":"e349d213-f739-4cab-bdfa-fee8d97715b1","name":"Herzogenbuchsee","ru":"Herzogenbuchsee","country":"eb0102b4-65d5-4711-8ca4-79efc42b5b70","countryCode":"CH","state":"564f88cc-6057-4784-bd2b-2ce2e379405d","stateCode":"BE","latitude":"47.18795000","longitude":"7.70620000"},{"id":"85bba71d-7d91-41cc-935b-97b5dcbfa814","name":"Hilterfingen","ru":"Hilterfingen","country":"eb0102b4-65d5-4711-8ca4-79efc42b5b70","countryCode":"CH","state":"564f88cc-6057-4784-bd2b-2ce2e379405d","stateCode":"BE","latitude":"46.73521000","longitude":"7.66185000"},{"id":"7b2ca027-6a5a-4ce3-bf73-6fd85d52123c","name":"Hindelbank","ru":"Hindelbank","country":"eb0102b4-65d5-4711-8ca4-79efc42b5b70","countryCode":"CH","state":"564f88cc-6057-4784-bd2b-2ce2e379405d","stateCode":"BE","latitude":"47.04270000","longitude":"7.54143000"},{"id":"439d8982-6fc5-4fe3-8031-fda183b9ba5b","name":"Huttwil","ru":"Huttwil","country":"eb0102b4-65d5-4711-8ca4-79efc42b5b70","countryCode":"CH","state":"564f88cc-6057-4784-bd2b-2ce2e379405d","stateCode":"BE","latitude":"47.11502000","longitude":"7.86209000"},{"id":"75dd5aec-a54e-48d7-b1a8-dffd4dbb2a16","name":"Ins","ru":"Ins","country":"eb0102b4-65d5-4711-8ca4-79efc42b5b70","countryCode":"CH","state":"564f88cc-6057-4784-bd2b-2ce2e379405d","stateCode":"BE","latitude":"47.00584000","longitude":"7.10609000"},{"id":"1c934068-3e8f-4c2b-ad6c-ce71774a3926","name":"Interlaken","ru":"Interlaken","country":"eb0102b4-65d5-4711-8ca4-79efc42b5b70","countryCode":"CH","state":"564f88cc-6057-4784-bd2b-2ce2e379405d","stateCode":"BE","latitude":"46.68387000","longitude":"7.86638000"},{"id":"4ffa1a98-d2e5-4ebb-aeac-14b635f9d5f2","name":"Interlaken-Oberhasli District","ru":"Interlaken-Oberhasli District","country":"eb0102b4-65d5-4711-8ca4-79efc42b5b70","countryCode":"CH","state":"564f88cc-6057-4784-bd2b-2ce2e379405d","stateCode":"BE","latitude":"46.68931000","longitude":"7.98869000"},{"id":"f9fc1246-d2c0-4b05-bd11-d106ba1ac95d","name":"Jegenstorf","ru":"Jegenstorf","country":"eb0102b4-65d5-4711-8ca4-79efc42b5b70","countryCode":"CH","state":"564f88cc-6057-4784-bd2b-2ce2e379405d","stateCode":"BE","latitude":"47.04802000","longitude":"7.50787000"},{"id":"3654fca7-c848-4743-96e9-be1c408b60f0","name":"Jura bernois","ru":"Jura bernois","country":"eb0102b4-65d5-4711-8ca4-79efc42b5b70","countryCode":"CH","state":"564f88cc-6057-4784-bd2b-2ce2e379405d","stateCode":"BE","latitude":"47.21892000","longitude":"7.21981000"},{"id":"2ce3b151-e05e-4216-8692-2d45e00ba2df","name":"Kallnach","ru":"Kallnach","country":"eb0102b4-65d5-4711-8ca4-79efc42b5b70","countryCode":"CH","state":"564f88cc-6057-4784-bd2b-2ce2e379405d","stateCode":"BE","latitude":"47.02032000","longitude":"7.23545000"},{"id":"a538f64b-b07f-415b-bb7a-12c98389357d","name":"Kandersteg","ru":"Kandersteg","country":"eb0102b4-65d5-4711-8ca4-79efc42b5b70","countryCode":"CH","state":"564f88cc-6057-4784-bd2b-2ce2e379405d","stateCode":"BE","latitude":"46.49467000","longitude":"7.67326000"},{"id":"99371ed9-85ed-4eb5-89bd-9bd53e9323ea","name":"Kappelen","ru":"Kappelen","country":"eb0102b4-65d5-4711-8ca4-79efc42b5b70","countryCode":"CH","state":"564f88cc-6057-4784-bd2b-2ce2e379405d","stateCode":"BE","latitude":"47.06015000","longitude":"7.26860000"},{"id":"0b64e783-dcc9-48d0-90b6-aadc341a544e","name":"Köniz","ru":"Köniz","country":"eb0102b4-65d5-4711-8ca4-79efc42b5b70","countryCode":"CH","state":"564f88cc-6057-4784-bd2b-2ce2e379405d","stateCode":"BE","latitude":"46.92436000","longitude":"7.41457000"},{"id":"b8494f4f-e2eb-40db-baa8-a7f732cdaff5","name":"Kehrsatz","ru":"Kehrsatz","country":"eb0102b4-65d5-4711-8ca4-79efc42b5b70","countryCode":"CH","state":"564f88cc-6057-4784-bd2b-2ce2e379405d","stateCode":"BE","latitude":"46.91035000","longitude":"7.47096000"},{"id":"0f01101b-f58e-4cfd-bbbc-6191ebdbbb50","name":"Kirchberg","ru":"Kirchberg","country":"eb0102b4-65d5-4711-8ca4-79efc42b5b70","countryCode":"CH","state":"564f88cc-6057-4784-bd2b-2ce2e379405d","stateCode":"BE","latitude":"47.08538000","longitude":"7.58288000"},{"id":"04dd9586-ddfc-45ee-9eff-32bec14a85fb","name":"Kirchlindach","ru":"Kirchlindach","country":"eb0102b4-65d5-4711-8ca4-79efc42b5b70","countryCode":"CH","state":"564f88cc-6057-4784-bd2b-2ce2e379405d","stateCode":"BE","latitude":"46.99965000","longitude":"7.41735000"},{"id":"db0dac75-0d78-4cef-9e50-c037ba702de5","name":"Konolfingen","ru":"Konolfingen","country":"eb0102b4-65d5-4711-8ca4-79efc42b5b70","countryCode":"CH","state":"564f88cc-6057-4784-bd2b-2ce2e379405d","stateCode":"BE","latitude":"46.87909000","longitude":"7.62013000"},{"id":"6091d88e-d6e1-4a0c-9c22-d83dd3cc7948","name":"Koppigen","ru":"Koppigen","country":"eb0102b4-65d5-4711-8ca4-79efc42b5b70","countryCode":"CH","state":"564f88cc-6057-4784-bd2b-2ce2e379405d","stateCode":"BE","latitude":"47.13125000","longitude":"7.60525000"},{"id":"37e11529-0443-40ee-b419-c16486f64717","name":"Krauchthal","ru":"Krauchthal","country":"eb0102b4-65d5-4711-8ca4-79efc42b5b70","countryCode":"CH","state":"564f88cc-6057-4784-bd2b-2ce2e379405d","stateCode":"BE","latitude":"47.00964000","longitude":"7.56640000"},{"id":"83b490a6-2921-49e1-a31c-41b0a0d23d94","name":"La Neuveville","ru":"La Neuveville","country":"eb0102b4-65d5-4711-8ca4-79efc42b5b70","countryCode":"CH","state":"564f88cc-6057-4784-bd2b-2ce2e379405d","stateCode":"BE","latitude":"47.06592000","longitude":"7.09717000"},{"id":"a8e6e139-f4c7-40e0-a2ea-4ad60230e678","name":"Langenthal","ru":"Langenthal","country":"eb0102b4-65d5-4711-8ca4-79efc42b5b70","countryCode":"CH","state":"564f88cc-6057-4784-bd2b-2ce2e379405d","stateCode":"BE","latitude":"47.21526000","longitude":"7.79607000"},{"id":"1e3911de-5b64-4944-aa93-fd83464fbd12","name":"Langnau","ru":"Langnau","country":"eb0102b4-65d5-4711-8ca4-79efc42b5b70","countryCode":"CH","state":"564f88cc-6057-4784-bd2b-2ce2e379405d","stateCode":"BE","latitude":"46.93936000","longitude":"7.78738000"},{"id":"58911627-7c22-43bc-a05b-ae1866082f66","name":"Laupen","ru":"Laupen","country":"eb0102b4-65d5-4711-8ca4-79efc42b5b70","countryCode":"CH","state":"564f88cc-6057-4784-bd2b-2ce2e379405d","stateCode":"BE","latitude":"46.90214000","longitude":"7.23973000"},{"id":"47580252-17c8-4817-8bc9-c010f751c52f","name":"Lauperswil","ru":"Lauperswil","country":"eb0102b4-65d5-4711-8ca4-79efc42b5b70","countryCode":"CH","state":"564f88cc-6057-4784-bd2b-2ce2e379405d","stateCode":"BE","latitude":"46.96564000","longitude":"7.74214000"},{"id":"6a617fac-db16-4ba8-bc0c-3c113271dbba","name":"Lauterbrunnen","ru":"Lauterbrunnen","country":"eb0102b4-65d5-4711-8ca4-79efc42b5b70","countryCode":"CH","state":"564f88cc-6057-4784-bd2b-2ce2e379405d","stateCode":"BE","latitude":"46.59307000","longitude":"7.90938000"},{"id":"656de08a-a7d3-420f-8ecf-1672439ff928","name":"Lützelflüh","ru":"Lützelflüh","country":"eb0102b4-65d5-4711-8ca4-79efc42b5b70","countryCode":"CH","state":"564f88cc-6057-4784-bd2b-2ce2e379405d","stateCode":"BE","latitude":"47.00757000","longitude":"7.69165000"},{"id":"5c56fe1c-4581-43b1-b460-7635339dbf04","name":"Lengnau","ru":"Lengnau","country":"eb0102b4-65d5-4711-8ca4-79efc42b5b70","countryCode":"CH","state":"564f88cc-6057-4784-bd2b-2ce2e379405d","stateCode":"BE","latitude":"47.18155000","longitude":"7.36814000"},{"id":"a9050f3d-5182-467e-b461-0d14b8b833bf","name":"Lenk","ru":"Lenk","country":"eb0102b4-65d5-4711-8ca4-79efc42b5b70","countryCode":"CH","state":"564f88cc-6057-4784-bd2b-2ce2e379405d","stateCode":"BE","latitude":"46.45826000","longitude":"7.44298000"},{"id":"9c1d48e4-bdee-4c81-821c-8f121cd18c5a","name":"Leuzigen","ru":"Leuzigen","country":"eb0102b4-65d5-4711-8ca4-79efc42b5b70","countryCode":"CH","state":"564f88cc-6057-4784-bd2b-2ce2e379405d","stateCode":"BE","latitude":"47.17458000","longitude":"7.45775000"},{"id":"f3aad626-6bf8-4875-9c42-c85517530ecc","name":"Linden","ru":"Linden","country":"eb0102b4-65d5-4711-8ca4-79efc42b5b70","countryCode":"CH","state":"564f88cc-6057-4784-bd2b-2ce2e379405d","stateCode":"BE","latitude":"46.84690000","longitude":"7.67831000"},{"id":"f474b61e-ab49-40fc-bf6c-9f7143cac83c","name":"Lotzwil","ru":"Lotzwil","country":"eb0102b4-65d5-4711-8ca4-79efc42b5b70","countryCode":"CH","state":"564f88cc-6057-4784-bd2b-2ce2e379405d","stateCode":"BE","latitude":"47.19135000","longitude":"7.79102000"},{"id":"b2042a2b-bd69-4bf9-93fd-879cfd89bc0d","name":"Lyss","ru":"Lyss","country":"eb0102b4-65d5-4711-8ca4-79efc42b5b70","countryCode":"CH","state":"564f88cc-6057-4784-bd2b-2ce2e379405d","stateCode":"BE","latitude":"47.07410000","longitude":"7.30655000"},{"id":"70353f2b-0264-4065-96a8-6726d2566e9d","name":"Lyssach","ru":"Lyssach","country":"eb0102b4-65d5-4711-8ca4-79efc42b5b70","countryCode":"CH","state":"564f88cc-6057-4784-bd2b-2ce2e379405d","stateCode":"BE","latitude":"47.06445000","longitude":"7.58228000"},{"id":"f61d56a1-f5f4-43a0-b8ac-a0cc31a0358d","name":"Madiswil","ru":"Madiswil","country":"eb0102b4-65d5-4711-8ca4-79efc42b5b70","countryCode":"CH","state":"564f88cc-6057-4784-bd2b-2ce2e379405d","stateCode":"BE","latitude":"47.16463000","longitude":"7.79858000"},{"id":"ccea7940-b5d2-48e6-89fa-d08c09b83fd9","name":"Malleray","ru":"Malleray","country":"eb0102b4-65d5-4711-8ca4-79efc42b5b70","countryCode":"CH","state":"564f88cc-6057-4784-bd2b-2ce2e379405d","stateCode":"BE","latitude":"47.23839000","longitude":"7.27286000"},{"id":"6591fc00-b3c1-4450-9868-3741069a69e9","name":"Matten","ru":"Matten","country":"eb0102b4-65d5-4711-8ca4-79efc42b5b70","countryCode":"CH","state":"564f88cc-6057-4784-bd2b-2ce2e379405d","stateCode":"BE","latitude":"46.67833000","longitude":"7.86889000"},{"id":"e2149305-5798-417e-a0f2-e188c2846586","name":"Mühleberg","ru":"Mühleberg","country":"eb0102b4-65d5-4711-8ca4-79efc42b5b70","countryCode":"CH","state":"564f88cc-6057-4784-bd2b-2ce2e379405d","stateCode":"BE","latitude":"46.95466000","longitude":"7.26102000"},{"id":"edd12e9f-c389-4386-851a-cac872e8682d","name":"Mühlethurnen","ru":"Mühlethurnen","country":"eb0102b4-65d5-4711-8ca4-79efc42b5b70","countryCode":"CH","state":"564f88cc-6057-4784-bd2b-2ce2e379405d","stateCode":"BE","latitude":"46.81345000","longitude":"7.50881000"},{"id":"9bc94475-f4ee-4578-b3b1-93c0f22231fc","name":"Münchenbuchsee","ru":"Münchenbuchsee","country":"eb0102b4-65d5-4711-8ca4-79efc42b5b70","countryCode":"CH","state":"564f88cc-6057-4784-bd2b-2ce2e379405d","stateCode":"BE","latitude":"47.02175000","longitude":"7.45036000"},{"id":"d0b4c72f-5d97-47bf-b03e-98a2867891a2","name":"Münchenwiler","ru":"Münchenwiler","country":"eb0102b4-65d5-4711-8ca4-79efc42b5b70","countryCode":"CH","state":"564f88cc-6057-4784-bd2b-2ce2e379405d","stateCode":"BE","latitude":"46.91334000","longitude":"7.12556000"},{"id":"0d4db277-4278-4d92-90fc-8eb658c37753","name":"Münsingen","ru":"Münsingen","country":"eb0102b4-65d5-4711-8ca4-79efc42b5b70","countryCode":"CH","state":"564f88cc-6057-4784-bd2b-2ce2e379405d","stateCode":"BE","latitude":"46.87298000","longitude":"7.56100000"},{"id":"c8addab2-0698-4963-9162-c7468a2d1a38","name":"Müntschemier","ru":"Müntschemier","country":"eb0102b4-65d5-4711-8ca4-79efc42b5b70","countryCode":"CH","state":"564f88cc-6057-4784-bd2b-2ce2e379405d","stateCode":"BE","latitude":"46.99548000","longitude":"7.14626000"},{"id":"058ced46-2373-4dcd-9351-f72d8eb1b5eb","name":"Meinisberg","ru":"Meinisberg","country":"eb0102b4-65d5-4711-8ca4-79efc42b5b70","countryCode":"CH","state":"564f88cc-6057-4784-bd2b-2ce2e379405d","stateCode":"BE","latitude":"47.15965000","longitude":"7.34801000"},{"id":"4a47abdd-8383-4a26-a71e-5818c55ff2d4","name":"Meiringen","ru":"Meiringen","country":"eb0102b4-65d5-4711-8ca4-79efc42b5b70","countryCode":"CH","state":"564f88cc-6057-4784-bd2b-2ce2e379405d","stateCode":"BE","latitude":"46.72709000","longitude":"8.18720000"},{"id":"a1302878-803f-44cb-a126-27e0235077eb","name":"Melchnau","ru":"Melchnau","country":"eb0102b4-65d5-4711-8ca4-79efc42b5b70","countryCode":"CH","state":"564f88cc-6057-4784-bd2b-2ce2e379405d","stateCode":"BE","latitude":"47.18213000","longitude":"7.85128000"},{"id":"0b61be2b-d6b2-400d-9200-847d5419313b","name":"Moutier","ru":"Moutier","country":"eb0102b4-65d5-4711-8ca4-79efc42b5b70","countryCode":"CH","state":"564f88cc-6057-4784-bd2b-2ce2e379405d","stateCode":"BE","latitude":"47.27818000","longitude":"7.36951000"},{"id":"40a0d272-27e8-42be-be54-f7d6eb38590e","name":"Muri","ru":"Muri","country":"eb0102b4-65d5-4711-8ca4-79efc42b5b70","countryCode":"CH","state":"564f88cc-6057-4784-bd2b-2ce2e379405d","stateCode":"BE","latitude":"46.93122000","longitude":"7.48658000"},{"id":"5e434bb6-c074-48a5-9d74-1eee4a6bb28e","name":"Nidau","ru":"Nidau","country":"eb0102b4-65d5-4711-8ca4-79efc42b5b70","countryCode":"CH","state":"564f88cc-6057-4784-bd2b-2ce2e379405d","stateCode":"BE","latitude":"47.12545000","longitude":"7.24033000"},{"id":"ef2890c3-3bf4-4486-af8f-b5a0b726ac8b","name":"Niederbipp","ru":"Niederbipp","country":"eb0102b4-65d5-4711-8ca4-79efc42b5b70","countryCode":"CH","state":"564f88cc-6057-4784-bd2b-2ce2e379405d","stateCode":"BE","latitude":"47.27175000","longitude":"7.69583000"},{"id":"61f3f184-c55d-4fbd-8ac2-d64c87e85bca","name":"Oberaargau","ru":"Oberaargau","country":"eb0102b4-65d5-4711-8ca4-79efc42b5b70","countryCode":"CH","state":"564f88cc-6057-4784-bd2b-2ce2e379405d","stateCode":"BE","latitude":"47.19202000","longitude":"7.74553000"},{"id":"1d8b83fe-c3f4-4729-90d9-497e100620f2","name":"Oberbipp","ru":"Oberbipp","country":"eb0102b4-65d5-4711-8ca4-79efc42b5b70","countryCode":"CH","state":"564f88cc-6057-4784-bd2b-2ce2e379405d","stateCode":"BE","latitude":"47.26070000","longitude":"7.66359000"},{"id":"62e670a7-3a77-4365-90b1-83b184bbb9c3","name":"Oberburg","ru":"Oberburg","country":"eb0102b4-65d5-4711-8ca4-79efc42b5b70","countryCode":"CH","state":"564f88cc-6057-4784-bd2b-2ce2e379405d","stateCode":"BE","latitude":"47.03665000","longitude":"7.62745000"},{"id":"379a4105-1922-4e67-a0bd-0f0a29a37ad6","name":"Oberdiessbach","ru":"Oberdiessbach","country":"eb0102b4-65d5-4711-8ca4-79efc42b5b70","countryCode":"CH","state":"564f88cc-6057-4784-bd2b-2ce2e379405d","stateCode":"BE","latitude":"46.84117000","longitude":"7.61730000"},{"id":"3379cfe9-e45e-4e22-8be4-8b1c5b1aa791","name":"Obersimmental-Saanen District","ru":"Obersimmental-Saanen District","country":"eb0102b4-65d5-4711-8ca4-79efc42b5b70","countryCode":"CH","state":"564f88cc-6057-4784-bd2b-2ce2e379405d","stateCode":"BE","latitude":"46.47932000","longitude":"7.35803000"},{"id":"a7613d70-0e90-499e-a166-4924bdd240cd","name":"Orpund","ru":"Orpund","country":"eb0102b4-65d5-4711-8ca4-79efc42b5b70","countryCode":"CH","state":"564f88cc-6057-4784-bd2b-2ce2e379405d","stateCode":"BE","latitude":"47.13891000","longitude":"7.30775000"},{"id":"2272caa9-1c35-44cf-83ff-388933a3f7b6","name":"Orvin","ru":"Orvin","country":"eb0102b4-65d5-4711-8ca4-79efc42b5b70","countryCode":"CH","state":"564f88cc-6057-4784-bd2b-2ce2e379405d","stateCode":"BE","latitude":"47.16068000","longitude":"7.21368000"},{"id":"c3268896-4e1a-4dd7-8aef-b442f61f5731","name":"Péry","ru":"Péry","country":"eb0102b4-65d5-4711-8ca4-79efc42b5b70","countryCode":"CH","state":"564f88cc-6057-4784-bd2b-2ce2e379405d","stateCode":"BE","latitude":"47.19398000","longitude":"7.24913000"},{"id":"b63a6e77-4ab4-4d71-980f-283d70d373de","name":"Pieterlen","ru":"Pieterlen","country":"eb0102b4-65d5-4711-8ca4-79efc42b5b70","countryCode":"CH","state":"564f88cc-6057-4784-bd2b-2ce2e379405d","stateCode":"BE","latitude":"47.17501000","longitude":"7.33791000"},{"id":"d7a136f1-765c-4399-8955-347788c781ea","name":"Radelfingen","ru":"Radelfingen","country":"eb0102b4-65d5-4711-8ca4-79efc42b5b70","countryCode":"CH","state":"564f88cc-6057-4784-bd2b-2ce2e379405d","stateCode":"BE","latitude":"47.02146000","longitude":"7.27178000"},{"id":"bdb017e8-c65d-46ef-a6cb-ebab7e0fb391","name":"Rüderswil","ru":"Rüderswil","country":"eb0102b4-65d5-4711-8ca4-79efc42b5b70","countryCode":"CH","state":"564f88cc-6057-4784-bd2b-2ce2e379405d","stateCode":"BE","latitude":"46.98374000","longitude":"7.72167000"},{"id":"d58a573d-e208-4e16-8dd1-993663d77029","name":"Rüeggisberg","ru":"Rüeggisberg","country":"eb0102b4-65d5-4711-8ca4-79efc42b5b70","countryCode":"CH","state":"564f88cc-6057-4784-bd2b-2ce2e379405d","stateCode":"BE","latitude":"46.82216000","longitude":"7.43890000"},{"id":"76b089e9-2f90-4a6c-bac7-dbc49374d79a","name":"Rüschegg","ru":"Rüschegg","country":"eb0102b4-65d5-4711-8ca4-79efc42b5b70","countryCode":"CH","state":"564f88cc-6057-4784-bd2b-2ce2e379405d","stateCode":"BE","latitude":"46.77977000","longitude":"7.39167000"},{"id":"0d9cd2ed-a70c-4c47-b8f0-a377ea8174ff","name":"Reconvilier","ru":"Reconvilier","country":"eb0102b4-65d5-4711-8ca4-79efc42b5b70","countryCode":"CH","state":"564f88cc-6057-4784-bd2b-2ce2e379405d","stateCode":"BE","latitude":"47.23431000","longitude":"7.22239000"},{"id":"e10073c7-a1d6-4507-9ca6-9961ebe9be00","name":"Riggisberg","ru":"Riggisberg","country":"eb0102b4-65d5-4711-8ca4-79efc42b5b70","countryCode":"CH","state":"564f88cc-6057-4784-bd2b-2ce2e379405d","stateCode":"BE","latitude":"46.81028000","longitude":"7.48014000"},{"id":"a5bc08cb-0613-4802-90d8-38a4f856a63f","name":"Ringgenberg","ru":"Ringgenberg","country":"eb0102b4-65d5-4711-8ca4-79efc42b5b70","countryCode":"CH","state":"564f88cc-6057-4784-bd2b-2ce2e379405d","stateCode":"BE","latitude":"46.70114000","longitude":"7.89445000"},{"id":"48e3c10c-f876-4721-9211-7d1c7be04878","name":"Roggwil","ru":"Roggwil","country":"eb0102b4-65d5-4711-8ca4-79efc42b5b70","countryCode":"CH","state":"564f88cc-6057-4784-bd2b-2ce2e379405d","stateCode":"BE","latitude":"47.24119000","longitude":"7.82141000"},{"id":"ce8af17f-f2db-44e4-951e-00f84f1db479","name":"Rohrbach","ru":"Rohrbach","country":"eb0102b4-65d5-4711-8ca4-79efc42b5b70","countryCode":"CH","state":"564f88cc-6057-4784-bd2b-2ce2e379405d","stateCode":"BE","latitude":"47.13521000","longitude":"7.81334000"},{"id":"8d9f0e73-a776-4ced-87e6-b8ab5fb8adba","name":"Rubigen","ru":"Rubigen","country":"eb0102b4-65d5-4711-8ca4-79efc42b5b70","countryCode":"CH","state":"564f88cc-6057-4784-bd2b-2ce2e379405d","stateCode":"BE","latitude":"46.89868000","longitude":"7.54460000"},{"id":"07abe229-e61a-4f1e-a4e8-d0111fb5bb34","name":"Saanen","ru":"Saanen","country":"eb0102b4-65d5-4711-8ca4-79efc42b5b70","countryCode":"CH","state":"564f88cc-6057-4784-bd2b-2ce2e379405d","stateCode":"BE","latitude":"46.48945000","longitude":"7.26003000"},{"id":"986616ca-adb9-4812-8d14-5f453c98ada9","name":"Saint-Imier","ru":"Saint-Imier","country":"eb0102b4-65d5-4711-8ca4-79efc42b5b70","countryCode":"CH","state":"564f88cc-6057-4784-bd2b-2ce2e379405d","stateCode":"BE","latitude":"47.15284000","longitude":"6.99692000"},{"id":"dcd8fdf5-2c01-49cf-9fe5-be53e2e42be1","name":"Sankt Stephan","ru":"Sankt Stephan","country":"eb0102b4-65d5-4711-8ca4-79efc42b5b70","countryCode":"CH","state":"564f88cc-6057-4784-bd2b-2ce2e379405d","stateCode":"BE","latitude":"46.50827000","longitude":"7.39559000"},{"id":"ee6330b2-2ffc-476f-9747-a2b58c2a5e50","name":"Schüpfen","ru":"Schüpfen","country":"eb0102b4-65d5-4711-8ca4-79efc42b5b70","countryCode":"CH","state":"564f88cc-6057-4784-bd2b-2ce2e379405d","stateCode":"BE","latitude":"47.03661000","longitude":"7.37723000"},{"id":"b8917a09-8444-43ff-b5e3-1bab9fa269f8","name":"Seeberg","ru":"Seeberg","country":"eb0102b4-65d5-4711-8ca4-79efc42b5b70","countryCode":"CH","state":"564f88cc-6057-4784-bd2b-2ce2e379405d","stateCode":"BE","latitude":"47.15585000","longitude":"7.66567000"},{"id":"b8f61dc6-71fd-4fae-bb4f-ed4612b26978","name":"Seedorf","ru":"Seedorf","country":"eb0102b4-65d5-4711-8ca4-79efc42b5b70","countryCode":"CH","state":"564f88cc-6057-4784-bd2b-2ce2e379405d","stateCode":"BE","latitude":"47.03445000","longitude":"7.31249000"},{"id":"632164dc-e6c7-4127-af27-be37281ec8ec","name":"Seeland District","ru":"Seeland District","country":"eb0102b4-65d5-4711-8ca4-79efc42b5b70","countryCode":"CH","state":"564f88cc-6057-4784-bd2b-2ce2e379405d","stateCode":"BE","latitude":"47.06635000","longitude":"7.26333000"},{"id":"b14913ce-bc99-41a3-8deb-5730cf9613ce","name":"Seftigen","ru":"Seftigen","country":"eb0102b4-65d5-4711-8ca4-79efc42b5b70","countryCode":"CH","state":"564f88cc-6057-4784-bd2b-2ce2e379405d","stateCode":"BE","latitude":"46.78765000","longitude":"7.53937000"},{"id":"3f120493-d2ee-467f-978f-305b901bc20e","name":"Signau","ru":"Signau","country":"eb0102b4-65d5-4711-8ca4-79efc42b5b70","countryCode":"CH","state":"564f88cc-6057-4784-bd2b-2ce2e379405d","stateCode":"BE","latitude":"46.91944000","longitude":"7.72418000"},{"id":"fac8aa23-3608-4f33-954a-188480d7c215","name":"Sigriswil","ru":"Sigriswil","country":"eb0102b4-65d5-4711-8ca4-79efc42b5b70","countryCode":"CH","state":"564f88cc-6057-4784-bd2b-2ce2e379405d","stateCode":"BE","latitude":"46.71656000","longitude":"7.71335000"},{"id":"0c48f73c-6afd-463c-a756-b3ca982d665b","name":"Spiez","ru":"Spiez","country":"eb0102b4-65d5-4711-8ca4-79efc42b5b70","countryCode":"CH","state":"564f88cc-6057-4784-bd2b-2ce2e379405d","stateCode":"BE","latitude":"46.68473000","longitude":"7.69111000"},{"id":"c471b518-71c7-4b7a-b968-67df89461e4d","name":"Steffisburg","ru":"Steffisburg","country":"eb0102b4-65d5-4711-8ca4-79efc42b5b70","countryCode":"CH","state":"564f88cc-6057-4784-bd2b-2ce2e379405d","stateCode":"BE","latitude":"46.77807000","longitude":"7.63249000"},{"id":"0275eb60-c0d8-4422-9bd6-4c23e726f99f","name":"Stettlen","ru":"Stettlen","country":"eb0102b4-65d5-4711-8ca4-79efc42b5b70","countryCode":"CH","state":"564f88cc-6057-4784-bd2b-2ce2e379405d","stateCode":"BE","latitude":"46.95835000","longitude":"7.52508000"},{"id":"540ef58e-3427-482f-86ee-e49b919a09ba","name":"Sumiswald","ru":"Sumiswald","country":"eb0102b4-65d5-4711-8ca4-79efc42b5b70","countryCode":"CH","state":"564f88cc-6057-4784-bd2b-2ce2e379405d","stateCode":"BE","latitude":"47.02747000","longitude":"7.74526000"},{"id":"4779ae1c-f93f-4ccc-95cf-6e2008bdc9f4","name":"Tavannes","ru":"Tavannes","country":"eb0102b4-65d5-4711-8ca4-79efc42b5b70","countryCode":"CH","state":"564f88cc-6057-4784-bd2b-2ce2e379405d","stateCode":"BE","latitude":"47.22079000","longitude":"7.19759000"},{"id":"dd188d0c-a3a7-4926-ac0a-50ffa391718d","name":"Täuffelen","ru":"Täuffelen","country":"eb0102b4-65d5-4711-8ca4-79efc42b5b70","countryCode":"CH","state":"564f88cc-6057-4784-bd2b-2ce2e379405d","stateCode":"BE","latitude":"47.06630000","longitude":"7.19883000"},{"id":"13d15cb3-adf7-40d1-9e5a-034b426df690","name":"Thierachern","ru":"Thierachern","country":"eb0102b4-65d5-4711-8ca4-79efc42b5b70","countryCode":"CH","state":"564f88cc-6057-4784-bd2b-2ce2e379405d","stateCode":"BE","latitude":"46.75319000","longitude":"7.57442000"},{"id":"6661ff5e-daa3-40f9-a496-bcdaa4323267","name":"Thun","ru":"Thun","country":"eb0102b4-65d5-4711-8ca4-79efc42b5b70","countryCode":"CH","state":"564f88cc-6057-4784-bd2b-2ce2e379405d","stateCode":"BE","latitude":"46.75118000","longitude":"7.62166000"},{"id":"d41dd19b-cefa-494d-b4f3-d0ff7973b659","name":"Thun District","ru":"Thun District","country":"eb0102b4-65d5-4711-8ca4-79efc42b5b70","countryCode":"CH","state":"564f88cc-6057-4784-bd2b-2ce2e379405d","stateCode":"BE","latitude":"46.76290000","longitude":"7.62503000"},{"id":"4a610ba4-afc3-4b8e-a421-f1148a3d8334","name":"Toffen","ru":"Toffen","country":"eb0102b4-65d5-4711-8ca4-79efc42b5b70","countryCode":"CH","state":"564f88cc-6057-4784-bd2b-2ce2e379405d","stateCode":"BE","latitude":"46.86031000","longitude":"7.49216000"},{"id":"bf18a793-8519-4c0a-b4f8-c1983a1936fe","name":"Trachselwald","ru":"Trachselwald","country":"eb0102b4-65d5-4711-8ca4-79efc42b5b70","countryCode":"CH","state":"564f88cc-6057-4784-bd2b-2ce2e379405d","stateCode":"BE","latitude":"47.01699000","longitude":"7.73639000"},{"id":"6864f444-19f6-4cb5-b021-fc22f4353f72","name":"Tramelan","ru":"Tramelan","country":"eb0102b4-65d5-4711-8ca4-79efc42b5b70","countryCode":"CH","state":"564f88cc-6057-4784-bd2b-2ce2e379405d","stateCode":"BE","latitude":"47.22298000","longitude":"7.10287000"},{"id":"9de8e852-e942-46cc-8eb1-46f450341e10","name":"Trub","ru":"Trub","country":"eb0102b4-65d5-4711-8ca4-79efc42b5b70","countryCode":"CH","state":"564f88cc-6057-4784-bd2b-2ce2e379405d","stateCode":"BE","latitude":"46.94168000","longitude":"7.87996000"},{"id":"0a00f7af-a871-463d-a0ea-0cb5bcfecc20","name":"Trubschachen","ru":"Trubschachen","country":"eb0102b4-65d5-4711-8ca4-79efc42b5b70","countryCode":"CH","state":"564f88cc-6057-4784-bd2b-2ce2e379405d","stateCode":"BE","latitude":"46.92228000","longitude":"7.84520000"},{"id":"c4b7a4cb-2a64-4014-979c-f7e9e239a7e5","name":"Uetendorf","ru":"Uetendorf","country":"eb0102b4-65d5-4711-8ca4-79efc42b5b70","countryCode":"CH","state":"564f88cc-6057-4784-bd2b-2ce2e379405d","stateCode":"BE","latitude":"46.77392000","longitude":"7.57251000"},{"id":"dd96ac82-1f5b-402d-ac8b-b409f3f3ab6c","name":"Unterseen","ru":"Unterseen","country":"eb0102b4-65d5-4711-8ca4-79efc42b5b70","countryCode":"CH","state":"564f88cc-6057-4784-bd2b-2ce2e379405d","stateCode":"BE","latitude":"46.68530000","longitude":"7.84722000"},{"id":"c4238d35-c690-44b1-ab8d-0b37d46150a2","name":"Urtenen","ru":"Urtenen","country":"eb0102b4-65d5-4711-8ca4-79efc42b5b70","countryCode":"CH","state":"564f88cc-6057-4784-bd2b-2ce2e379405d","stateCode":"BE","latitude":"47.02667000","longitude":"7.50081000"},{"id":"7e4f8c0b-cbe6-4b1a-8b6f-15031a4e0038","name":"Uttigen","ru":"Uttigen","country":"eb0102b4-65d5-4711-8ca4-79efc42b5b70","countryCode":"CH","state":"564f88cc-6057-4784-bd2b-2ce2e379405d","stateCode":"BE","latitude":"46.79435000","longitude":"7.57789000"},{"id":"28ec7fae-8861-48ad-b4ba-1c76e6e07ec5","name":"Utzenstorf","ru":"Utzenstorf","country":"eb0102b4-65d5-4711-8ca4-79efc42b5b70","countryCode":"CH","state":"564f88cc-6057-4784-bd2b-2ce2e379405d","stateCode":"BE","latitude":"47.13248000","longitude":"7.55355000"},{"id":"b565ce22-3831-43cd-bee0-d287689e0daf","name":"Vechigen","ru":"Vechigen","country":"eb0102b4-65d5-4711-8ca4-79efc42b5b70","countryCode":"CH","state":"564f88cc-6057-4784-bd2b-2ce2e379405d","stateCode":"BE","latitude":"46.94616000","longitude":"7.56065000"},{"id":"9666d8e5-ce00-439c-979e-2ba2349b2e44","name":"Walkringen","ru":"Walkringen","country":"eb0102b4-65d5-4711-8ca4-79efc42b5b70","countryCode":"CH","state":"564f88cc-6057-4784-bd2b-2ce2e379405d","stateCode":"BE","latitude":"46.94856000","longitude":"7.62040000"},{"id":"81d06c63-0360-49b6-9c0e-ef717e1cffd6","name":"Wangen an der Aare","ru":"Wangen an der Aare","country":"eb0102b4-65d5-4711-8ca4-79efc42b5b70","countryCode":"CH","state":"564f88cc-6057-4784-bd2b-2ce2e379405d","stateCode":"BE","latitude":"47.23208000","longitude":"7.65253000"},{"id":"d6b9186a-9324-4984-b768-a4c605ef1c65","name":"Wattenwil","ru":"Wattenwil","country":"eb0102b4-65d5-4711-8ca4-79efc42b5b70","countryCode":"CH","state":"564f88cc-6057-4784-bd2b-2ce2e379405d","stateCode":"BE","latitude":"46.76973000","longitude":"7.50835000"},{"id":"1138c5fd-6f65-45fd-827f-500fc5953203","name":"Wichtrach","ru":"Wichtrach","country":"eb0102b4-65d5-4711-8ca4-79efc42b5b70","countryCode":"CH","state":"564f88cc-6057-4784-bd2b-2ce2e379405d","stateCode":"BE","latitude":"46.85010000","longitude":"7.57748000"},{"id":"14e81d31-707e-43e5-9128-cda636b6701c","name":"Wiedlisbach","ru":"Wiedlisbach","country":"eb0102b4-65d5-4711-8ca4-79efc42b5b70","countryCode":"CH","state":"564f88cc-6057-4784-bd2b-2ce2e379405d","stateCode":"BE","latitude":"47.25194000","longitude":"7.64610000"},{"id":"e72ca1b4-5c83-4ae6-b0df-89aebfa95a7d","name":"Wilderswil","ru":"Wilderswil","country":"eb0102b4-65d5-4711-8ca4-79efc42b5b70","countryCode":"CH","state":"564f88cc-6057-4784-bd2b-2ce2e379405d","stateCode":"BE","latitude":"46.66369000","longitude":"7.86175000"},{"id":"795bbb7b-cc46-4491-8896-61110fc3d872","name":"Wimmis","ru":"Wimmis","country":"eb0102b4-65d5-4711-8ca4-79efc42b5b70","countryCode":"CH","state":"564f88cc-6057-4784-bd2b-2ce2e379405d","stateCode":"BE","latitude":"46.67587000","longitude":"7.63972000"},{"id":"37b653e1-7de2-4268-b48b-977c9d5b5d30","name":"Wohlen","ru":"Wohlen","country":"eb0102b4-65d5-4711-8ca4-79efc42b5b70","countryCode":"CH","state":"564f88cc-6057-4784-bd2b-2ce2e379405d","stateCode":"BE","latitude":"46.97118000","longitude":"7.35685000"},{"id":"10a055cb-9668-4c83-9504-e181b55c2df3","name":"Worb","ru":"Worb","country":"eb0102b4-65d5-4711-8ca4-79efc42b5b70","countryCode":"CH","state":"564f88cc-6057-4784-bd2b-2ce2e379405d","stateCode":"BE","latitude":"46.92984000","longitude":"7.56306000"},{"id":"5a9369e2-ef9c-47ec-9cba-685689c877ff","name":"Worben","ru":"Worben","country":"eb0102b4-65d5-4711-8ca4-79efc42b5b70","countryCode":"CH","state":"564f88cc-6057-4784-bd2b-2ce2e379405d","stateCode":"BE","latitude":"47.10279000","longitude":"7.29518000"},{"id":"321bd47c-e367-4c45-9820-982941e32692","name":"Wynau","ru":"Wynau","country":"eb0102b4-65d5-4711-8ca4-79efc42b5b70","countryCode":"CH","state":"564f88cc-6057-4784-bd2b-2ce2e379405d","stateCode":"BE","latitude":"47.25570000","longitude":"7.81626000"},{"id":"03425626-f0e5-4065-b503-4aa6a9ed9057","name":"Wynigen","ru":"Wynigen","country":"eb0102b4-65d5-4711-8ca4-79efc42b5b70","countryCode":"CH","state":"564f88cc-6057-4784-bd2b-2ce2e379405d","stateCode":"BE","latitude":"47.10586000","longitude":"7.66681000"},{"id":"a23e36b5-e416-404c-8286-6e4bcca1772b","name":"Wyssachen","ru":"Wyssachen","country":"eb0102b4-65d5-4711-8ca4-79efc42b5b70","countryCode":"CH","state":"564f88cc-6057-4784-bd2b-2ce2e379405d","stateCode":"BE","latitude":"47.07851000","longitude":"7.82922000"},{"id":"5c78d8cd-a59a-4193-88d0-64815da7fa44","name":"Zäziwil","ru":"Zäziwil","country":"eb0102b4-65d5-4711-8ca4-79efc42b5b70","countryCode":"CH","state":"564f88cc-6057-4784-bd2b-2ce2e379405d","stateCode":"BE","latitude":"46.90196000","longitude":"7.66185000"},{"id":"1b24630c-1ddb-4d89-a4d3-3aae4d90c194","name":"Zollikofen","ru":"Zollikofen","country":"eb0102b4-65d5-4711-8ca4-79efc42b5b70","countryCode":"CH","state":"564f88cc-6057-4784-bd2b-2ce2e379405d","stateCode":"BE","latitude":"46.99905000","longitude":"7.45809000"},{"id":"32c5f03f-1310-43d7-ad0c-4030620ba54d","name":"Zweisimmen","ru":"Zweisimmen","country":"eb0102b4-65d5-4711-8ca4-79efc42b5b70","countryCode":"CH","state":"564f88cc-6057-4784-bd2b-2ce2e379405d","stateCode":"BE","latitude":"46.55539000","longitude":"7.37302000"},{"id":"3b581a27-a5f0-4d87-b651-f29c8a2e6866","name":"Alterswil","ru":"Alterswil","country":"eb0102b4-65d5-4711-8ca4-79efc42b5b70","countryCode":"CH","state":"e595c6c4-c9b6-46c1-9af6-2f29c33eb0d1","stateCode":"FR","latitude":"46.79587000","longitude":"7.25877000"},{"id":"5870539e-ecf8-47a3-8588-0b64014590d7","name":"Attalens","ru":"Attalens","country":"eb0102b4-65d5-4711-8ca4-79efc42b5b70","countryCode":"CH","state":"e595c6c4-c9b6-46c1-9af6-2f29c33eb0d1","stateCode":"FR","latitude":"46.50555000","longitude":"6.85039000"},{"id":"78c95f35-fc14-4342-8c22-b17c595d1778","name":"Avry-sur-Matran","ru":"Avry-sur-Matran","country":"eb0102b4-65d5-4711-8ca4-79efc42b5b70","countryCode":"CH","state":"e595c6c4-c9b6-46c1-9af6-2f29c33eb0d1","stateCode":"FR","latitude":"46.78753000","longitude":"7.06735000"},{"id":"d33fdce8-7189-4ec5-a931-d1455bf330aa","name":"Bas-Vully","ru":"Bas-Vully","country":"eb0102b4-65d5-4711-8ca4-79efc42b5b70","countryCode":"CH","state":"e595c6c4-c9b6-46c1-9af6-2f29c33eb0d1","stateCode":"FR","latitude":"46.96194000","longitude":"7.11251000"},{"id":"ee92c8cf-1d90-4253-a1ac-2b7f96cd87cc","name":"Bösingen","ru":"Bösingen","country":"eb0102b4-65d5-4711-8ca4-79efc42b5b70","countryCode":"CH","state":"e595c6c4-c9b6-46c1-9af6-2f29c33eb0d1","stateCode":"FR","latitude":"46.89229000","longitude":"7.22770000"},{"id":"03d29420-d77e-4783-a7ae-d58c8d254574","name":"Belfaux","ru":"Belfaux","country":"eb0102b4-65d5-4711-8ca4-79efc42b5b70","countryCode":"CH","state":"e595c6c4-c9b6-46c1-9af6-2f29c33eb0d1","stateCode":"FR","latitude":"46.82171000","longitude":"7.10674000"},{"id":"b9e6534a-497f-4f08-8e71-67d8ed66b6e0","name":"Broc","ru":"Broc","country":"eb0102b4-65d5-4711-8ca4-79efc42b5b70","countryCode":"CH","state":"e595c6c4-c9b6-46c1-9af6-2f29c33eb0d1","stateCode":"FR","latitude":"46.60513000","longitude":"7.09891000"},{"id":"ffbf3ab7-4579-4226-b21f-9abcad412e8a","name":"Broye District","ru":"Broye District","country":"eb0102b4-65d5-4711-8ca4-79efc42b5b70","countryCode":"CH","state":"e595c6c4-c9b6-46c1-9af6-2f29c33eb0d1","stateCode":"FR","latitude":"46.82212000","longitude":"6.90249000"},{"id":"b68b6d35-d876-426d-8e30-51b3db23b618","name":"Bulle","ru":"Bulle","country":"eb0102b4-65d5-4711-8ca4-79efc42b5b70","countryCode":"CH","state":"e595c6c4-c9b6-46c1-9af6-2f29c33eb0d1","stateCode":"FR","latitude":"46.61797000","longitude":"7.05690000"},{"id":"efefa0f2-dc0a-479d-911b-8ff7c3f81475","name":"Charmey","ru":"Charmey","country":"eb0102b4-65d5-4711-8ca4-79efc42b5b70","countryCode":"CH","state":"e595c6c4-c9b6-46c1-9af6-2f29c33eb0d1","stateCode":"FR","latitude":"46.61957000","longitude":"7.16486000"},{"id":"de461251-f681-4e23-bfbf-bab1c18a66ec","name":"Châtel-Saint-Denis","ru":"Châtel-Saint-Denis","country":"eb0102b4-65d5-4711-8ca4-79efc42b5b70","countryCode":"CH","state":"e595c6c4-c9b6-46c1-9af6-2f29c33eb0d1","stateCode":"FR","latitude":"46.52691000","longitude":"6.90083000"},{"id":"b9ba938d-764b-4517-b541-da4d5fb2a7f3","name":"Corminboeuf","ru":"Corminboeuf","country":"eb0102b4-65d5-4711-8ca4-79efc42b5b70","countryCode":"CH","state":"e595c6c4-c9b6-46c1-9af6-2f29c33eb0d1","stateCode":"FR","latitude":"46.81029000","longitude":"7.10535000"},{"id":"44b1b4bf-eea2-417d-a18e-9e84f684abf6","name":"Courgevaux","ru":"Courgevaux","country":"eb0102b4-65d5-4711-8ca4-79efc42b5b70","countryCode":"CH","state":"e595c6c4-c9b6-46c1-9af6-2f29c33eb0d1","stateCode":"FR","latitude":"46.90648000","longitude":"7.11215000"},{"id":"86928819-0ead-4f0a-97d4-ac3563777e69","name":"Cugy","ru":"Cugy","country":"eb0102b4-65d5-4711-8ca4-79efc42b5b70","countryCode":"CH","state":"e595c6c4-c9b6-46c1-9af6-2f29c33eb0d1","stateCode":"FR","latitude":"46.81479000","longitude":"6.88888000"},{"id":"5d4e4509-69c5-464f-875f-114feadc3593","name":"Düdingen","ru":"Düdingen","country":"eb0102b4-65d5-4711-8ca4-79efc42b5b70","countryCode":"CH","state":"e595c6c4-c9b6-46c1-9af6-2f29c33eb0d1","stateCode":"FR","latitude":"46.84916000","longitude":"7.19150000"},{"id":"1fd80135-c81e-4e9a-b2b7-b429a3f1d58c","name":"Domdidier","ru":"Domdidier","country":"eb0102b4-65d5-4711-8ca4-79efc42b5b70","countryCode":"CH","state":"e595c6c4-c9b6-46c1-9af6-2f29c33eb0d1","stateCode":"FR","latitude":"46.86716000","longitude":"7.01337000"},{"id":"d75e7b93-77b1-4b14-81be-c3c2fb7200a1","name":"Ecublens","ru":"Ecublens","country":"eb0102b4-65d5-4711-8ca4-79efc42b5b70","countryCode":"CH","state":"e595c6c4-c9b6-46c1-9af6-2f29c33eb0d1","stateCode":"FR","latitude":"46.60735000","longitude":"6.80895000"},{"id":"edd1709c-d9bd-46d3-bb84-db8046a77c63","name":"Ependes","ru":"Ependes","country":"eb0102b4-65d5-4711-8ca4-79efc42b5b70","countryCode":"CH","state":"e595c6c4-c9b6-46c1-9af6-2f29c33eb0d1","stateCode":"FR","latitude":"46.75368000","longitude":"7.14609000"},{"id":"9249d6c5-f02a-4a06-8638-2d7188c47e83","name":"Estavayer-le-Lac","ru":"Estavayer-le-Lac","country":"eb0102b4-65d5-4711-8ca4-79efc42b5b70","countryCode":"CH","state":"e595c6c4-c9b6-46c1-9af6-2f29c33eb0d1","stateCode":"FR","latitude":"46.84876000","longitude":"6.84650000"},{"id":"4e19d38f-1556-45a4-a0d0-25005fb00397","name":"Flamatt","ru":"Flamatt","country":"eb0102b4-65d5-4711-8ca4-79efc42b5b70","countryCode":"CH","state":"e595c6c4-c9b6-46c1-9af6-2f29c33eb0d1","stateCode":"FR","latitude":"46.88994000","longitude":"7.32204000"},{"id":"fd4dad90-fbb5-4023-bbae-5544f1762b65","name":"Fribourg","ru":"Fribourg","country":"eb0102b4-65d5-4711-8ca4-79efc42b5b70","countryCode":"CH","state":"e595c6c4-c9b6-46c1-9af6-2f29c33eb0d1","stateCode":"FR","latitude":"46.80237000","longitude":"7.15128000"},{"id":"a4dfca61-15c7-4771-b984-2de81f8f8ca6","name":"Giffers","ru":"Giffers","country":"eb0102b4-65d5-4711-8ca4-79efc42b5b70","countryCode":"CH","state":"e595c6c4-c9b6-46c1-9af6-2f29c33eb0d1","stateCode":"FR","latitude":"46.76230000","longitude":"7.20845000"},{"id":"796389cc-7f73-41ca-85a7-93bef9b58c52","name":"Givisiez","ru":"Givisiez","country":"eb0102b4-65d5-4711-8ca4-79efc42b5b70","countryCode":"CH","state":"e595c6c4-c9b6-46c1-9af6-2f29c33eb0d1","stateCode":"FR","latitude":"46.81201000","longitude":"7.12639000"},{"id":"77d0cd0c-7b90-4166-aae6-ee1b87ef26e2","name":"Glâne District","ru":"Glâne District","country":"eb0102b4-65d5-4711-8ca4-79efc42b5b70","countryCode":"CH","state":"e595c6c4-c9b6-46c1-9af6-2f29c33eb0d1","stateCode":"FR","latitude":"46.66667000","longitude":"6.91667000"},{"id":"a501cff0-c3e1-4ece-9828-be5cf8170e71","name":"Grolley","ru":"Grolley","country":"eb0102b4-65d5-4711-8ca4-79efc42b5b70","countryCode":"CH","state":"e595c6c4-c9b6-46c1-9af6-2f29c33eb0d1","stateCode":"FR","latitude":"46.83360000","longitude":"7.07116000"},{"id":"32efd6b1-a76f-435b-a5a8-1f1807e46ade","name":"Gruyère District","ru":"Gruyère District","country":"eb0102b4-65d5-4711-8ca4-79efc42b5b70","countryCode":"CH","state":"e595c6c4-c9b6-46c1-9af6-2f29c33eb0d1","stateCode":"FR","latitude":"46.60753000","longitude":"7.10741000"},{"id":"e72eef78-6b78-4b47-a1ab-fe88fa0ea2fc","name":"Gruyères","ru":"Gruyères","country":"eb0102b4-65d5-4711-8ca4-79efc42b5b70","countryCode":"CH","state":"e595c6c4-c9b6-46c1-9af6-2f29c33eb0d1","stateCode":"FR","latitude":"46.58338000","longitude":"7.08207000"},{"id":"60596fd6-0ffd-4dde-b561-3da64ce2fac7","name":"Heitenried","ru":"Heitenried","country":"eb0102b4-65d5-4711-8ca4-79efc42b5b70","countryCode":"CH","state":"e595c6c4-c9b6-46c1-9af6-2f29c33eb0d1","stateCode":"FR","latitude":"46.82762000","longitude":"7.29944000"},