[{"id":"0ceafad5-e08e-4075-a429-75dbd8d69dbb","name":"Alquízar","ru":"Alquízar","country":"4275d761-beaf-443f-86ec-183950ce6b66","countryCode":"CU","state":"4eacca31-ce6e-443c-a54b-d25bb6bc9236","stateCode":"15","latitude":"22.80517000","longitude":"-82.58392000"},{"id":"fe965d2a-e1fb-498d-ae90-99e049e7d060","name":"Artemisa","ru":"Artemisa","country":"4275d761-beaf-443f-86ec-183950ce6b66","countryCode":"CU","state":"4eacca31-ce6e-443c-a54b-d25bb6bc9236","stateCode":"15","latitude":"22.81667000","longitude":"-82.75944000"},{"id":"85c0c142-4f3d-4d96-810d-f861a9a8def3","name":"Bahía Honda","ru":"Bahía Honda","country":"4275d761-beaf-443f-86ec-183950ce6b66","countryCode":"CU","state":"4eacca31-ce6e-443c-a54b-d25bb6bc9236","stateCode":"15","latitude":"22.90332000","longitude":"-83.15994000"},{"id":"0348d75a-4e18-4cc9-acdc-b21105b895a7","name":"Bauta","ru":"Bauta","country":"4275d761-beaf-443f-86ec-183950ce6b66","countryCode":"CU","state":"4eacca31-ce6e-443c-a54b-d25bb6bc9236","stateCode":"15","latitude":"22.98226000","longitude":"-82.54719000"},{"id":"64b31cb6-d7b0-4c3f-8479-89208bba16d2","name":"Cabañas","ru":"Cabañas","country":"4275d761-beaf-443f-86ec-183950ce6b66","countryCode":"CU","state":"4eacca31-ce6e-443c-a54b-d25bb6bc9236","stateCode":"15","latitude":"22.97944000","longitude":"-82.92214000"},{"id":"9b9cf377-1e2e-439d-a6c2-05061c009416","name":"Candelaria","ru":"Candelaria","country":"4275d761-beaf-443f-86ec-183950ce6b66","countryCode":"CU","state":"4eacca31-ce6e-443c-a54b-d25bb6bc9236","stateCode":"15","latitude":"22.74057000","longitude":"-82.95912000"},{"id":"fd1c54e2-f971-41d5-9e45-f93cfc7527d1","name":"Güira de Melena","ru":"Güira de Melena","country":"4275d761-beaf-443f-86ec-183950ce6b66","countryCode":"CU","state":"4eacca31-ce6e-443c-a54b-d25bb6bc9236","stateCode":"15","latitude":"22.79613000","longitude":"-82.50667000"},{"id":"b0c7df2a-73ef-4b36-91cb-581ed7e41947","name":"Guanajay","ru":"Guanajay","country":"4275d761-beaf-443f-86ec-183950ce6b66","countryCode":"CU","state":"4eacca31-ce6e-443c-a54b-d25bb6bc9236","stateCode":"15","latitude":"22.92639000","longitude":"-82.68750000"},{"id":"852160ed-4f50-4598-874d-d71b2da0f16e","name":"Mariel","ru":"Mariel","country":"4275d761-beaf-443f-86ec-183950ce6b66","countryCode":"CU","state":"4eacca31-ce6e-443c-a54b-d25bb6bc9236","stateCode":"15","latitude":"22.98931000","longitude":"-82.75376000"},{"id":"75f15e1e-372a-41de-8687-883d056e64b7","name":"Municipio de Artemisa","ru":"Municipio de Artemisa","country":"4275d761-beaf-443f-86ec-183950ce6b66","countryCode":"CU","state":"4eacca31-ce6e-443c-a54b-d25bb6bc9236","stateCode":"15","latitude":"22.77383000","longitude":"-82.80419000"},{"id":"1651cb88-e3fc-4d92-a63f-0162e71bf283","name":"Municipio de Bauta","ru":"Municipio de Bauta","country":"4275d761-beaf-443f-86ec-183950ce6b66","countryCode":"CU","state":"4eacca31-ce6e-443c-a54b-d25bb6bc9236","stateCode":"15","latitude":"22.96957000","longitude":"-82.49997000"},{"id":"d4c3be64-c590-4c7e-9380-103f37b806ae","name":"Municipio de Guanajay","ru":"Municipio de Guanajay","country":"4275d761-beaf-443f-86ec-183950ce6b66","countryCode":"CU","state":"4eacca31-ce6e-443c-a54b-d25bb6bc9236","stateCode":"15","latitude":"22.89215000","longitude":"-82.70873000"},{"id":"11b4c216-e89e-4847-99c4-0c5c66d18077","name":"Municipio de Mariel","ru":"Municipio de Mariel","country":"4275d761-beaf-443f-86ec-183950ce6b66","countryCode":"CU","state":"4eacca31-ce6e-443c-a54b-d25bb6bc9236","stateCode":"15","latitude":"22.96515000","longitude":"-82.80324000"},{"id":"90159cfa-3e65-4996-9a1d-957333f48ebd","name":"Municipio de San Cristóbal","ru":"Municipio de San Cristóbal","country":"4275d761-beaf-443f-86ec-183950ce6b66","countryCode":"CU","state":"4eacca31-ce6e-443c-a54b-d25bb6bc9236","stateCode":"15","latitude":"22.71446000","longitude":"-83.04561000"},{"id":"71f343c5-92c2-4f0b-89d2-5dce81b9c994","name":"San Antonio de los Baños","ru":"San Antonio de los Baños","country":"4275d761-beaf-443f-86ec-183950ce6b66","countryCode":"CU","state":"4eacca31-ce6e-443c-a54b-d25bb6bc9236","stateCode":"15","latitude":"22.89018000","longitude":"-82.50099000"},{"id":"e6acb78b-12c1-40df-98cf-905c7615ad5e","name":"San Cristobal","ru":"San Cristobal","country":"4275d761-beaf-443f-86ec-183950ce6b66","countryCode":"CU","state":"4eacca31-ce6e-443c-a54b-d25bb6bc9236","stateCode":"15","latitude":"22.71658000","longitude":"-83.05647000"},{"id":"13456f06-e115-417e-8566-cd7e7de8533e","name":"Soroa","ru":"Soroa","country":"4275d761-beaf-443f-86ec-183950ce6b66","countryCode":"CU","state":"4eacca31-ce6e-443c-a54b-d25bb6bc9236","stateCode":"15","latitude":"22.80000000","longitude":"-83.01667000"},{"id":"51932f17-cd36-46ac-a27d-feda36a368f8","name":"Camagüey","ru":"Camagüey","country":"4275d761-beaf-443f-86ec-183950ce6b66","countryCode":"CU","state":"5000f81c-f5a3-4078-9b16-5d8da98f48f2","stateCode":"09","latitude":"21.38083000","longitude":"-77.91694000"},{"id":"f3ace745-90a1-463c-b787-51d78352a9df","name":"El Caney","ru":"El Caney","country":"4275d761-beaf-443f-86ec-183950ce6b66","countryCode":"CU","state":"5000f81c-f5a3-4078-9b16-5d8da98f48f2","stateCode":"09","latitude":"21.30000000","longitude":"-78.48333000"},{"id":"270cbbad-d084-46c1-9081-2f1c0466e6d5","name":"Esmeralda","ru":"Esmeralda","country":"4275d761-beaf-443f-86ec-183950ce6b66","countryCode":"CU","state":"5000f81c-f5a3-4078-9b16-5d8da98f48f2","stateCode":"09","latitude":"21.85139000","longitude":"-78.11725000"},{"id":"42d7c042-3a8c-49f8-a28b-b1397e0989fc","name":"Florida","ru":"Florida","country":"4275d761-beaf-443f-86ec-183950ce6b66","countryCode":"CU","state":"5000f81c-f5a3-4078-9b16-5d8da98f48f2","stateCode":"09","latitude":"21.52536000","longitude":"-78.22579000"},{"id":"13aab424-7654-415e-80a0-e0e7744b2beb","name":"Guáimaro","ru":"Guáimaro","country":"4275d761-beaf-443f-86ec-183950ce6b66","countryCode":"CU","state":"5000f81c-f5a3-4078-9b16-5d8da98f48f2","stateCode":"09","latitude":"21.05222000","longitude":"-77.34990000"},{"id":"90098240-40ec-4ee8-8bff-6804c2f4df7a","name":"Jimaguayú","ru":"Jimaguayú","country":"4275d761-beaf-443f-86ec-183950ce6b66","countryCode":"CU","state":"5000f81c-f5a3-4078-9b16-5d8da98f48f2","stateCode":"09","latitude":"21.24224000","longitude":"-77.82625000"},{"id":"d200428c-34a2-4a33-8bc5-0293ea5a4754","name":"Minas","ru":"Minas","country":"4275d761-beaf-443f-86ec-183950ce6b66","countryCode":"CU","state":"5000f81c-f5a3-4078-9b16-5d8da98f48f2","stateCode":"09","latitude":"21.48802000","longitude":"-77.61033000"},{"id":"58e5d2c1-d3a4-4ff2-8c56-8c87f6cfd256","name":"Municipio de Florida","ru":"Municipio de Florida","country":"4275d761-beaf-443f-86ec-183950ce6b66","countryCode":"CU","state":"5000f81c-f5a3-4078-9b16-5d8da98f48f2","stateCode":"09","latitude":"21.46582000","longitude":"-78.34848000"},{"id":"67332f27-9fee-4759-8d72-69bd2b114f80","name":"Municipio de Nuevitas","ru":"Municipio de Nuevitas","country":"4275d761-beaf-443f-86ec-183950ce6b66","countryCode":"CU","state":"5000f81c-f5a3-4078-9b16-5d8da98f48f2","stateCode":"09","latitude":"21.55000000","longitude":"-77.26667000"},{"id":"a71088d4-7aed-402b-955f-5a5499064223","name":"Nuevitas","ru":"Nuevitas","country":"4275d761-beaf-443f-86ec-183950ce6b66","countryCode":"CU","state":"5000f81c-f5a3-4078-9b16-5d8da98f48f2","stateCode":"09","latitude":"21.54585000","longitude":"-77.26504000"},{"id":"593035ac-613a-471b-8a5a-9918d1a8613b","name":"Santa Cruz del Sur","ru":"Santa Cruz del Sur","country":"4275d761-beaf-443f-86ec-183950ce6b66","countryCode":"CU","state":"5000f81c-f5a3-4078-9b16-5d8da98f48f2","stateCode":"09","latitude":"20.71633000","longitude":"-77.99816000"},{"id":"5d44c00e-08f6-4f8b-9467-9fef5ae70f49","name":"Sibanicú","ru":"Sibanicú","country":"4275d761-beaf-443f-86ec-183950ce6b66","countryCode":"CU","state":"5000f81c-f5a3-4078-9b16-5d8da98f48f2","stateCode":"09","latitude":"21.23631000","longitude":"-77.52561000"},{"id":"8515da78-770b-480c-a625-c49b2e907afa","name":"Vertientes","ru":"Vertientes","country":"4275d761-beaf-443f-86ec-183950ce6b66","countryCode":"CU","state":"5000f81c-f5a3-4078-9b16-5d8da98f48f2","stateCode":"09","latitude":"21.25817000","longitude":"-78.14979000"},{"id":"36211849-67a7-48e2-a01a-d1c03465228d","name":"Baraguá","ru":"Baraguá","country":"4275d761-beaf-443f-86ec-183950ce6b66","countryCode":"CU","state":"154e29cc-146e-4666-9afc-35ff24dbf698","stateCode":"08","latitude":"21.68216000","longitude":"-78.62567000"},{"id":"a792ace9-5429-424a-8674-df0596eefac7","name":"Chambas","ru":"Chambas","country":"4275d761-beaf-443f-86ec-183950ce6b66","countryCode":"CU","state":"154e29cc-146e-4666-9afc-35ff24dbf698","stateCode":"08","latitude":"22.19534000","longitude":"-78.91230000"},{"id":"5e1578b0-f11d-4abf-86b5-025dd1cf1e0e","name":"Ciego de Ávila","ru":"Ciego de Ávila","country":"4275d761-beaf-443f-86ec-183950ce6b66","countryCode":"CU","state":"154e29cc-146e-4666-9afc-35ff24dbf698","stateCode":"08","latitude":"21.84000000","longitude":"-78.76194000"},{"id":"5144c6bb-2b2b-4e18-8fc9-8cb49766a3dc","name":"Ciro Redondo","ru":"Ciro Redondo","country":"4275d761-beaf-443f-86ec-183950ce6b66","countryCode":"CU","state":"154e29cc-146e-4666-9afc-35ff24dbf698","stateCode":"08","latitude":"22.01921000","longitude":"-78.70365000"},{"id":"9332a797-8fa9-42c8-a87b-352298c00b21","name":"Florencia","ru":"Florencia","country":"4275d761-beaf-443f-86ec-183950ce6b66","countryCode":"CU","state":"154e29cc-146e-4666-9afc-35ff24dbf698","stateCode":"08","latitude":"22.14610000","longitude":"-78.97328000"},{"id":"a79ec5fe-9851-48dd-807f-acade8305783","name":"Morón","ru":"Morón","country":"4275d761-beaf-443f-86ec-183950ce6b66","countryCode":"CU","state":"154e29cc-146e-4666-9afc-35ff24dbf698","stateCode":"08","latitude":"22.10774000","longitude":"-78.62667000"},{"id":"b118a4e7-7b52-40ef-a62c-ddffa06cfc8b","name":"Municipio de Ciego de Ávila","ru":"Municipio de Ciego de Ávila","country":"4275d761-beaf-443f-86ec-183950ce6b66","countryCode":"CU","state":"154e29cc-146e-4666-9afc-35ff24dbf698","stateCode":"08","latitude":"21.85000000","longitude":"-78.76667000"},{"id":"c3a0a930-7ca6-431d-bfb2-f68b3f451744","name":"Municipio de Morón","ru":"Municipio de Morón","country":"4275d761-beaf-443f-86ec-183950ce6b66","countryCode":"CU","state":"154e29cc-146e-4666-9afc-35ff24dbf698","stateCode":"08","latitude":"22.29980000","longitude":"-78.56875000"},{"id":"a6f07729-a7e9-4d16-92e3-17d635258e60","name":"Primero de Enero","ru":"Primero de Enero","country":"4275d761-beaf-443f-86ec-183950ce6b66","countryCode":"CU","state":"154e29cc-146e-4666-9afc-35ff24dbf698","stateCode":"08","latitude":"21.94501000","longitude":"-78.43130000"},{"id":"f710ce94-8728-4f8b-af7a-ed35d5aa875a","name":"Venezuela","ru":"Venezuela","country":"4275d761-beaf-443f-86ec-183950ce6b66","countryCode":"CU","state":"154e29cc-146e-4666-9afc-35ff24dbf698","stateCode":"08","latitude":"21.73748000","longitude":"-78.79336000"},{"id":"5b6ce42f-64f5-45e6-8818-9cba29405058","name":"Abreus","ru":"Abreus","country":"4275d761-beaf-443f-86ec-183950ce6b66","countryCode":"CU","state":"70183170-7418-4ae9-9d3a-7d93ba582252","stateCode":"06","latitude":"22.27797000","longitude":"-80.56931000"},{"id":"669c6ca2-2059-4876-8368-81165383c331","name":"Aguada de Pasajeros","ru":"Aguada de Pasajeros","country":"4275d761-beaf-443f-86ec-183950ce6b66","countryCode":"CU","state":"70183170-7418-4ae9-9d3a-7d93ba582252","stateCode":"06","latitude":"22.38520000","longitude":"-80.84792000"},{"id":"5ef8a037-e5d4-4584-a926-1ad4b4625543","name":"Cienfuegos","ru":"Cienfuegos","country":"4275d761-beaf-443f-86ec-183950ce6b66","countryCode":"CU","state":"70183170-7418-4ae9-9d3a-7d93ba582252","stateCode":"06","latitude":"22.14957000","longitude":"-80.44662000"},{"id":"c110fb75-285a-43ef-96f4-f5962241bf39","name":"Cruces","ru":"Cruces","country":"4275d761-beaf-443f-86ec-183950ce6b66","countryCode":"CU","state":"70183170-7418-4ae9-9d3a-7d93ba582252","stateCode":"06","latitude":"22.34203000","longitude":"-80.27021000"},{"id":"4d6e1f81-9ebe-4157-bf3e-56f05288d16b","name":"Cumanayagua","ru":"Cumanayagua","country":"4275d761-beaf-443f-86ec-183950ce6b66","countryCode":"CU","state":"70183170-7418-4ae9-9d3a-7d93ba582252","stateCode":"06","latitude":"22.15247000","longitude":"-80.20354000"},{"id":"39dafe7f-8c75-4ee6-a51d-844d80776228","name":"Lajas","ru":"Lajas","country":"4275d761-beaf-443f-86ec-183950ce6b66","countryCode":"CU","state":"70183170-7418-4ae9-9d3a-7d93ba582252","stateCode":"06","latitude":"22.41479000","longitude":"-80.29310000"},{"id":"9c5e1fcf-3efc-421b-9299-f35aab5cefc2","name":"Municipio de Abreus","ru":"Municipio de Abreus","country":"4275d761-beaf-443f-86ec-183950ce6b66","countryCode":"CU","state":"70183170-7418-4ae9-9d3a-7d93ba582252","stateCode":"06","latitude":"22.19229000","longitude":"-80.71465000"},{"id":"50316da7-51fd-42ef-8b9d-73f5df1078b1","name":"Municipio de Cienfuegos","ru":"Municipio de Cienfuegos","country":"4275d761-beaf-443f-86ec-183950ce6b66","countryCode":"CU","state":"70183170-7418-4ae9-9d3a-7d93ba582252","stateCode":"06","latitude":"22.15000000","longitude":"-80.45000000"},{"id":"23bd7c37-4e7c-49f0-8a0c-ab0d50bf519e","name":"Palmira","ru":"Palmira","country":"4275d761-beaf-443f-86ec-183950ce6b66","countryCode":"CU","state":"70183170-7418-4ae9-9d3a-7d93ba582252","stateCode":"06","latitude":"22.24126000","longitude":"-80.39110000"},{"id":"0392f44e-8eb5-4bb0-a91f-e8ee9d27eb78","name":"Rodas","ru":"Rodas","country":"4275d761-beaf-443f-86ec-183950ce6b66","countryCode":"CU","state":"70183170-7418-4ae9-9d3a-7d93ba582252","stateCode":"06","latitude":"22.34184000","longitude":"-80.55596000"},{"id":"80ab1752-a5d6-41bd-a859-baf527cb1a4d","name":"Bartolomé Masó","ru":"Bartolomé Masó","country":"4275d761-beaf-443f-86ec-183950ce6b66","countryCode":"CU","state":"c14d50dd-b59e-4dc9-93c2-6b574873a450","stateCode":"12","latitude":"20.16635000","longitude":"-76.94291000"},{"id":"50fb62f4-6540-4f4c-badb-3afe062a7201","name":"Bayamo","ru":"Bayamo","country":"4275d761-beaf-443f-86ec-183950ce6b66","countryCode":"CU","state":"c14d50dd-b59e-4dc9-93c2-6b574873a450","stateCode":"12","latitude":"20.37417000","longitude":"-76.64361000"},{"id":"5c7cba84-a49d-44a3-9c94-e5a263a40149","name":"Campechuela","ru":"Campechuela","country":"4275d761-beaf-443f-86ec-183950ce6b66","countryCode":"CU","state":"c14d50dd-b59e-4dc9-93c2-6b574873a450","stateCode":"12","latitude":"20.23329000","longitude":"-77.27990000"},{"id":"a4fffc36-fe57-4664-9d80-79e44075d7c8","name":"Cauto Cristo","ru":"Cauto Cristo","country":"4275d761-beaf-443f-86ec-183950ce6b66","countryCode":"CU","state":"c14d50dd-b59e-4dc9-93c2-6b574873a450","stateCode":"12","latitude":"20.55709000","longitude":"-76.47270000"},{"id":"d21e6de1-90bb-47d6-a9c5-bf59a5e4de80","name":"Guisa","ru":"Guisa","country":"4275d761-beaf-443f-86ec-183950ce6b66","countryCode":"CU","state":"c14d50dd-b59e-4dc9-93c2-6b574873a450","stateCode":"12","latitude":"20.25494000","longitude":"-76.53930000"},{"id":"707ffa9c-712f-4a3b-bce0-fa44d2eb982c","name":"Jiguaní","ru":"Jiguaní","country":"4275d761-beaf-443f-86ec-183950ce6b66","countryCode":"CU","state":"c14d50dd-b59e-4dc9-93c2-6b574873a450","stateCode":"12","latitude":"20.36785000","longitude":"-76.42741000"},{"id":"c0a4ca58-937c-4e4d-aff8-243d2f182b84","name":"Manzanillo","ru":"Manzanillo","country":"4275d761-beaf-443f-86ec-183950ce6b66","countryCode":"CU","state":"c14d50dd-b59e-4dc9-93c2-6b574873a450","stateCode":"12","latitude":"20.34173000","longitude":"-77.12126000"},{"id":"9cfb24a3-fd49-4a8f-ab78-511499447fdf","name":"Media Luna","ru":"Media Luna","country":"4275d761-beaf-443f-86ec-183950ce6b66","countryCode":"CU","state":"c14d50dd-b59e-4dc9-93c2-6b574873a450","stateCode":"12","latitude":"20.14298000","longitude":"-77.43532000"},{"id":"6f444c53-1d42-4b59-8725-645bcc0e42c1","name":"Municipio de Bayamo","ru":"Municipio de Bayamo","country":"4275d761-beaf-443f-86ec-183950ce6b66","countryCode":"CU","state":"c14d50dd-b59e-4dc9-93c2-6b574873a450","stateCode":"12","latitude":"20.42511000","longitude":"-76.68614000"},{"id":"ca77fe78-c35f-4a4f-ad16-4b0d234db5cb","name":"Municipio de Manzanillo","ru":"Municipio de Manzanillo","country":"4275d761-beaf-443f-86ec-183950ce6b66","countryCode":"CU","state":"c14d50dd-b59e-4dc9-93c2-6b574873a450","stateCode":"12","latitude":"20.24732000","longitude":"-77.10273000"},{"id":"c6e91009-9e01-47e5-a78b-10fe9f5858de","name":"Municipio de Niquero","ru":"Municipio de Niquero","country":"4275d761-beaf-443f-86ec-183950ce6b66","countryCode":"CU","state":"c14d50dd-b59e-4dc9-93c2-6b574873a450","stateCode":"12","latitude":"19.93912000","longitude":"-77.57085000"},{"id":"6d60e388-7fb7-4898-9ffe-439bb6bb2179","name":"Niquero","ru":"Niquero","country":"4275d761-beaf-443f-86ec-183950ce6b66","countryCode":"CU","state":"c14d50dd-b59e-4dc9-93c2-6b574873a450","stateCode":"12","latitude":"20.04698000","longitude":"-77.58089000"},{"id":"f3344649-9195-42e2-b52e-c980996a7dc8","name":"Río Cauto","ru":"Río Cauto","country":"4275d761-beaf-443f-86ec-183950ce6b66","countryCode":"CU","state":"c14d50dd-b59e-4dc9-93c2-6b574873a450","stateCode":"12","latitude":"20.55971000","longitude":"-76.91673000"},{"id":"fc5114c8-3445-4611-817c-c2a8a8cfdf4f","name":"Yara","ru":"Yara","country":"4275d761-beaf-443f-86ec-183950ce6b66","countryCode":"CU","state":"c14d50dd-b59e-4dc9-93c2-6b574873a450","stateCode":"12","latitude":"20.27465000","longitude":"-76.95132000"},{"id":"aaa94a8d-4132-47e0-88e1-6e3f524e3874","name":"Baracoa","ru":"Baracoa","country":"4275d761-beaf-443f-86ec-183950ce6b66","countryCode":"CU","state":"8bd32cd6-fe69-4322-b3cc-83f8ac532e5d","stateCode":"14","latitude":"20.34711000","longitude":"-74.49624000"},{"id":"5d64839a-ea5f-4984-8162-2182d2246ef0","name":"Guantánamo","ru":"Guantánamo","country":"4275d761-beaf-443f-86ec-183950ce6b66","countryCode":"CU","state":"8bd32cd6-fe69-4322-b3cc-83f8ac532e5d","stateCode":"14","latitude":"20.14444000","longitude":"-75.20917000"},{"id":"da2a7c38-6cd2-4f74-bb74-78b65320c43f","name":"Maisí","ru":"Maisí","country":"4275d761-beaf-443f-86ec-183950ce6b66","countryCode":"CU","state":"8bd32cd6-fe69-4322-b3cc-83f8ac532e5d","stateCode":"14","latitude":"20.24673000","longitude":"-74.15181000"},{"id":"5a5fb3b6-4b31-4352-a92f-f10c247fe774","name":"Municipio de Guantánamo","ru":"Municipio de Guantánamo","country":"4275d761-beaf-443f-86ec-183950ce6b66","countryCode":"CU","state":"8bd32cd6-fe69-4322-b3cc-83f8ac532e5d","stateCode":"14","latitude":"20.26723000","longitude":"-75.15546000"},{"id":"f1be6b9b-fa50-4673-9e8c-6a72415deb3d","name":"Río Guayabal de Yateras","ru":"Río Guayabal de Yateras","country":"4275d761-beaf-443f-86ec-183950ce6b66","countryCode":"CU","state":"8bd32cd6-fe69-4322-b3cc-83f8ac532e5d","stateCode":"14","latitude":"20.36667000","longitude":"-75.01667000"},{"id":"ee81e903-d211-4e6a-b277-39431ec494af","name":"San Antonio del Sur","ru":"San Antonio del Sur","country":"4275d761-beaf-443f-86ec-183950ce6b66","countryCode":"CU","state":"8bd32cd6-fe69-4322-b3cc-83f8ac532e5d","stateCode":"14","latitude":"20.05564000","longitude":"-74.80750000"},{"id":"49bcb633-b0eb-4630-bd97-626c500984e0","name":"Alamar","ru":"Alamar","country":"4275d761-beaf-443f-86ec-183950ce6b66","countryCode":"CU","state":"a3d9b9d1-a648-4f93-b40b-5245a067fc54","stateCode":"03","latitude":"23.15794000","longitude":"-82.27837000"},{"id":"430e8fde-dc55-4aa8-899d-7278270a36d8","name":"Arroyo Naranjo","ru":"Arroyo Naranjo","country":"4275d761-beaf-443f-86ec-183950ce6b66","countryCode":"CU","state":"a3d9b9d1-a648-4f93-b40b-5245a067fc54","stateCode":"03","latitude":"23.03677000","longitude":"-82.36937000"},{"id":"7b0df70c-3ebb-4378-9757-9f5faa1b1268","name":"Boyeros","ru":"Boyeros","country":"4275d761-beaf-443f-86ec-183950ce6b66","countryCode":"CU","state":"a3d9b9d1-a648-4f93-b40b-5245a067fc54","stateCode":"03","latitude":"23.00720000","longitude":"-82.40170000"},{"id":"dd35cc8a-d863-46e5-acf6-7706ecdce611","name":"Centro Habana","ru":"Centro Habana","country":"4275d761-beaf-443f-86ec-183950ce6b66","countryCode":"CU","state":"a3d9b9d1-a648-4f93-b40b-5245a067fc54","stateCode":"03","latitude":"23.13833000","longitude":"-82.36417000"},{"id":"76a1bf96-1326-41b6-a22f-f9fd554128df","name":"Cerro","ru":"Cerro","country":"4275d761-beaf-443f-86ec-183950ce6b66","countryCode":"CU","state":"a3d9b9d1-a648-4f93-b40b-5245a067fc54","stateCode":"03","latitude":"23.10861000","longitude":"-82.37778000"},{"id":"f0b26998-11dd-468f-988d-d276bc66d972","name":"Diez de Octubre","ru":"Diez de Octubre","country":"4275d761-beaf-443f-86ec-183950ce6b66","countryCode":"CU","state":"a3d9b9d1-a648-4f93-b40b-5245a067fc54","stateCode":"03","latitude":"23.08810000","longitude":"-82.35970000"},{"id":"c47d048d-1740-4e9f-98fa-7fbb64e719fe","name":"Guanabacoa","ru":"Guanabacoa","country":"4275d761-beaf-443f-86ec-183950ce6b66","countryCode":"CU","state":"a3d9b9d1-a648-4f93-b40b-5245a067fc54","stateCode":"03","latitude":"23.12360000","longitude":"-82.30082000"},{"id":"523b5b2e-af7a-49fd-91e6-cb5bcb8100e7","name":"Habana del Este","ru":"Habana del Este","country":"4275d761-beaf-443f-86ec-183950ce6b66","countryCode":"CU","state":"a3d9b9d1-a648-4f93-b40b-5245a067fc54","stateCode":"03","latitude":"23.15917000","longitude":"-82.33056000"},{"id":"d3834a77-19bb-4b8f-b19f-5149fbf7f95d","name":"Havana","ru":"Havana","country":"4275d761-beaf-443f-86ec-183950ce6b66","countryCode":"CU","state":"a3d9b9d1-a648-4f93-b40b-5245a067fc54","stateCode":"03","latitude":"23.13302000","longitude":"-82.38304000"},{"id":"03d34628-1d35-40bc-942e-83703ad6d524","name":"La Habana Vieja","ru":"La Habana Vieja","country":"4275d761-beaf-443f-86ec-183950ce6b66","countryCode":"CU","state":"a3d9b9d1-a648-4f93-b40b-5245a067fc54","stateCode":"03","latitude":"23.13028000","longitude":"-82.35306000"},{"id":"3b822f29-7f0b-4170-9ffc-463e4ffc5e89","name":"Regla","ru":"Regla","country":"4275d761-beaf-443f-86ec-183950ce6b66","countryCode":"CU","state":"a3d9b9d1-a648-4f93-b40b-5245a067fc54","stateCode":"03","latitude":"23.12500000","longitude":"-82.33194000"},{"id":"42c810ba-9694-43e2-961b-86b3c170f540","name":"San Miguel del Padrón","ru":"San Miguel del Padrón","country":"4275d761-beaf-443f-86ec-183950ce6b66","countryCode":"CU","state":"a3d9b9d1-a648-4f93-b40b-5245a067fc54","stateCode":"03","latitude":"23.06639000","longitude":"-82.29472000"},{"id":"7a2a127b-4402-426f-8f02-5f5e9396296e","name":"Santiago de las Vegas","ru":"Santiago de las Vegas","country":"4275d761-beaf-443f-86ec-183950ce6b66","countryCode":"CU","state":"a3d9b9d1-a648-4f93-b40b-5245a067fc54","stateCode":"03","latitude":"22.97000000","longitude":"-82.38694000"},{"id":"58dbde2e-55a5-4900-b43f-9cfb3580a8e0","name":"Banes","ru":"Banes","country":"4275d761-beaf-443f-86ec-183950ce6b66","countryCode":"CU","state":"743a8b94-138b-4e86-87f6-7c51cdeb557f","stateCode":"11","latitude":"20.96116000","longitude":"-75.72200000"},{"id":"0797b26a-dd79-4a37-a84e-60736f6b672a","name":"Cacocum","ru":"Cacocum","country":"4275d761-beaf-443f-86ec-183950ce6b66","countryCode":"CU","state":"743a8b94-138b-4e86-87f6-7c51cdeb557f","stateCode":"11","latitude":"20.73775000","longitude":"-76.32574000"},{"id":"ac7acf57-1c33-4856-95e9-399435bf6a9a","name":"Cueto","ru":"Cueto","country":"4275d761-beaf-443f-86ec-183950ce6b66","countryCode":"CU","state":"743a8b94-138b-4e86-87f6-7c51cdeb557f","stateCode":"11","latitude":"20.64855000","longitude":"-75.92967000"},{"id":"c5355591-9d0f-4541-b31d-9bd7a2d1e43a","name":"Gibara","ru":"Gibara","country":"4275d761-beaf-443f-86ec-183950ce6b66","countryCode":"CU","state":"743a8b94-138b-4e86-87f6-7c51cdeb557f","stateCode":"11","latitude":"21.10988000","longitude":"-76.13145000"},{"id":"a51864e2-5712-4adc-a644-c5e0e6b1fca6","name":"Holguín","ru":"Holguín","country":"4275d761-beaf-443f-86ec-183950ce6b66","countryCode":"CU","state":"743a8b94-138b-4e86-87f6-7c51cdeb557f","stateCode":"11","latitude":"20.88722000","longitude":"-76.26306000"},{"id":"a23868be-c43e-4438-9342-df0bccf7eca0","name":"Jobabo","ru":"Jobabo","country":"4275d761-beaf-443f-86ec-183950ce6b66","countryCode":"CU","state":"743a8b94-138b-4e86-87f6-7c51cdeb557f","stateCode":"11","latitude":"20.96917000","longitude":"-76.29944000"},{"id":"d53e65b8-2788-4c26-a981-28efd8d7edef","name":"Moa","ru":"Moa","country":"4275d761-beaf-443f-86ec-183950ce6b66","countryCode":"CU","state":"743a8b94-138b-4e86-87f6-7c51cdeb557f","stateCode":"11","latitude":"20.65776000","longitude":"-74.95075000"},{"id":"2300533f-49b3-46f2-b78e-c1a86b5441a8","name":"Municipio de Banes","ru":"Municipio de Banes","country":"4275d761-beaf-443f-86ec-183950ce6b66","countryCode":"CU","state":"743a8b94-138b-4e86-87f6-7c51cdeb557f","stateCode":"11","latitude":"20.98008000","longitude":"-75.74933000"},{"id":"8bd6fdbb-afd3-4b6c-b979-c8669cfb492a","name":"Municipio de Holguín","ru":"Municipio de Holguín","country":"4275d761-beaf-443f-86ec-183950ce6b66","countryCode":"CU","state":"743a8b94-138b-4e86-87f6-7c51cdeb557f","stateCode":"11","latitude":"20.91192000","longitude":"-76.27057000"},{"id":"0c85cf55-1ff4-4933-8c9c-797065e0dd43","name":"Sagua de Tánamo","ru":"Sagua de Tánamo","country":"4275d761-beaf-443f-86ec-183950ce6b66","countryCode":"CU","state":"743a8b94-138b-4e86-87f6-7c51cdeb557f","stateCode":"11","latitude":"20.58269000","longitude":"-75.24116000"},{"id":"77820b76-1e22-4f99-b680-4f96679aaedd","name":"San Germán","ru":"San Germán","country":"4275d761-beaf-443f-86ec-183950ce6b66","countryCode":"CU","state":"743a8b94-138b-4e86-87f6-7c51cdeb557f","stateCode":"11","latitude":"20.60009000","longitude":"-76.13364000"},{"id":"b592f58c-667b-4e0d-a35b-e083f69a69de","name":"Nueva Gerona","ru":"Nueva Gerona","country":"4275d761-beaf-443f-86ec-183950ce6b66","countryCode":"CU","state":"08e2cdf2-0e60-408a-acad-72a8e163415f","stateCode":"99","latitude":"21.88667000","longitude":"-82.80556000"},{"id":"a8898dc5-9775-4b7f-9b5c-f164e0b62ec2","name":"Amancio","ru":"Amancio","country":"4275d761-beaf-443f-86ec-183950ce6b66","countryCode":"CU","state":"68687d34-20b9-4754-8d68-c6f7ea76c639","stateCode":"10","latitude":"20.81914000","longitude":"-77.57958000"},{"id":"e2fa039d-be5d-4c3f-9055-fc6c3fce9de0","name":"Colombia","ru":"Colombia","country":"4275d761-beaf-443f-86ec-183950ce6b66","countryCode":"CU","state":"68687d34-20b9-4754-8d68-c6f7ea76c639","stateCode":"10","latitude":"20.98812000","longitude":"-77.42598000"},{"id":"eb350e4f-589f-4bd2-a144-abe244daa8eb","name":"Jesús Menéndez","ru":"Jesús Menéndez","country":"4275d761-beaf-443f-86ec-183950ce6b66","countryCode":"CU","state":"68687d34-20b9-4754-8d68-c6f7ea76c639","stateCode":"10","latitude":"21.16139000","longitude":"-76.47919000"},{"id":"4d179162-cbde-46a1-acc8-5e13fd779eb3","name":"Jobabo","ru":"Jobabo","country":"4275d761-beaf-443f-86ec-183950ce6b66","countryCode":"CU","state":"68687d34-20b9-4754-8d68-c6f7ea76c639","stateCode":"10","latitude":"20.90748000","longitude":"-77.28194000"},{"id":"4a236e2e-1f0f-475b-8364-0dfd4d51a9b6","name":"Las Tunas","ru":"Las Tunas","country":"4275d761-beaf-443f-86ec-183950ce6b66","countryCode":"CU","state":"68687d34-20b9-4754-8d68-c6f7ea76c639","stateCode":"10","latitude":"20.96167000","longitude":"-76.95111000"},{"id":"ad85f880-67f4-4f2a-a18d-b6d8e0913cb2","name":"Manatí","ru":"Manatí","country":"4275d761-beaf-443f-86ec-183950ce6b66","countryCode":"CU","state":"68687d34-20b9-4754-8d68-c6f7ea76c639","stateCode":"10","latitude":"21.31070000","longitude":"-76.93403000"},{"id":"b2f0e901-d635-433c-90ce-cfd281f7a679","name":"Puerto Padre","ru":"Puerto Padre","country":"4275d761-beaf-443f-86ec-183950ce6b66","countryCode":"CU","state":"68687d34-20b9-4754-8d68-c6f7ea76c639","stateCode":"10","latitude":"21.19517000","longitude":"-76.60358000"},{"id":"ad81458c-150c-443e-8afc-960d92458b74","name":"Alacranes","ru":"Alacranes","country":"4275d761-beaf-443f-86ec-183950ce6b66","countryCode":"CU","state":"14b8386f-a1a2-4bf7-b8e7-9b2eedcbde88","stateCode":"04","latitude":"22.76719000","longitude":"-81.56803000"},{"id":"bd27203c-48ba-4c8d-acab-05eb19cc5301","name":"Bolondrón","ru":"Bolondrón","country":"4275d761-beaf-443f-86ec-183950ce6b66","countryCode":"CU","state":"14b8386f-a1a2-4bf7-b8e7-9b2eedcbde88","stateCode":"04","latitude":"22.76307000","longitude":"-81.44780000"},{"id":"f7b87acb-1ec3-4c73-b722-e168743b7e18","name":"Calimete","ru":"Calimete","country":"4275d761-beaf-443f-86ec-183950ce6b66","countryCode":"CU","state":"14b8386f-a1a2-4bf7-b8e7-9b2eedcbde88","stateCode":"04","latitude":"22.53420000","longitude":"-80.91105000"},{"id":"43a4cb00-1575-47c8-9f8f-6b504235a902","name":"Cárdenas","ru":"Cárdenas","country":"4275d761-beaf-443f-86ec-183950ce6b66","countryCode":"CU","state":"14b8386f-a1a2-4bf7-b8e7-9b2eedcbde88","stateCode":"04","latitude":"23.03661000","longitude":"-81.20596000"},{"id":"b574e77e-7c19-48ff-8abd-d86f0abe2662","name":"Colón","ru":"Colón","country":"4275d761-beaf-443f-86ec-183950ce6b66","countryCode":"CU","state":"14b8386f-a1a2-4bf7-b8e7-9b2eedcbde88","stateCode":"04","latitude":"22.72064000","longitude":"-80.90492000"},{"id":"d0a16caf-2eb8-4cfe-b1fd-5289e3f6318c","name":"Jagüey Grande","ru":"Jagüey Grande","country":"4275d761-beaf-443f-86ec-183950ce6b66","countryCode":"CU","state":"14b8386f-a1a2-4bf7-b8e7-9b2eedcbde88","stateCode":"04","latitude":"22.52694000","longitude":"-81.12861000"},{"id":"362e3e61-d00b-4bd7-8c8d-a2e5a7868ee3","name":"Jovellanos","ru":"Jovellanos","country":"4275d761-beaf-443f-86ec-183950ce6b66","countryCode":"CU","state":"14b8386f-a1a2-4bf7-b8e7-9b2eedcbde88","stateCode":"04","latitude":"22.80375000","longitude":"-81.19127000"},{"id":"b561b41c-3748-46f8-b3ae-e7554af9f719","name":"Limonar","ru":"Limonar","country":"4275d761-beaf-443f-86ec-183950ce6b66","countryCode":"CU","state":"14b8386f-a1a2-4bf7-b8e7-9b2eedcbde88","stateCode":"04","latitude":"22.95035000","longitude":"-81.41059000"},{"id":"e4d419d6-175f-4621-a589-07b374a59dba","name":"Los Arabos","ru":"Los Arabos","country":"4275d761-beaf-443f-86ec-183950ce6b66","countryCode":"CU","state":"14b8386f-a1a2-4bf7-b8e7-9b2eedcbde88","stateCode":"04","latitude":"22.72969000","longitude":"-80.72081000"},{"id":"7639559a-9e67-48ec-b745-ed124cce8f13","name":"Manguito","ru":"Manguito","country":"4275d761-beaf-443f-86ec-183950ce6b66","countryCode":"CU","state":"14b8386f-a1a2-4bf7-b8e7-9b2eedcbde88","stateCode":"04","latitude":"22.58733000","longitude":"-80.91451000"},{"id":"47bad48f-8a99-4141-97d3-c319f98dd530","name":"Martí","ru":"Martí","country":"4275d761-beaf-443f-86ec-183950ce6b66","countryCode":"CU","state":"14b8386f-a1a2-4bf7-b8e7-9b2eedcbde88","stateCode":"04","latitude":"22.94714000","longitude":"-80.91902000"},{"id":"7df10482-daec-4a68-ba3b-edb98b224142","name":"Matanzas","ru":"Matanzas","country":"4275d761-beaf-443f-86ec-183950ce6b66","countryCode":"CU","state":"14b8386f-a1a2-4bf7-b8e7-9b2eedcbde88","stateCode":"04","latitude":"23.04111000","longitude":"-81.57750000"},{"id":"41857ed4-760c-4276-bb72-c6917c364a2c","name":"Municipio de Cárdenas","ru":"Municipio de Cárdenas","country":"4275d761-beaf-443f-86ec-183950ce6b66","countryCode":"CU","state":"14b8386f-a1a2-4bf7-b8e7-9b2eedcbde88","stateCode":"04","latitude":"22.98978000","longitude":"-81.23520000"},{"id":"1b2148b8-6f4a-4bd2-a121-957237fb97e4","name":"Municipio de Matanzas","ru":"Municipio de Matanzas","country":"4275d761-beaf-443f-86ec-183950ce6b66","countryCode":"CU","state":"14b8386f-a1a2-4bf7-b8e7-9b2eedcbde88","stateCode":"04","latitude":"23.05000000","longitude":"-81.58333000"},{"id":"696313cd-5ba7-4bff-b6e4-5eed30a60a87","name":"Pedro Betancourt","ru":"Pedro Betancourt","country":"4275d761-beaf-443f-86ec-183950ce6b66","countryCode":"CU","state":"14b8386f-a1a2-4bf7-b8e7-9b2eedcbde88","stateCode":"04","latitude":"22.72709000","longitude":"-81.28963000"},{"id":"fbe82886-17e3-4f39-90b1-2e0a812fd655","name":"Perico","ru":"Perico","country":"4275d761-beaf-443f-86ec-183950ce6b66","countryCode":"CU","state":"14b8386f-a1a2-4bf7-b8e7-9b2eedcbde88","stateCode":"04","latitude":"22.76987000","longitude":"-81.01830000"},{"id":"a992ab3f-050b-4faf-94bb-8f70602eb3be","name":"Unión de Reyes","ru":"Unión de Reyes","country":"4275d761-beaf-443f-86ec-183950ce6b66","countryCode":"CU","state":"14b8386f-a1a2-4bf7-b8e7-9b2eedcbde88","stateCode":"04","latitude":"22.79505000","longitude":"-81.53617000"},{"id":"52c7c8a8-13de-4b14-a884-d29ce89e08b1","name":"Varadero","ru":"Varadero","country":"4275d761-beaf-443f-86ec-183950ce6b66","countryCode":"CU","state":"14b8386f-a1a2-4bf7-b8e7-9b2eedcbde88","stateCode":"04","latitude":"23.15678000","longitude":"-81.24441000"},{"id":"375d0e19-21ae-40a1-b1d8-cad68ed14c3f","name":"Batabanó","ru":"Batabanó","country":"4275d761-beaf-443f-86ec-183950ce6b66","countryCode":"CU","state":"506db537-e7b1-4a59-8218-47e324114f71","stateCode":"16","latitude":"22.71794000","longitude":"-82.28965000"},{"id":"525be19d-05ef-4336-ba63-1c4192e03058","name":"Bejucal","ru":"Bejucal","country":"4275d761-beaf-443f-86ec-183950ce6b66","countryCode":"CU","state":"506db537-e7b1-4a59-8218-47e324114f71","stateCode":"16","latitude":"22.92861000","longitude":"-82.38861000"},{"id":"117958f6-89af-4f18-980a-2a1ad1023fd2","name":"Güines","ru":"Güines","country":"4275d761-beaf-443f-86ec-183950ce6b66","countryCode":"CU","state":"506db537-e7b1-4a59-8218-47e324114f71","stateCode":"16","latitude":"22.83727000","longitude":"-82.02641000"},{"id":"e72bac75-7666-457b-8f24-5e7dfde2f98a","name":"Jamaica","ru":"Jamaica","country":"4275d761-beaf-443f-86ec-183950ce6b66","countryCode":"CU","state":"506db537-e7b1-4a59-8218-47e324114f71","stateCode":"16","latitude":"22.97559000","longitude":"-82.16852000"},{"id":"cd38ad94-13ee-417d-a80f-68db050cf343","name":"Jaruco","ru":"Jaruco","country":"4275d761-beaf-443f-86ec-183950ce6b66","countryCode":"CU","state":"506db537-e7b1-4a59-8218-47e324114f71","stateCode":"16","latitude":"23.04419000","longitude":"-82.00919000"},{"id":"c8920b36-7f20-4a0f-a9b0-089572e1e844","name":"La Salud","ru":"La Salud","country":"4275d761-beaf-443f-86ec-183950ce6b66","countryCode":"CU","state":"506db537-e7b1-4a59-8218-47e324114f71","stateCode":"16","latitude":"22.87199000","longitude":"-82.42328000"},{"id":"68229eb9-9cdb-4d62-9645-5cc807bfe96f","name":"Madruga","ru":"Madruga","country":"4275d761-beaf-443f-86ec-183950ce6b66","countryCode":"CU","state":"506db537-e7b1-4a59-8218-47e324114f71","stateCode":"16","latitude":"22.91000000","longitude":"-81.85639000"},{"id":"69dd4c81-09ef-41cb-b2cb-49bd28feb9f8","name":"Municipio de Güines","ru":"Municipio de Güines","country":"4275d761-beaf-443f-86ec-183950ce6b66","countryCode":"CU","state":"506db537-e7b1-4a59-8218-47e324114f71","stateCode":"16","latitude":"22.78712000","longitude":"-82.01602000"},{"id":"0d09f4f9-1568-466a-96c9-8ef3e736b377","name":"Municipio de Melena del Sur","ru":"Municipio de Melena del Sur","country":"4275d761-beaf-443f-86ec-183950ce6b66","countryCode":"CU","state":"506db537-e7b1-4a59-8218-47e324114f71","stateCode":"16","latitude":"22.78821000","longitude":"-82.15113000"},{"id":"7336ae1a-d177-49db-8c65-7adbb275c738","name":"Quivicán","ru":"Quivicán","country":"4275d761-beaf-443f-86ec-183950ce6b66","countryCode":"CU","state":"506db537-e7b1-4a59-8218-47e324114f71","stateCode":"16","latitude":"22.82313000","longitude":"-82.35558000"},{"id":"426c7e37-c37e-40ed-a4f7-19994b087403","name":"San José de las Lajas","ru":"San José de las Lajas","country":"4275d761-beaf-443f-86ec-183950ce6b66","countryCode":"CU","state":"506db537-e7b1-4a59-8218-47e324114f71","stateCode":"16","latitude":"22.96139000","longitude":"-82.15111000"},{"id":"689de35f-ab5b-4b48-9fe3-1fe482e02702","name":"San Nicolás de Bari","ru":"San Nicolás de Bari","country":"4275d761-beaf-443f-86ec-183950ce6b66","countryCode":"CU","state":"506db537-e7b1-4a59-8218-47e324114f71","stateCode":"16","latitude":"22.78444000","longitude":"-81.91333000"},{"id":"55952857-287a-40df-b704-6d5a3521bbad","name":"Santa Cruz del Norte","ru":"Santa Cruz del Norte","country":"4275d761-beaf-443f-86ec-183950ce6b66","countryCode":"CU","state":"506db537-e7b1-4a59-8218-47e324114f71","stateCode":"16","latitude":"23.15424000","longitude":"-81.92556000"},{"id":"9bafab84-0ad2-4be6-b419-c88dfe842a69","name":"Consolación del Sur","ru":"Consolación del Sur","country":"4275d761-beaf-443f-86ec-183950ce6b66","countryCode":"CU","state":"b213e80e-7a08-46ba-b805-8636950bfdd1","stateCode":"01","latitude":"22.50419000","longitude":"-83.51442000"},{"id":"c01fb154-747a-4e1f-9a1e-b65d3e91f0d9","name":"Guane","ru":"Guane","country":"4275d761-beaf-443f-86ec-183950ce6b66","countryCode":"CU","state":"b213e80e-7a08-46ba-b805-8636950bfdd1","stateCode":"01","latitude":"22.20179000","longitude":"-84.08484000"},{"id":"f0069bc2-9b67-4447-a4b3-460a84f7c683","name":"Los Palacios","ru":"Los Palacios","country":"4275d761-beaf-443f-86ec-183950ce6b66","countryCode":"CU","state":"b213e80e-7a08-46ba-b805-8636950bfdd1","stateCode":"01","latitude":"22.58882000","longitude":"-83.24671000"},{"id":"accef8b5-d735-4584-8552-ec4252d646cd","name":"Mantua","ru":"Mantua","country":"4275d761-beaf-443f-86ec-183950ce6b66","countryCode":"CU","state":"b213e80e-7a08-46ba-b805-8636950bfdd1","stateCode":"01","latitude":"22.29058000","longitude":"-84.28599000"},{"id":"d26d2fe6-6dad-44b2-ba36-3927e77c637d","name":"Minas de Matahambre","ru":"Minas de Matahambre","country":"4275d761-beaf-443f-86ec-183950ce6b66","countryCode":"CU","state":"b213e80e-7a08-46ba-b805-8636950bfdd1","stateCode":"01","latitude":"22.58691000","longitude":"-83.94551000"},{"id":"d6d5e088-a7e1-47b7-b4a9-a08fcc80dcb8","name":"Municipio de Consolación del Sur","ru":"Municipio de Consolación del Sur","country":"4275d761-beaf-443f-86ec-183950ce6b66","countryCode":"CU","state":"b213e80e-7a08-46ba-b805-8636950bfdd1","stateCode":"01","latitude":"22.44095000","longitude":"-83.41985000"},{"id":"84d75786-0455-4645-8401-3a91470e0f80","name":"Municipio de Guane","ru":"Municipio de Guane","country":"4275d761-beaf-443f-86ec-183950ce6b66","countryCode":"CU","state":"b213e80e-7a08-46ba-b805-8636950bfdd1","stateCode":"01","latitude":"22.24591000","longitude":"-84.03660000"},{"id":"7516331e-a994-43ee-b073-e456e71aca39","name":"Municipio de La Palma","ru":"Municipio de La Palma","country":"4275d761-beaf-443f-86ec-183950ce6b66","countryCode":"CU","state":"b213e80e-7a08-46ba-b805-8636950bfdd1","stateCode":"01","latitude":"22.75000000","longitude":"-83.55000000"},{"id":"33b17ee0-15dd-4d84-b979-529e6efdf2bd","name":"Municipio de Los Palacios","ru":"Municipio de Los Palacios","country":"4275d761-beaf-443f-86ec-183950ce6b66","countryCode":"CU","state":"b213e80e-7a08-46ba-b805-8636950bfdd1","stateCode":"01","latitude":"22.58333000","longitude":"-83.25000000"},{"id":"fb1df78a-f7ba-4003-ac38-fdbc530493ee","name":"Pinar del Río","ru":"Pinar del Río","country":"4275d761-beaf-443f-86ec-183950ce6b66","countryCode":"CU","state":"b213e80e-7a08-46ba-b805-8636950bfdd1","stateCode":"01","latitude":"22.41667000","longitude":"-83.69667000"},{"id":"278690d0-2c06-4015-bd8e-c1c5a1b607fc","name":"Puerto Esperanza","ru":"Puerto Esperanza","country":"4275d761-beaf-443f-86ec-183950ce6b66","countryCode":"CU","state":"b213e80e-7a08-46ba-b805-8636950bfdd1","stateCode":"01","latitude":"22.77041000","longitude":"-83.73138000"},{"id":"b9570b98-aec7-4b7d-b02e-c2eaa531b3ee","name":"San Diego de Los Baños","ru":"San Diego de Los Baños","country":"4275d761-beaf-443f-86ec-183950ce6b66","countryCode":"CU","state":"b213e80e-7a08-46ba-b805-8636950bfdd1","stateCode":"01","latitude":"22.64667000","longitude":"-83.36972000"},{"id":"5705640a-fbea-47c0-b44c-c313e4508e4c","name":"San Luis","ru":"San Luis","country":"4275d761-beaf-443f-86ec-183950ce6b66","countryCode":"CU","state":"b213e80e-7a08-46ba-b805-8636950bfdd1","stateCode":"01","latitude":"22.27898000","longitude":"-83.75956000"},{"id":"fd61f73a-0df9-47e1-afe9-c8eeb02cccbe","name":"Viñales","ru":"Viñales","country":"4275d761-beaf-443f-86ec-183950ce6b66","countryCode":"CU","state":"b213e80e-7a08-46ba-b805-8636950bfdd1","stateCode":"01","latitude":"22.61892000","longitude":"-83.70694000"},{"id":"6b0768ce-81e5-421b-8d87-f1232e3c254a","name":"Cabaiguán","ru":"Cabaiguán","country":"4275d761-beaf-443f-86ec-183950ce6b66","countryCode":"CU","state":"158bcbf8-07a3-4f68-a2a3-6e06d5f2dcf4","stateCode":"07","latitude":"22.07874000","longitude":"-79.49726000"},{"id":"dffd3004-195d-47c9-a565-a72a5b5869e3","name":"Condado","ru":"Condado","country":"4275d761-beaf-443f-86ec-183950ce6b66","countryCode":"CU","state":"158bcbf8-07a3-4f68-a2a3-6e06d5f2dcf4","stateCode":"07","latitude":"21.87670000","longitude":"-79.84014000"},{"id":"d18a782d-3c17-4483-ad76-3a3272615fbe","name":"Fomento","ru":"Fomento","country":"4275d761-beaf-443f-86ec-183950ce6b66","countryCode":"CU","state":"158bcbf8-07a3-4f68-a2a3-6e06d5f2dcf4","stateCode":"07","latitude":"22.10475000","longitude":"-79.72141000"},{"id":"105304a4-4e56-44fe-92bb-0a48a5fb897e","name":"Guayos","ru":"Guayos","country":"4275d761-beaf-443f-86ec-183950ce6b66","countryCode":"CU","state":"158bcbf8-07a3-4f68-a2a3-6e06d5f2dcf4","stateCode":"07","latitude":"22.04956000","longitude":"-79.46106000"},{"id":"23cc2133-1a7d-4ad6-bc31-c1958b4a1dd1","name":"Jatibonico","ru":"Jatibonico","country":"4275d761-beaf-443f-86ec-183950ce6b66","countryCode":"CU","state":"158bcbf8-07a3-4f68-a2a3-6e06d5f2dcf4","stateCode":"07","latitude":"21.94333000","longitude":"-79.16906000"},{"id":"b733fb19-ca80-4f7e-9e53-5f93b742a078","name":"La Sierpe","ru":"La Sierpe","country":"4275d761-beaf-443f-86ec-183950ce6b66","countryCode":"CU","state":"158bcbf8-07a3-4f68-a2a3-6e06d5f2dcf4","stateCode":"07","latitude":"21.77241000","longitude":"-79.26832000"},{"id":"7a93b9b7-63d8-4421-ab39-b99a453bddea","name":"Municipio de Cabaiguán","ru":"Municipio de Cabaiguán","country":"4275d761-beaf-443f-86ec-183950ce6b66","countryCode":"CU","state":"158bcbf8-07a3-4f68-a2a3-6e06d5f2dcf4","stateCode":"07","latitude":"22.08333000","longitude":"-79.50000000"},{"id":"528d37df-e61b-449e-b6ac-f84838946dbe","name":"Municipio de Jatibonico","ru":"Municipio de Jatibonico","country":"4275d761-beaf-443f-86ec-183950ce6b66","countryCode":"CU","state":"158bcbf8-07a3-4f68-a2a3-6e06d5f2dcf4","stateCode":"07","latitude":"21.93333000","longitude":"-79.16667000"},{"id":"856211fd-4154-4ca3-bcc9-e3b1823a5b18","name":"Municipio de Sancti Spíritus","ru":"Municipio de Sancti Spíritus","country":"4275d761-beaf-443f-86ec-183950ce6b66","countryCode":"CU","state":"158bcbf8-07a3-4f68-a2a3-6e06d5f2dcf4","stateCode":"07","latitude":"21.82176000","longitude":"-79.51036000"},{"id":"9fe1a407-2899-479e-91fc-c56f6b108bde","name":"Municipio de Trinidad","ru":"Municipio de Trinidad","country":"4275d761-beaf-443f-86ec-183950ce6b66","countryCode":"CU","state":"158bcbf8-07a3-4f68-a2a3-6e06d5f2dcf4","stateCode":"07","latitude":"21.83195000","longitude":"-79.88362000"},{"id":"15b99db9-495e-4119-bee7-0d6da9abc3eb","name":"Sancti Spíritus","ru":"Sancti Spíritus","country":"4275d761-beaf-443f-86ec-183950ce6b66","countryCode":"CU","state":"158bcbf8-07a3-4f68-a2a3-6e06d5f2dcf4","stateCode":"07","latitude":"21.92972000","longitude":"-79.44250000"},{"id":"abafa812-3f75-4e24-b9dc-a5b558f7649e","name":"Topes de Collantes","ru":"Topes de Collantes","country":"4275d761-beaf-443f-86ec-183950ce6b66","countryCode":"CU","state":"158bcbf8-07a3-4f68-a2a3-6e06d5f2dcf4","stateCode":"07","latitude":"21.91524000","longitude":"-80.01929000"},{"id":"e3325b1b-2bb6-44ab-9f00-174a10669510","name":"Trinidad","ru":"Trinidad","country":"4275d761-beaf-443f-86ec-183950ce6b66","countryCode":"CU","state":"158bcbf8-07a3-4f68-a2a3-6e06d5f2dcf4","stateCode":"07","latitude":"21.80224000","longitude":"-79.98467000"},{"id":"35d50008-70ee-4017-9aa6-a184a269f19f","name":"Yaguajay","ru":"Yaguajay","country":"4275d761-beaf-443f-86ec-183950ce6b66","countryCode":"CU","state":"158bcbf8-07a3-4f68-a2a3-6e06d5f2dcf4","stateCode":"07","latitude":"22.32691000","longitude":"-79.23567000"},{"id":"0bc136cb-e924-44b1-a318-00c019ffa66d","name":"Zaza del Medio","ru":"Zaza del Medio","country":"4275d761-beaf-443f-86ec-183950ce6b66","countryCode":"CU","state":"158bcbf8-07a3-4f68-a2a3-6e06d5f2dcf4","stateCode":"07","latitude":"21.99712000","longitude":"-79.36678000"},{"id":"99ed6171-d1a1-40a3-9fd4-84d2ed6ce02a","name":"Contramaestre","ru":"Contramaestre","country":"4275d761-beaf-443f-86ec-183950ce6b66","countryCode":"CU","state":"1691b3c4-6425-4601-9eb5-9500dc06b177","stateCode":"13","latitude":"20.29879000","longitude":"-76.24511000"},{"id":"3cf68859-3e5a-4425-9c28-cec0156f2869","name":"El Cobre","ru":"El Cobre","country":"4275d761-beaf-443f-86ec-183950ce6b66","countryCode":"CU","state":"1691b3c4-6425-4601-9eb5-9500dc06b177","stateCode":"13","latitude":"20.04850000","longitude":"-75.94579000"},{"id":"42893131-0cef-4049-8e53-00ae1ec8e20b","name":"Municipio de Palma Soriano","ru":"Municipio de Palma Soriano","country":"4275d761-beaf-443f-86ec-183950ce6b66","countryCode":"CU","state":"1691b3c4-6425-4601-9eb5-9500dc06b177","stateCode":"13","latitude":"20.20897000","longitude":"-76.05776000"},{"id":"54c7a32a-91d1-4601-9552-77e54f81f046","name":"Municipio de Santiago de Cuba","ru":"Municipio de Santiago de Cuba","country":"4275d761-beaf-443f-86ec-183950ce6b66","countryCode":"CU","state":"1691b3c4-6425-4601-9eb5-9500dc06b177","stateCode":"13","latitude":"20.00617000","longitude":"-75.70816000"},{"id":"1a199b67-8f62-4e4c-9f0c-d06dd1cb791d","name":"Palma Soriano","ru":"Palma Soriano","country":"4275d761-beaf-443f-86ec-183950ce6b66","countryCode":"CU","state":"1691b3c4-6425-4601-9eb5-9500dc06b177","stateCode":"13","latitude":"20.21130000","longitude":"-75.99362000"},{"id":"4811a029-1d54-4881-ad62-20816cfab505","name":"San Luis","ru":"San Luis","country":"4275d761-beaf-443f-86ec-183950ce6b66","countryCode":"CU","state":"1691b3c4-6425-4601-9eb5-9500dc06b177","stateCode":"13","latitude":"20.18809000","longitude":"-75.85031000"},{"id":"7b42cb95-e511-479c-b47e-2142bec01ae0","name":"Santiago de Cuba","ru":"Santiago de Cuba","country":"4275d761-beaf-443f-86ec-183950ce6b66","countryCode":"CU","state":"1691b3c4-6425-4601-9eb5-9500dc06b177","stateCode":"13","latitude":"20.02083000","longitude":"-75.82667000"},{"id":"adafbc3a-3265-49da-a346-2ffa9bc82b3a","name":"Caibarién","ru":"Caibarién","country":"4275d761-beaf-443f-86ec-183950ce6b66","countryCode":"CU","state":"a14f3fcc-e321-4d16-86f6-1259319e126c","stateCode":"05","latitude":"22.51996000","longitude":"-79.46599000"},{"id":"f1693858-1d44-4a26-ab35-91bec5c68a2a","name":"Calabazar de Sagua","ru":"Calabazar de Sagua","country":"4275d761-beaf-443f-86ec-183950ce6b66","countryCode":"CU","state":"a14f3fcc-e321-4d16-86f6-1259319e126c","stateCode":"05","latitude":"22.64515000","longitude":"-79.89510000"},{"id":"5922e388-87c0-4a1c-9783-032b4a2c5590","name":"Camajuaní","ru":"Camajuaní","country":"4275d761-beaf-443f-86ec-183950ce6b66","countryCode":"CU","state":"a14f3fcc-e321-4d16-86f6-1259319e126c","stateCode":"05","latitude":"22.48333000","longitude":"-79.75000000"},{"id":"912b768e-0c38-4f51-ac7a-6e317bfbb50a","name":"Cifuentes","ru":"Cifuentes","country":"4275d761-beaf-443f-86ec-183950ce6b66","countryCode":"CU","state":"a14f3fcc-e321-4d16-86f6-1259319e126c","stateCode":"05","latitude":"22.64930000","longitude":"-80.04935000"},{"id":"4c43c9f7-7b88-48ce-83c4-49bd74935600","name":"Corralillo","ru":"Corralillo","country":"4275d761-beaf-443f-86ec-183950ce6b66","countryCode":"CU","state":"a14f3fcc-e321-4d16-86f6-1259319e126c","stateCode":"05","latitude":"22.98212000","longitude":"-80.58556000"},{"id":"781f5785-8489-46c7-ac3b-19dfc2844c9d","name":"Encrucijada","ru":"Encrucijada","country":"4275d761-beaf-443f-86ec-183950ce6b66","countryCode":"CU","state":"a14f3fcc-e321-4d16-86f6-1259319e126c","stateCode":"05","latitude":"22.61802000","longitude":"-79.86603000"},{"id":"15cc75b0-5792-49fd-81e3-94b7eda6bec3","name":"Esperanza","ru":"Esperanza","country":"4275d761-beaf-443f-86ec-183950ce6b66","countryCode":"CU","state":"a14f3fcc-e321-4d16-86f6-1259319e126c","stateCode":"05","latitude":"22.44680000","longitude":"-80.09711000"},{"id":"867e2332-829e-446d-80c0-266abea2c340","name":"Isabela de Sagua","ru":"Isabela de Sagua","country":"4275d761-beaf-443f-86ec-183950ce6b66","countryCode":"CU","state":"a14f3fcc-e321-4d16-86f6-1259319e126c","stateCode":"05","latitude":"22.93924000","longitude":"-80.01185000"},{"id":"a12f2dce-1730-46a8-81dc-bcf6591ce741","name":"Manicaragua","ru":"Manicaragua","country":"4275d761-beaf-443f-86ec-183950ce6b66","countryCode":"CU","state":"a14f3fcc-e321-4d16-86f6-1259319e126c","stateCode":"05","latitude":"22.15021000","longitude":"-79.97867000"},{"id":"c2986442-c665-42c5-900b-557b30ff1840","name":"Municipio de Placetas","ru":"Municipio de Placetas","country":"4275d761-beaf-443f-86ec-183950ce6b66","countryCode":"CU","state":"a14f3fcc-e321-4d16-86f6-1259319e126c","stateCode":"05","latitude":"22.22248000","longitude":"-79.74268000"},{"id":"ba972097-6e9b-49b2-a841-de70ee1ad65d","name":"Municipio de Santa Clara","ru":"Municipio de Santa Clara","country":"4275d761-beaf-443f-86ec-183950ce6b66","countryCode":"CU","state":"a14f3fcc-e321-4d16-86f6-1259319e126c","stateCode":"05","latitude":"22.40000000","longitude":"-79.96667000"},{"id":"5f7c0bd7-7b12-443e-988c-b3d334ceeffd","name":"Placetas","ru":"Placetas","country":"4275d761-beaf-443f-86ec-183950ce6b66","countryCode":"CU","state":"a14f3fcc-e321-4d16-86f6-1259319e126c","stateCode":"05","latitude":"22.31184000","longitude":"-79.65440000"},{"id":"2ce5fcbb-a105-4b2b-ace3-baa5cbc083b5","name":"Quemado de Güines","ru":"Quemado de Güines","country":"4275d761-beaf-443f-86ec-183950ce6b66","countryCode":"CU","state":"a14f3fcc-e321-4d16-86f6-1259319e126c","stateCode":"05","latitude":"22.78816000","longitude":"-80.25226000"},{"id":"afcad8b4-25eb-405f-bdd8-c021bf34c0e3","name":"Rancho Veloz","ru":"Rancho Veloz","country":"4275d761-beaf-443f-86ec-183950ce6b66","countryCode":"CU","state":"a14f3fcc-e321-4d16-86f6-1259319e126c","stateCode":"05","latitude":"22.88042000","longitude":"-80.39098000"},{"id":"aaa9ae70-bb2f-4d88-999b-e74bbc946562","name":"Ranchuelo","ru":"Ranchuelo","country":"4275d761-beaf-443f-86ec-183950ce6b66","countryCode":"CU","state":"a14f3fcc-e321-4d16-86f6-1259319e126c","stateCode":"05","latitude":"22.37266000","longitude":"-80.15046000"},{"id":"e01b5e06-ea6d-42fb-a7ed-5798b560473a","name":"Sagua la Grande","ru":"Sagua la Grande","country":"4275d761-beaf-443f-86ec-183950ce6b66","countryCode":"CU","state":"a14f3fcc-e321-4d16-86f6-1259319e126c","stateCode":"05","latitude":"22.80667000","longitude":"-80.07556000"},{"id":"593447f8-1b4c-48e6-ba25-8a05697de885","name":"Santa Clara","ru":"Santa Clara","country":"4275d761-beaf-443f-86ec-183950ce6b66","countryCode":"CU","state":"a14f3fcc-e321-4d16-86f6-1259319e126c","stateCode":"05","latitude":"22.40694000","longitude":"-79.96472000"},{"id":"b55db6a1-31ce-4c94-8ff7-2fdee7a18765","name":"Santo Domingo","ru":"Santo Domingo","country":"4275d761-beaf-443f-86ec-183950ce6b66","countryCode":"CU","state":"a14f3fcc-e321-4d16-86f6-1259319e126c","stateCode":"05","latitude":"22.58677000","longitude":"-80.24261000"}]