[{"id":"fa1e2476-a14a-42f7-b263-af509f2625df","name":"Ajdovščina","ru":"Ajdovščina","country":"651062fe-a702-44b9-a049-13b22129dd1e","countryCode":"SI","state":"bc97ddf4-7378-4524-813f-d7c66a19a648","stateCode":"001","latitude":"45.88601000","longitude":"13.90946000"},{"id":"d27a18cc-1787-4257-b7b4-2b803fa2f4e1","name":"Cirkulane","ru":"Cirkulane","country":"651062fe-a702-44b9-a049-13b22129dd1e","countryCode":"SI","state":"bc97ddf4-7378-4524-813f-d7c66a19a648","stateCode":"001","latitude":"46.34408000","longitude":"15.99472000"},{"id":"c57e94f7-1eaf-42ce-b4f4-d88b25de464c","name":"Lokavec","ru":"Lokavec","country":"651062fe-a702-44b9-a049-13b22129dd1e","countryCode":"SI","state":"bc97ddf4-7378-4524-813f-d7c66a19a648","stateCode":"001","latitude":"45.90167000","longitude":"13.87972000"},{"id":"c2c7c0e8-bc54-4de1-ad15-3516ba729c5e","name":"Ankaran","ru":"Ankaran","country":"651062fe-a702-44b9-a049-13b22129dd1e","countryCode":"SI","state":"877a0f05-5148-496e-839d-e2f8535aea19","stateCode":"213","latitude":"45.57861000","longitude":"13.73611000"},{"id":"38ac8597-cfa5-444e-9e37-e0ab4bed4749","name":"Šalovci","ru":"Šalovci","country":"651062fe-a702-44b9-a049-13b22129dd1e","countryCode":"SI","state":"26ef0a06-50d0-4705-974c-60ff0a6c0668","stateCode":"033","latitude":"46.82500000","longitude":"16.29806000"},{"id":"1b93ef44-f6ef-4005-ae7a-f02688c587be","name":"Šempeter pri Gorici","ru":"Šempeter pri Gorici","country":"651062fe-a702-44b9-a049-13b22129dd1e","countryCode":"SI","state":"dcb374cc-8be0-458f-9176-8b64b0445bd0","stateCode":"183","latitude":"45.92750000","longitude":"13.64111000"},{"id":"f1fb497d-de34-4681-80f0-54ac2d2cb913","name":"Rožna Dolina","ru":"Rožna Dolina","country":"651062fe-a702-44b9-a049-13b22129dd1e","countryCode":"SI","state":"dcb374cc-8be0-458f-9176-8b64b0445bd0","stateCode":"183","latitude":"45.94194000","longitude":"13.66779000"},{"id":"bc8c4058-e262-4c7c-939c-b4c02d56f2bc","name":"Vrtojba","ru":"Vrtojba","country":"651062fe-a702-44b9-a049-13b22129dd1e","countryCode":"SI","state":"dcb374cc-8be0-458f-9176-8b64b0445bd0","stateCode":"183","latitude":"45.91250000","longitude":"13.63417000"},{"id":"a4be1c94-4e4c-4762-bf03-19be865c0a39","name":"Šenčur","ru":"Šenčur","country":"651062fe-a702-44b9-a049-13b22129dd1e","countryCode":"SI","state":"d558ed6b-dad2-4ac5-b0fc-640ffc4c1551","stateCode":"117","latitude":"46.24556000","longitude":"14.41972000"},{"id":"85b20857-2316-4ded-81ba-0ad729c9bc1d","name":"Hrastje","ru":"Hrastje","country":"651062fe-a702-44b9-a049-13b22129dd1e","countryCode":"SI","state":"d558ed6b-dad2-4ac5-b0fc-640ffc4c1551","stateCode":"117","latitude":"46.21667000","longitude":"14.40000000"},{"id":"b9d4eba9-501c-4238-806c-5f6e59570788","name":"Šentilj v Slov. Goricah","ru":"Šentilj v Slov. Goricah","country":"651062fe-a702-44b9-a049-13b22129dd1e","countryCode":"SI","state":"262e4036-5098-4da7-ba4a-d3907911dbdd","stateCode":"118","latitude":"46.68167000","longitude":"15.64806000"},{"id":"1eef461a-5cc7-4dc0-a0ae-a1716b96ce4e","name":"Selnica ob Muri","ru":"Selnica ob Muri","country":"651062fe-a702-44b9-a049-13b22129dd1e","countryCode":"SI","state":"262e4036-5098-4da7-ba4a-d3907911dbdd","stateCode":"118","latitude":"46.68333000","longitude":"15.70000000"},{"id":"39fc5afb-8aa8-4d08-ae29-857ab0bc1403","name":"Šentjernej","ru":"Šentjernej","country":"651062fe-a702-44b9-a049-13b22129dd1e","countryCode":"SI","state":"0d7401cc-418e-43cd-96de-a3e37d98e401","stateCode":"119","latitude":"45.84000000","longitude":"15.33611000"},{"id":"594c8382-279c-4e3e-93c6-f0b9184f4afb","name":"Šentjur","ru":"Šentjur","country":"651062fe-a702-44b9-a049-13b22129dd1e","countryCode":"SI","state":"0be51b19-4cd6-4179-8fc6-00643c962c26","stateCode":"120","latitude":"46.21722000","longitude":"15.39750000"},{"id":"dae8ae99-db13-4332-8bcb-0a437ae6ef0e","name":"Šentrupert","ru":"Šentrupert","country":"651062fe-a702-44b9-a049-13b22129dd1e","countryCode":"SI","state":"1c673c07-3b87-4325-bbc0-459d4ed26442","stateCode":"211","latitude":"45.97778000","longitude":"15.09556000"},{"id":"92a4dc9b-1422-4186-81cb-3f53e4c932c8","name":"Škocjan","ru":"Škocjan","country":"651062fe-a702-44b9-a049-13b22129dd1e","countryCode":"SI","state":"eafcb74b-b8e2-40ad-802c-c1742649c105","stateCode":"121","latitude":"45.90667000","longitude":"15.29139000"},{"id":"71fc1cfd-3a11-45f3-abe6-916c8e7cfc7d","name":"Škofja Loka","ru":"Škofja Loka","country":"651062fe-a702-44b9-a049-13b22129dd1e","countryCode":"SI","state":"678617e6-1281-4f7b-96b3-cb48159f0f84","stateCode":"122","latitude":"46.16551000","longitude":"14.30626000"},{"id":"16bd284f-7665-462b-bd31-1f9a82a68b6b","name":"Sv. Duh","ru":"Sv. Duh","country":"651062fe-a702-44b9-a049-13b22129dd1e","countryCode":"SI","state":"678617e6-1281-4f7b-96b3-cb48159f0f84","stateCode":"122","latitude":"46.18333000","longitude":"14.33333000"},{"id":"06401b2a-a5fa-48e1-a316-e0f2926f45b0","name":"Šmarje pri Jelšah","ru":"Šmarje pri Jelšah","country":"651062fe-a702-44b9-a049-13b22129dd1e","countryCode":"SI","state":"f3ffded8-5b82-4b57-a6a9-f1b86cbaf155","stateCode":"124","latitude":"46.22722000","longitude":"15.51917000"},{"id":"0a2f6193-8a8e-4d85-9bb8-e9d8a222241c","name":"Šmarjeta","ru":"Šmarjeta","country":"651062fe-a702-44b9-a049-13b22129dd1e","countryCode":"SI","state":"a8d622cd-1102-4c4c-aa62-edaca14034ca","stateCode":"206","latitude":"45.88333000","longitude":"15.25000000"},{"id":"66e29a88-3ca2-4cb3-ab10-fae0911cc5d4","name":"Šmartno ob Paki","ru":"Šmartno ob Paki","country":"651062fe-a702-44b9-a049-13b22129dd1e","countryCode":"SI","state":"315bc13d-86f9-45dd-afbd-cc726b59be10","stateCode":"125","latitude":"46.33333000","longitude":"15.03333000"},{"id":"71438564-0e6f-4c51-ae22-edfa925aaaa2","name":"Šmartno pri Litiji","ru":"Šmartno pri Litiji","country":"651062fe-a702-44b9-a049-13b22129dd1e","countryCode":"SI","state":"8ba289d9-f01f-4545-9959-8aa5f3808846","stateCode":"194","latitude":"46.04444000","longitude":"14.84417000"},{"id":"d04dba33-1222-4a88-9a7b-ad8854bb66e8","name":"Šoštanj","ru":"Šoštanj","country":"651062fe-a702-44b9-a049-13b22129dd1e","countryCode":"SI","state":"69088953-4b13-4bba-ad6e-f9e9f3730087","stateCode":"126","latitude":"46.38000000","longitude":"15.04861000"},{"id":"ededdd2a-220d-4c93-8fa7-4f3d43234f22","name":"Ravne","ru":"Ravne","country":"651062fe-a702-44b9-a049-13b22129dd1e","countryCode":"SI","state":"69088953-4b13-4bba-ad6e-f9e9f3730087","stateCode":"126","latitude":"46.41413000","longitude":"15.06087000"},{"id":"ba737393-4892-4b93-8f5c-c02371188300","name":"Topolšica","ru":"Topolšica","country":"651062fe-a702-44b9-a049-13b22129dd1e","countryCode":"SI","state":"69088953-4b13-4bba-ad6e-f9e9f3730087","stateCode":"126","latitude":"46.40028000","longitude":"15.02157000"},{"id":"32e02c36-9b98-4ac8-9b3c-9fb469033201","name":"Štore","ru":"Štore","country":"651062fe-a702-44b9-a049-13b22129dd1e","countryCode":"SI","state":"c3e9847c-a46a-4fbf-8dfd-8ce2a314b30d","stateCode":"127","latitude":"46.22083000","longitude":"15.31389000"},{"id":"5d0d6155-cd9f-4b30-b263-2d0b8f34b40b","name":"Šempeter v Savinj. Dolini","ru":"Šempeter v Savinj. Dolini","country":"651062fe-a702-44b9-a049-13b22129dd1e","countryCode":"SI","state":"c2aebed4-4aca-427e-a833-29ec6679c113","stateCode":"190","latitude":"46.25639000","longitude":"15.12194000"},{"id":"129633fc-a1f1-4057-b655-1ad797c52729","name":"Žalec","ru":"Žalec","country":"651062fe-a702-44b9-a049-13b22129dd1e","countryCode":"SI","state":"c2aebed4-4aca-427e-a833-29ec6679c113","stateCode":"190","latitude":"46.25151000","longitude":"15.16482000"},{"id":"a004f55e-24db-4a97-8e2a-91f005cb71eb","name":"Gotovlje","ru":"Gotovlje","country":"651062fe-a702-44b9-a049-13b22129dd1e","countryCode":"SI","state":"c2aebed4-4aca-427e-a833-29ec6679c113","stateCode":"190","latitude":"46.27418000","longitude":"15.15186000"},{"id":"3df26458-6286-4383-8a04-6e6a14f730ca","name":"Zabukovica","ru":"Zabukovica","country":"651062fe-a702-44b9-a049-13b22129dd1e","countryCode":"SI","state":"c2aebed4-4aca-427e-a833-29ec6679c113","stateCode":"190","latitude":"46.21408000","longitude":"15.15954000"},{"id":"f0e31488-a103-481d-8bcd-e0cecbd29615","name":"Železniki","ru":"Železniki","country":"651062fe-a702-44b9-a049-13b22129dd1e","countryCode":"SI","state":"b7dbd0d0-d100-4533-b051-4c9a1eb1092c","stateCode":"146","latitude":"46.22482000","longitude":"14.17205000"},{"id":"9a94c64e-c144-4771-86e9-c44e7e9b9012","name":"Žetale","ru":"Žetale","country":"651062fe-a702-44b9-a049-13b22129dd1e","countryCode":"SI","state":"88c6c8af-bc82-409f-8ff8-2dedcc0b2b5c","stateCode":"191","latitude":"46.27356000","longitude":"15.82658000"},{"id":"e1d9300b-0e57-4642-9ef2-8bfa79da8efc","name":"Žiri","ru":"Žiri","country":"651062fe-a702-44b9-a049-13b22129dd1e","countryCode":"SI","state":"0983208a-17b8-4fa9-b171-f2e33061c63d","stateCode":"147","latitude":"46.04222000","longitude":"14.10722000"},{"id":"f5d770c0-24d1-4d4e-ad27-f529bdd85f14","name":"Žirovnica","ru":"Žirovnica","country":"651062fe-a702-44b9-a049-13b22129dd1e","countryCode":"SI","state":"9abf44f9-b252-497b-8b5c-47190e338351","stateCode":"192","latitude":"46.40472000","longitude":"14.14000000"},{"id":"c9ada89b-b4dc-4505-9ff1-d44b58b599bf","name":"Žužemberk","ru":"Žužemberk","country":"651062fe-a702-44b9-a049-13b22129dd1e","countryCode":"SI","state":"d0e48bc8-1c0b-44cf-a445-3bec6b55b81a","stateCode":"193","latitude":"45.83389000","longitude":"14.92917000"},{"id":"fe44e24c-0cf4-4f68-a8e0-b0ecf15887aa","name":"Črenšovci","ru":"Črenšovci","country":"651062fe-a702-44b9-a049-13b22129dd1e","countryCode":"SI","state":"36f0cae9-7696-455c-929e-2f6e6e652c4f","stateCode":"015","latitude":"46.55794000","longitude":"16.30410000"},{"id":"d2fc9754-bfd7-40cf-a014-81db63351d3e","name":"Črna na Koroškem","ru":"Črna na Koroškem","country":"651062fe-a702-44b9-a049-13b22129dd1e","countryCode":"SI","state":"5444e77f-6016-48ee-89c0-92bbabfe4dbf","stateCode":"016","latitude":"46.47045000","longitude":"14.85009000"},{"id":"c90bd972-1b80-4858-81bd-3d96dadd4c93","name":"Črnomelj","ru":"Črnomelj","country":"651062fe-a702-44b9-a049-13b22129dd1e","countryCode":"SI","state":"b87a529b-2a13-4f4e-a076-96bb81a324cc","stateCode":"017","latitude":"45.57111000","longitude":"15.18889000"},{"id":"12a8cf19-99ac-4a9f-a60c-f96b97aad2ab","name":"Beltinci","ru":"Beltinci","country":"651062fe-a702-44b9-a049-13b22129dd1e","countryCode":"SI","state":"88c2bc04-94ca-4997-be75-44a7f75ae964","stateCode":"002","latitude":"46.60528000","longitude":"16.24056000"},{"id":"87b49448-1924-4932-8335-3f31ca40c8ed","name":"Gančani","ru":"Gančani","country":"651062fe-a702-44b9-a049-13b22129dd1e","countryCode":"SI","state":"88c2bc04-94ca-4997-be75-44a7f75ae964","stateCode":"002","latitude":"46.63250000","longitude":"16.25111000"},{"id":"2316827e-334d-4c8e-95f5-211af73e8aef","name":"Lipovci","ru":"Lipovci","country":"651062fe-a702-44b9-a049-13b22129dd1e","countryCode":"SI","state":"88c2bc04-94ca-4997-be75-44a7f75ae964","stateCode":"002","latitude":"46.62833000","longitude":"16.22806000"},{"id":"0e5942d0-31f2-4c3c-bc4f-f852d0ca1b1b","name":"Zgornje Gorje","ru":"Zgornje Gorje","country":"651062fe-a702-44b9-a049-13b22129dd1e","countryCode":"SI","state":"88c2bc04-94ca-4997-be75-44a7f75ae964","stateCode":"002","latitude":"46.37962000","longitude":"14.06937000"},{"id":"b89ee913-ecf7-41c6-a7b1-ac352cd7edb2","name":"Benedikt","ru":"Benedikt","country":"651062fe-a702-44b9-a049-13b22129dd1e","countryCode":"SI","state":"4bd19148-5e28-48d5-9961-515021d25890","stateCode":"148","latitude":"46.60861000","longitude":"15.88833000"},{"id":"1a16c28e-bcdd-4102-a9cf-b00eab202c15","name":"Bistrica ob Sotli","ru":"Bistrica ob Sotli","country":"651062fe-a702-44b9-a049-13b22129dd1e","countryCode":"SI","state":"dfe122d5-3dc7-450e-962c-711eb2b08f8c","stateCode":"149","latitude":"46.05889000","longitude":"15.66417000"},{"id":"27e86791-aa26-47cb-924c-79a36368c20f","name":"Bled","ru":"Bled","country":"651062fe-a702-44b9-a049-13b22129dd1e","countryCode":"SI","state":"bae0d2f3-8bfb-4b42-9a3c-19eeac9c7ea2","stateCode":"003","latitude":"46.36917000","longitude":"14.11361000"},{"id":"eda5eeb1-3ccc-4b75-aabf-88a9b7e8ed01","name":"Kostanjevica na Krki","ru":"Kostanjevica na Krki","country":"651062fe-a702-44b9-a049-13b22129dd1e","countryCode":"SI","state":"bae0d2f3-8bfb-4b42-9a3c-19eeac9c7ea2","stateCode":"003","latitude":"45.84611000","longitude":"15.42222000"},{"id":"1a55d67d-2131-4ec3-a8b5-05a8b39e134e","name":"Zasip","ru":"Zasip","country":"651062fe-a702-44b9-a049-13b22129dd1e","countryCode":"SI","state":"bae0d2f3-8bfb-4b42-9a3c-19eeac9c7ea2","stateCode":"003","latitude":"46.39284000","longitude":"14.10869000"},{"id":"3d896836-c156-4d39-9c6a-94932e57c55b","name":"Nova Vas","ru":"Nova Vas","country":"651062fe-a702-44b9-a049-13b22129dd1e","countryCode":"SI","state":"0ebd8f50-215c-4ceb-b908-575c6907d7a6","stateCode":"150","latitude":"45.77167000","longitude":"14.50583000"},{"id":"f930871e-d9d6-4117-a47e-0d46d20bab45","name":"Bohinjska Bistrica","ru":"Bohinjska Bistrica","country":"651062fe-a702-44b9-a049-13b22129dd1e","countryCode":"SI","state":"8b4d8784-fc6a-4b67-8cb8-9b363e6d6178","stateCode":"004","latitude":"46.27216000","longitude":"13.95350000"},{"id":"22918447-b884-4aad-94f7-445ab967cca2","name":"Dragomer","ru":"Dragomer","country":"651062fe-a702-44b9-a049-13b22129dd1e","countryCode":"SI","state":"8b4d8784-fc6a-4b67-8cb8-9b363e6d6178","stateCode":"004","latitude":"46.01667000","longitude":"14.38333000"},{"id":"2123f83d-fb70-486d-b5ad-9e551f13d340","name":"Log pri Brezovici","ru":"Log pri Brezovici","country":"651062fe-a702-44b9-a049-13b22129dd1e","countryCode":"SI","state":"8b4d8784-fc6a-4b67-8cb8-9b363e6d6178","stateCode":"004","latitude":"46.01667000","longitude":"14.36667000"},{"id":"e6ab5120-853f-422b-9bd2-7b926b3ae8c8","name":"Borovnica","ru":"Borovnica","country":"651062fe-a702-44b9-a049-13b22129dd1e","countryCode":"SI","state":"4e1dc6ae-d820-49c4-b201-529838b45b3e","stateCode":"005","latitude":"45.91583000","longitude":"14.36306000"},{"id":"619d2edb-edbe-4408-8963-5a35aceebc49","name":"Makole","ru":"Makole","country":"651062fe-a702-44b9-a049-13b22129dd1e","countryCode":"SI","state":"4e1dc6ae-d820-49c4-b201-529838b45b3e","stateCode":"005","latitude":"46.31722000","longitude":"15.66722000"},{"id":"562c450e-6f7b-47ee-b8f2-21027971b855","name":"Bovec","ru":"Bovec","country":"651062fe-a702-44b9-a049-13b22129dd1e","countryCode":"SI","state":"f24a0362-1471-4eb4-9883-7e90b010cfa4","stateCode":"006","latitude":"46.33808000","longitude":"13.55245000"},{"id":"6544c2b5-f23e-47a6-80bf-35a55cf5d37e","name":"Mirna","ru":"Mirna","country":"651062fe-a702-44b9-a049-13b22129dd1e","countryCode":"SI","state":"f24a0362-1471-4eb4-9883-7e90b010cfa4","stateCode":"006","latitude":"45.95528000","longitude":"15.06194000"},{"id":"09bf6b54-86e6-4f92-bf54-ecc51b35876f","name":"Braslovče","ru":"Braslovče","country":"651062fe-a702-44b9-a049-13b22129dd1e","countryCode":"SI","state":"54fa21f7-3c86-473b-9619-0d176012788e","stateCode":"151","latitude":"46.28972000","longitude":"15.03889000"},{"id":"d95386ad-7605-4aec-bbdf-8132585e1b77","name":"Dobrovo","ru":"Dobrovo","country":"651062fe-a702-44b9-a049-13b22129dd1e","countryCode":"SI","state":"b6e9d5ed-6fa7-4298-bb87-6852218ae7a5","stateCode":"007","latitude":"45.99639000","longitude":"13.52639000"},{"id":"1b9551c9-54f8-4f1f-a76d-d30153138c94","name":"Mokronog","ru":"Mokronog","country":"651062fe-a702-44b9-a049-13b22129dd1e","countryCode":"SI","state":"b6e9d5ed-6fa7-4298-bb87-6852218ae7a5","stateCode":"007","latitude":"45.93417000","longitude":"15.14083000"},{"id":"fa736e53-5b6f-429d-98ef-43d971e35772","name":"Brežice","ru":"Brežice","country":"651062fe-a702-44b9-a049-13b22129dd1e","countryCode":"SI","state":"80b67f21-b021-45bd-acc5-fa6ff75c2b25","stateCode":"009","latitude":"45.90333000","longitude":"15.59111000"},{"id":"d98b479a-71f6-4612-884d-07c17ef02167","name":"Poljčane","ru":"Poljčane","country":"651062fe-a702-44b9-a049-13b22129dd1e","countryCode":"SI","state":"80b67f21-b021-45bd-acc5-fa6ff75c2b25","stateCode":"009","latitude":"46.31194000","longitude":"15.57917000"},{"id":"c34870fc-8845-43ea-8f17-88bd46b76c21","name":"Brezovica pri Ljubljani","ru":"Brezovica pri Ljubljani","country":"651062fe-a702-44b9-a049-13b22129dd1e","countryCode":"SI","state":"076aa5b0-897c-4da4-89bc-583c4b39e735","stateCode":"008","latitude":"46.03333000","longitude":"14.40000000"},{"id":"11689f73-30c1-4194-a34c-3b27fc017966","name":"Notranje Gorice","ru":"Notranje Gorice","country":"651062fe-a702-44b9-a049-13b22129dd1e","countryCode":"SI","state":"076aa5b0-897c-4da4-89bc-583c4b39e735","stateCode":"008","latitude":"45.98750000","longitude":"14.39889000"},{"id":"2de4f22d-4825-44dd-a201-9dc93d90122b","name":"Opština Ljubljana-Vič-Rudnik","ru":"Opština Ljubljana-Vič-Rudnik","country":"651062fe-a702-44b9-a049-13b22129dd1e","countryCode":"SI","state":"076aa5b0-897c-4da4-89bc-583c4b39e735","stateCode":"008","latitude":"46.03333000","longitude":"14.41667000"},{"id":"d45f3390-9ff4-4622-8094-cc084c84c0f8","name":"Rečica ob Savinji","ru":"Rečica ob Savinji","country":"651062fe-a702-44b9-a049-13b22129dd1e","countryCode":"SI","state":"076aa5b0-897c-4da4-89bc-583c4b39e735","stateCode":"008","latitude":"46.31667000","longitude":"14.91667000"},{"id":"b8a0d710-8ae7-4a46-aa70-2caea92e7375","name":"Vnanje Gorice","ru":"Vnanje Gorice","country":"651062fe-a702-44b9-a049-13b22129dd1e","countryCode":"SI","state":"076aa5b0-897c-4da4-89bc-583c4b39e735","stateCode":"008","latitude":"46.00722000","longitude":"14.42194000"},{"id":"7009634d-99b7-4cd5-88fb-7b6cfe53f11a","name":"Cankova","ru":"Cankova","country":"651062fe-a702-44b9-a049-13b22129dd1e","countryCode":"SI","state":"18f430bf-1ddf-446b-91dc-73b3840d9b9c","stateCode":"152","latitude":"46.72083000","longitude":"16.02250000"},{"id":"e946d479-ba6a-4c56-a0a3-613596e87980","name":"Cerklje na Gorenjskem","ru":"Cerklje na Gorenjskem","country":"651062fe-a702-44b9-a049-13b22129dd1e","countryCode":"SI","state":"df6f3409-c6c2-47c2-af17-ffee024faad6","stateCode":"012","latitude":"46.25417000","longitude":"14.48861000"},{"id":"70a2fd47-e3b4-466d-98f0-fe5ce73a4b77","name":"Cerknica","ru":"Cerknica","country":"651062fe-a702-44b9-a049-13b22129dd1e","countryCode":"SI","state":"a08f41f8-9d8a-4e3d-ae09-4d80d57ded25","stateCode":"013","latitude":"45.79306000","longitude":"14.36250000"},{"id":"a71cc80e-ac04-404b-af3f-bb917b9b8d96","name":"Rakek","ru":"Rakek","country":"651062fe-a702-44b9-a049-13b22129dd1e","countryCode":"SI","state":"a08f41f8-9d8a-4e3d-ae09-4d80d57ded25","stateCode":"013","latitude":"45.81333000","longitude":"14.31111000"},{"id":"591fed55-f88e-415c-b2e6-afd3ac8dfb02","name":"Cerkno","ru":"Cerkno","country":"651062fe-a702-44b9-a049-13b22129dd1e","countryCode":"SI","state":"a5885340-ed49-47cd-ac47-4cc9a5f588b2","stateCode":"014","latitude":"46.12556000","longitude":"13.98167000"},{"id":"23af472a-1ccf-4233-91e0-b2058d61fc77","name":"Cerkvenjak","ru":"Cerkvenjak","country":"651062fe-a702-44b9-a049-13b22129dd1e","countryCode":"SI","state":"499f5673-39e1-40cb-8b4d-b530597e037d","stateCode":"153","latitude":"46.57056000","longitude":"15.94361000"},{"id":"f625e076-48f7-4d32-acc4-6616ebb9464c","name":"Celje","ru":"Celje","country":"651062fe-a702-44b9-a049-13b22129dd1e","countryCode":"SI","state":"f2ac7bfa-9fe4-4161-bb02-56272198a99b","stateCode":"011","latitude":"46.23092000","longitude":"15.26044000"},{"id":"617e6aa1-c4f4-4e76-864c-cb30206a75ab","name":"Ljubečna","ru":"Ljubečna","country":"651062fe-a702-44b9-a049-13b22129dd1e","countryCode":"SI","state":"f2ac7bfa-9fe4-4161-bb02-56272198a99b","stateCode":"011","latitude":"46.25567000","longitude":"15.32430000"},{"id":"aae658b0-140e-46c5-bc06-a9b15eea12fb","name":"Trnovlje pri Celju","ru":"Trnovlje pri Celju","country":"651062fe-a702-44b9-a049-13b22129dd1e","countryCode":"SI","state":"f2ac7bfa-9fe4-4161-bb02-56272198a99b","stateCode":"011","latitude":"46.25667000","longitude":"15.29528000"},{"id":"7180e606-f0b9-4a16-8f97-baf04f483205","name":"Novo Mesto","ru":"Novo Mesto","country":"651062fe-a702-44b9-a049-13b22129dd1e","countryCode":"SI","state":"88909a3f-3acf-47f9-b626-fe181b2f843d","stateCode":"085","latitude":"45.80397000","longitude":"15.16886000"},{"id":"dd94421e-4a07-458e-9cca-e16b57ab43e9","name":"Destrnik","ru":"Destrnik","country":"651062fe-a702-44b9-a049-13b22129dd1e","countryCode":"SI","state":"83684a70-7550-4381-8798-628d28e3f07a","stateCode":"018","latitude":"46.49254000","longitude":"15.87893000"},{"id":"34dd707c-c9fb-4329-ba52-d59a13f35457","name":"Divača","ru":"Divača","country":"651062fe-a702-44b9-a049-13b22129dd1e","countryCode":"SI","state":"2bfc9028-ac14-4839-87e2-76f57cda2375","stateCode":"019","latitude":"45.68472000","longitude":"13.97028000"},{"id":"218d66b2-c58e-4971-84fb-00b9382e2d5e","name":"Dobje pri Planini","ru":"Dobje pri Planini","country":"651062fe-a702-44b9-a049-13b22129dd1e","countryCode":"SI","state":"887b3443-1b4d-44e9-a28a-8c24b4db2a53","stateCode":"154","latitude":"46.13747000","longitude":"15.39412000"},{"id":"852fa243-c6ed-418e-a6fa-893d82e6b1b8","name":"Videm","ru":"Videm","country":"651062fe-a702-44b9-a049-13b22129dd1e","countryCode":"SI","state":"8b7dca04-4dc2-429d-ac25-420a08dff483","stateCode":"020","latitude":"45.85000000","longitude":"14.69417000"},{"id":"b9ad7030-1143-4361-a87b-7b6556201dbf","name":"Dobrna","ru":"Dobrna","country":"651062fe-a702-44b9-a049-13b22129dd1e","countryCode":"SI","state":"8a1d150b-de72-4665-8b98-dcdd7e6ea546","stateCode":"155","latitude":"46.33750000","longitude":"15.22639000"},{"id":"8c51ec3e-2183-4234-b59f-fd5a4a3c1bd7","name":"Dobrova","ru":"Dobrova","country":"651062fe-a702-44b9-a049-13b22129dd1e","countryCode":"SI","state":"086cdaf4-2d36-4029-87f0-ba7449a38522","stateCode":"021","latitude":"46.04580000","longitude":"14.39186000"},{"id":"17db9efe-61c1-4554-bdf0-2a01a41498b3","name":"Dobrovnik","ru":"Dobrovnik","country":"651062fe-a702-44b9-a049-13b22129dd1e","countryCode":"SI","state":"588e392a-d805-4058-8c84-ae0502a12f72","stateCode":"156","latitude":"46.65139000","longitude":"16.35250000"},{"id":"cff4611b-45c7-4d01-84b3-7e6cbdd3fe07","name":"Dol pri Ljubljani","ru":"Dol pri Ljubljani","country":"651062fe-a702-44b9-a049-13b22129dd1e","countryCode":"SI","state":"248bbe70-701d-4a86-b330-c6c157d3833c","stateCode":"022","latitude":"46.08861000","longitude":"14.60083000"},{"id":"fd69528d-c179-4853-be8f-3c2322a3465a","name":"Dolenjske Toplice","ru":"Dolenjske Toplice","country":"651062fe-a702-44b9-a049-13b22129dd1e","countryCode":"SI","state":"78736b6b-a7f7-4035-9ed7-d9059921cee7","stateCode":"157","latitude":"45.75657000","longitude":"15.05917000"},{"id":"1d18be3c-ca47-493a-9504-e72b1c57d447","name":"Dob","ru":"Dob","country":"651062fe-a702-44b9-a049-13b22129dd1e","countryCode":"SI","state":"c620125d-0648-4d68-809a-aff51b8c2b3a","stateCode":"023","latitude":"46.15194000","longitude":"14.62861000"},{"id":"3e7d6da8-2aba-4965-926b-f713bc8e8688","name":"Domžale","ru":"Domžale","country":"651062fe-a702-44b9-a049-13b22129dd1e","countryCode":"SI","state":"c620125d-0648-4d68-809a-aff51b8c2b3a","stateCode":"023","latitude":"46.13774000","longitude":"14.59371000"},{"id":"fed9fc47-c7d7-4763-840b-f296d2649f0a","name":"Radomlje","ru":"Radomlje","country":"651062fe-a702-44b9-a049-13b22129dd1e","countryCode":"SI","state":"c620125d-0648-4d68-809a-aff51b8c2b3a","stateCode":"023","latitude":"46.17361000","longitude":"14.61222000"},{"id":"43b27e89-3276-471e-ae50-4690260659cc","name":"Vir","ru":"Vir","country":"651062fe-a702-44b9-a049-13b22129dd1e","countryCode":"SI","state":"c620125d-0648-4d68-809a-aff51b8c2b3a","stateCode":"023","latitude":"46.15325000","longitude":"14.60741000"},{"id":"853d2d89-e28c-4f1e-9244-92b5a9032d56","name":"Dornava","ru":"Dornava","country":"651062fe-a702-44b9-a049-13b22129dd1e","countryCode":"SI","state":"295812a3-8ed1-41b7-a6e5-1de53dcd9e8f","stateCode":"024","latitude":"46.43667000","longitude":"15.95361000"},{"id":"c0942c60-21ff-4e7c-8799-821d5435c31c","name":"Dravograd","ru":"Dravograd","country":"651062fe-a702-44b9-a049-13b22129dd1e","countryCode":"SI","state":"0561f4a6-94de-4c93-89f6-b7ff636934e7","stateCode":"025","latitude":"46.58806000","longitude":"15.01917000"},{"id":"4c78ae77-2c4c-49aa-aacf-fe8a06171ffb","name":"Spodnji Duplek","ru":"Spodnji Duplek","country":"651062fe-a702-44b9-a049-13b22129dd1e","countryCode":"SI","state":"d651748f-a827-4b69-9286-502e43c7be4b","stateCode":"026","latitude":"46.50306000","longitude":"15.74528000"},{"id":"e6c94d63-96eb-449e-8cff-944df7300c43","name":"Zgornji Duplek","ru":"Zgornji Duplek","country":"651062fe-a702-44b9-a049-13b22129dd1e","countryCode":"SI","state":"d651748f-a827-4b69-9286-502e43c7be4b","stateCode":"026","latitude":"46.51361000","longitude":"15.72083000"},{"id":"650eaad5-7b84-4cf7-996a-ef2aa03e5ffe","name":"Gorenja Vas","ru":"Gorenja Vas","country":"651062fe-a702-44b9-a049-13b22129dd1e","countryCode":"SI","state":"e1c687d8-cce1-46e9-ad4f-648fae8f9719","stateCode":"027","latitude":"46.10722000","longitude":"14.14806000"},{"id":"4a1f4e90-a45f-488e-8ee0-4592bc760186","name":"Gorišnica","ru":"Gorišnica","country":"651062fe-a702-44b9-a049-13b22129dd1e","countryCode":"SI","state":"f00f6134-683d-48df-91b4-3b785b37c095","stateCode":"028","latitude":"46.41472000","longitude":"16.01389000"},{"id":"6e1bdaf2-3ae0-4e00-b8ed-96efb77a15a6","name":"Gornja Radgona","ru":"Gornja Radgona","country":"651062fe-a702-44b9-a049-13b22129dd1e","countryCode":"SI","state":"d9e5bc74-4802-4428-9711-dcec7f17b137","stateCode":"029","latitude":"46.67333000","longitude":"15.99222000"},{"id":"40e24d6d-0975-4e5f-b63c-531c49e0498f","name":"Gornji Grad","ru":"Gornji Grad","country":"651062fe-a702-44b9-a049-13b22129dd1e","countryCode":"SI","state":"9f8b98b0-47b6-47a8-93a9-f35174938761","stateCode":"030","latitude":"46.29528000","longitude":"14.80833000"},{"id":"04b9c869-5dbc-4133-be32-55f3672c4384","name":"Gornji Petrovci","ru":"Gornji Petrovci","country":"651062fe-a702-44b9-a049-13b22129dd1e","countryCode":"SI","state":"b7cdb63d-ef48-4031-becd-3f987800e87f","stateCode":"031","latitude":"46.80528000","longitude":"16.22250000"},{"id":"6e50ff58-bbf1-4d74-959a-60cd54d0fdd5","name":"Grad","ru":"Grad","country":"651062fe-a702-44b9-a049-13b22129dd1e","countryCode":"SI","state":"830418c8-e68c-4475-b1ef-dab8168c4c83","stateCode":"158","latitude":"46.80000000","longitude":"16.10000000"},{"id":"b6605b4b-9114-4fc1-8e78-843810e75833","name":"Šmarje-Sap","ru":"Šmarje-Sap","country":"651062fe-a702-44b9-a049-13b22129dd1e","countryCode":"SI","state":"4c994798-cac9-49a6-84ec-4e1a4f8f5998","stateCode":"032","latitude":"45.97618000","longitude":"14.61177000"},{"id":"3d867939-5fd1-41dd-b75c-0e9f0b297c1e","name":"Grosuplje","ru":"Grosuplje","country":"651062fe-a702-44b9-a049-13b22129dd1e","countryCode":"SI","state":"4c994798-cac9-49a6-84ec-4e1a4f8f5998","stateCode":"032","latitude":"45.95556000","longitude":"14.65889000"},{"id":"fca2df5e-9ef6-4a90-b7f6-934f752c84c6","name":"Spodnja Hajdina","ru":"Spodnja Hajdina","country":"651062fe-a702-44b9-a049-13b22129dd1e","countryCode":"SI","state":"1f86f032-4bfa-4e76-8366-40aa75132cd4","stateCode":"159","latitude":"46.40889000","longitude":"15.84694000"},{"id":"7cd0bc27-b938-4503-95ef-72893738c9ad","name":"Hotinja Vas","ru":"Hotinja Vas","country":"651062fe-a702-44b9-a049-13b22129dd1e","countryCode":"SI","state":"1067f415-b42a-4bc4-965b-e11f0c9d849c","stateCode":"160","latitude":"46.46667000","longitude":"15.66667000"},{"id":"db966c87-f91e-40c0-9744-9f957968ec23","name":"Radizel","ru":"Radizel","country":"651062fe-a702-44b9-a049-13b22129dd1e","countryCode":"SI","state":"1067f415-b42a-4bc4-965b-e11f0c9d849c","stateCode":"160","latitude":"46.47444000","longitude":"15.65583000"},{"id":"6773a04a-dc06-45cb-8aeb-c1166db85763","name":"Rogoza","ru":"Rogoza","country":"651062fe-a702-44b9-a049-13b22129dd1e","countryCode":"SI","state":"1067f415-b42a-4bc4-965b-e11f0c9d849c","stateCode":"160","latitude":"46.50000000","longitude":"15.68333000"},{"id":"ce828518-1e5a-4186-b3f2-2c01097d4f43","name":"Spodnje Hoče","ru":"Spodnje Hoče","country":"651062fe-a702-44b9-a049-13b22129dd1e","countryCode":"SI","state":"1067f415-b42a-4bc4-965b-e11f0c9d849c","stateCode":"160","latitude":"46.50000000","longitude":"15.65000000"},{"id":"3d516ec1-63bb-49e9-bf00-6790aae9e6f9","name":"Hodoš","ru":"Hodoš","country":"651062fe-a702-44b9-a049-13b22129dd1e","countryCode":"SI","state":"82cd0fab-a383-4c78-884d-1c3e1e53c3fb","stateCode":"161","latitude":"46.82333000","longitude":"16.33417000"},{"id":"3fa43884-bbc0-4a3e-8b04-5f94ee4429a7","name":"Horjul","ru":"Horjul","country":"651062fe-a702-44b9-a049-13b22129dd1e","countryCode":"SI","state":"fe514aed-4853-423c-ae4e-5728e836d65c","stateCode":"162","latitude":"46.02361000","longitude":"14.29917000"},{"id":"2c704c70-907c-443a-995a-4ee4c199565b","name":"Dol pri Hrastniku","ru":"Dol pri Hrastniku","country":"651062fe-a702-44b9-a049-13b22129dd1e","countryCode":"SI","state":"f42b276e-11c7-4f70-b9e1-39d5b6c0c3c7","stateCode":"034","latitude":"46.14194000","longitude":"15.11278000"},{"id":"01ad3762-bf85-4cd8-92a8-4cdd9c708331","name":"Hrastnik","ru":"Hrastnik","country":"651062fe-a702-44b9-a049-13b22129dd1e","countryCode":"SI","state":"f42b276e-11c7-4f70-b9e1-39d5b6c0c3c7","stateCode":"034","latitude":"46.14611000","longitude":"15.08139000"},{"id":"135b8efb-1174-4cc1-832e-f7f63a8e5df4","name":"Kozina","ru":"Kozina","country":"651062fe-a702-44b9-a049-13b22129dd1e","countryCode":"SI","state":"5bf951a3-9095-4aa1-8b93-7d718087104d","stateCode":"035","latitude":"45.61000000","longitude":"13.93556000"},{"id":"b21bc675-50f7-4ddd-b181-d05968b0a9a3","name":"Idrija","ru":"Idrija","country":"651062fe-a702-44b9-a049-13b22129dd1e","countryCode":"SI","state":"894e0c09-bb35-443c-b87a-8451d5d89c03","stateCode":"036","latitude":"46.00278000","longitude":"14.03056000"},{"id":"35d3cc48-794a-465c-97a7-21d94ae2a435","name":"Spodnja Idrija","ru":"Spodnja Idrija","country":"651062fe-a702-44b9-a049-13b22129dd1e","countryCode":"SI","state":"894e0c09-bb35-443c-b87a-8451d5d89c03","stateCode":"036","latitude":"46.03194000","longitude":"14.02722000"},{"id":"1d4963d1-956d-4f32-961b-9f8b16197b50","name":"Ig","ru":"Ig","country":"651062fe-a702-44b9-a049-13b22129dd1e","countryCode":"SI","state":"9bed6afd-4a44-433f-9594-7b6ef960a643","stateCode":"037","latitude":"45.96028000","longitude":"14.52889000"},{"id":"e1210325-b68a-4a54-b214-ba3ec10e332b","name":"Šentvid pri Stični","ru":"Šentvid pri Stični","country":"651062fe-a702-44b9-a049-13b22129dd1e","countryCode":"SI","state":"f84017ff-1320-41a7-a1c4-440797fd8205","stateCode":"039","latitude":"45.95004000","longitude":"14.84344000"},{"id":"665953e5-7385-4dba-8314-8bf9f8d0165f","name":"Ivančna Gorica","ru":"Ivančna Gorica","country":"651062fe-a702-44b9-a049-13b22129dd1e","countryCode":"SI","state":"f84017ff-1320-41a7-a1c4-440797fd8205","stateCode":"039","latitude":"45.93833000","longitude":"14.80444000"},{"id":"a34435a6-ef39-4fe3-a7e8-9d87945cca3e","name":"Izola","ru":"Izola","country":"651062fe-a702-44b9-a049-13b22129dd1e","countryCode":"SI","state":"1cc9c81c-d257-44de-86a2-c127bb2de262","stateCode":"040","latitude":"45.53694000","longitude":"13.66194000"},{"id":"6a04b93d-da60-425b-83c3-8f27a3e95997","name":"Jagodje","ru":"Jagodje","country":"651062fe-a702-44b9-a049-13b22129dd1e","countryCode":"SI","state":"1cc9c81c-d257-44de-86a2-c127bb2de262","stateCode":"040","latitude":"45.52845000","longitude":"13.64721000"},{"id":"1767d74b-4cf5-4b67-b6ba-3199bf100c3b","name":"Hrušica","ru":"Hrušica","country":"651062fe-a702-44b9-a049-13b22129dd1e","countryCode":"SI","state":"88fb5744-7655-4ea7-ae53-7be73acc30c2","stateCode":"041","latitude":"46.44500000","longitude":"14.01778000"},{"id":"15afb585-7a34-43d2-912e-9d07dab05097","name":"Jesenice","ru":"Jesenice","country":"651062fe-a702-44b9-a049-13b22129dd1e","countryCode":"SI","state":"88fb5744-7655-4ea7-ae53-7be73acc30c2","stateCode":"041","latitude":"46.43056000","longitude":"14.06694000"},{"id":"9873db60-9105-466d-b680-16810a339997","name":"Koroška Bela","ru":"Koroška Bela","country":"651062fe-a702-44b9-a049-13b22129dd1e","countryCode":"SI","state":"88fb5744-7655-4ea7-ae53-7be73acc30c2","stateCode":"041","latitude":"46.44913000","longitude":"14.11135000"},{"id":"dd15f31c-3ad4-4b4c-953b-aee358a505f9","name":"Slovenski Javornik","ru":"Slovenski Javornik","country":"651062fe-a702-44b9-a049-13b22129dd1e","countryCode":"SI","state":"88fb5744-7655-4ea7-ae53-7be73acc30c2","stateCode":"041","latitude":"46.42611000","longitude":"14.08722000"},{"id":"d716e715-8748-4af1-827c-c2159e9c5557","name":"Zgornje Jezersko","ru":"Zgornje Jezersko","country":"651062fe-a702-44b9-a049-13b22129dd1e","countryCode":"SI","state":"bf3bf3ba-810d-4ad7-97c7-f2508aad1549","stateCode":"163","latitude":"46.39410000","longitude":"14.50659000"},{"id":"e62d8a8e-6c2b-46a7-901a-8ac00e838991","name":"Juršinci","ru":"Juršinci","country":"651062fe-a702-44b9-a049-13b22129dd1e","countryCode":"SI","state":"c8b7ad55-4a45-49dc-a3c4-8c01ccf739e9","stateCode":"042","latitude":"46.48472000","longitude":"15.97139000"},{"id":"1b3aec5c-ff2f-4c06-8e42-1ac3e1c23ec5","name":"Šmarca","ru":"Šmarca","country":"651062fe-a702-44b9-a049-13b22129dd1e","countryCode":"SI","state":"84120bf7-17b3-4b1b-81aa-b8565092c3e2","stateCode":"043","latitude":"46.19333000","longitude":"14.59667000"},{"id":"4da5bf3b-6ca0-4160-9ac0-16b2c0ab0357","name":"Kamnik","ru":"Kamnik","country":"651062fe-a702-44b9-a049-13b22129dd1e","countryCode":"SI","state":"84120bf7-17b3-4b1b-81aa-b8565092c3e2","stateCode":"043","latitude":"46.22587000","longitude":"14.61207000"},{"id":"881da474-33d6-4922-b296-499d4b781c28","name":"Mekinje","ru":"Mekinje","country":"651062fe-a702-44b9-a049-13b22129dd1e","countryCode":"SI","state":"84120bf7-17b3-4b1b-81aa-b8565092c3e2","stateCode":"043","latitude":"46.23333000","longitude":"14.61667000"},{"id":"2b24fa8b-db72-4555-86cf-5e4b95172bee","name":"Deskle","ru":"Deskle","country":"651062fe-a702-44b9-a049-13b22129dd1e","countryCode":"SI","state":"e8e8a391-407c-4055-ba61-823199f2b05c","stateCode":"044","latitude":"46.05307000","longitude":"13.61382000"},{"id":"e2901a3a-9bd0-4cc6-bb5b-1a2e989d9b29","name":"Kanal","ru":"Kanal","country":"651062fe-a702-44b9-a049-13b22129dd1e","countryCode":"SI","state":"e8e8a391-407c-4055-ba61-823199f2b05c","stateCode":"044","latitude":"46.08861000","longitude":"13.63972000"},{"id":"2c168b9c-011b-470a-89e7-8683397329d8","name":"Kidričevo","ru":"Kidričevo","country":"651062fe-a702-44b9-a049-13b22129dd1e","countryCode":"SI","state":"cc624067-6a3d-43c0-a585-0a52ff6880d5","stateCode":"045","latitude":"46.40361000","longitude":"15.79111000"},{"id":"826ebb34-5d3c-4957-8aab-c8613867b84a","name":"Kočevje","ru":"Kočevje","country":"651062fe-a702-44b9-a049-13b22129dd1e","countryCode":"SI","state":"77106c9f-df3d-4d2f-9d6e-4d6b48cc43f3","stateCode":"048","latitude":"45.64333000","longitude":"14.86333000"},{"id":"e0d72f14-14dd-4b7f-9f36-75001dbb8cff","name":"Kobarid","ru":"Kobarid","country":"651062fe-a702-44b9-a049-13b22129dd1e","countryCode":"SI","state":"aa3171bf-0195-4580-b999-6dcf03dfde00","stateCode":"046","latitude":"46.24761000","longitude":"13.57907000"},{"id":"57f58dcd-bcb8-4805-a206-32d8d8836dc9","name":"Kobilje","ru":"Kobilje","country":"651062fe-a702-44b9-a049-13b22129dd1e","countryCode":"SI","state":"9be70ea7-5045-49c0-8070-75ad35a3b2cb","stateCode":"047","latitude":"46.68472000","longitude":"16.39778000"},{"id":"f4a4277f-2723-4dd8-baf8-890a563fc675","name":"Komen","ru":"Komen","country":"651062fe-a702-44b9-a049-13b22129dd1e","countryCode":"SI","state":"2bb90dca-20ae-4c38-95c4-545d56e2ff42","stateCode":"049","latitude":"45.81528000","longitude":"13.74833000"},{"id":"2bf9ba2e-6bee-4231-9943-86aacdf3fad3","name":"Komenda","ru":"Komenda","country":"651062fe-a702-44b9-a049-13b22129dd1e","countryCode":"SI","state":"99693d56-7323-416c-aab9-71f5711db315","stateCode":"164","latitude":"46.20484000","longitude":"14.53839000"},{"id":"43567d0a-f099-4620-9bd2-59825852676e","name":"Moste","ru":"Moste","country":"651062fe-a702-44b9-a049-13b22129dd1e","countryCode":"SI","state":"99693d56-7323-416c-aab9-71f5711db315","stateCode":"164","latitude":"46.19500000","longitude":"14.55139000"},{"id":"31c77ec9-b022-48cd-ae5c-84ed04d9d32c","name":"Dekani","ru":"Dekani","country":"651062fe-a702-44b9-a049-13b22129dd1e","countryCode":"SI","state":"c0c2ad29-1769-47c3-b28e-3f1805534838","stateCode":"050","latitude":"45.54972000","longitude":"13.81361000"},{"id":"5687759f-b995-48df-9715-2ecf7413068f","name":"Hrvatini","ru":"Hrvatini","country":"651062fe-a702-44b9-a049-13b22129dd1e","countryCode":"SI","state":"c0c2ad29-1769-47c3-b28e-3f1805534838","stateCode":"050","latitude":"45.58278000","longitude":"13.75667000"},{"id":"c5538143-a18e-401c-a699-893d10e0a104","name":"Koper","ru":"Koper","country":"651062fe-a702-44b9-a049-13b22129dd1e","countryCode":"SI","state":"c0c2ad29-1769-47c3-b28e-3f1805534838","stateCode":"050","latitude":"45.54694000","longitude":"13.72944000"},{"id":"0ef4fe0c-99d1-4af2-8d6a-fcf273504f8f","name":"Pobegi","ru":"Pobegi","country":"651062fe-a702-44b9-a049-13b22129dd1e","countryCode":"SI","state":"c0c2ad29-1769-47c3-b28e-3f1805534838","stateCode":"050","latitude":"45.53944000","longitude":"13.79611000"},{"id":"a74cb6ad-ac55-4728-bcbc-0fb8d0650ead","name":"Prade","ru":"Prade","country":"651062fe-a702-44b9-a049-13b22129dd1e","countryCode":"SI","state":"c0c2ad29-1769-47c3-b28e-3f1805534838","stateCode":"050","latitude":"45.54003000","longitude":"13.77607000"},{"id":"aacfaa0d-a875-4266-a96b-d72c682fbd46","name":"Spodnje Škofije","ru":"Spodnje Škofije","country":"651062fe-a702-44b9-a049-13b22129dd1e","countryCode":"SI","state":"c0c2ad29-1769-47c3-b28e-3f1805534838","stateCode":"050","latitude":"45.57167000","longitude":"13.79250000"},{"id":"c6c7f2a3-b52e-4f25-8b80-60cbaff8f22e","name":"Sv. Anton","ru":"Sv. Anton","country":"651062fe-a702-44b9-a049-13b22129dd1e","countryCode":"SI","state":"c0c2ad29-1769-47c3-b28e-3f1805534838","stateCode":"050","latitude":"45.52583000","longitude":"13.83194000"},{"id":"9df8a40c-ab56-4d08-b504-09bd1273b1ff","name":"Kostel","ru":"Kostel","country":"651062fe-a702-44b9-a049-13b22129dd1e","countryCode":"SI","state":"06392678-caa7-4e37-983d-877cbe2666fb","stateCode":"165","latitude":"45.50842000","longitude":"14.91005000"},{"id":"4259308a-834c-4952-9f71-e3e8d88d2e55","name":"Kozje","ru":"Kozje","country":"651062fe-a702-44b9-a049-13b22129dd1e","countryCode":"SI","state":"2601872e-db64-4d07-9365-5b7aa059e0da","stateCode":"051","latitude":"46.07500000","longitude":"15.56028000"},{"id":"476d5225-7a75-4f5f-949d-dab280fab380","name":"Britof","ru":"Britof","country":"651062fe-a702-44b9-a049-13b22129dd1e","countryCode":"SI","state":"5f393387-bdae-4958-994f-6ee03df5e488","stateCode":"052","latitude":"46.26024000","longitude":"14.39037000"},{"id":"bd5cb7b2-1015-41fe-a92a-c219f0adb1c7","name":"Golnik","ru":"Golnik","country":"651062fe-a702-44b9-a049-13b22129dd1e","countryCode":"SI","state":"5f393387-bdae-4958-994f-6ee03df5e488","stateCode":"052","latitude":"46.33333000","longitude":"14.33333000"},{"id":"8263d258-c3ef-4513-8c67-2b1ddfbfa730","name":"Kokrica","ru":"Kokrica","country":"651062fe-a702-44b9-a049-13b22129dd1e","countryCode":"SI","state":"5f393387-bdae-4958-994f-6ee03df5e488","stateCode":"052","latitude":"46.27028000","longitude":"14.36111000"},{"id":"bcdbd319-4399-4c88-a863-01760b31f718","name":"Kranj","ru":"Kranj","country":"651062fe-a702-44b9-a049-13b22129dd1e","countryCode":"SI","state":"5f393387-bdae-4958-994f-6ee03df5e488","stateCode":"052","latitude":"46.23887000","longitude":"14.35561000"},{"id":"c3660a66-a830-4b20-a9f9-0a88209e0acd","name":"Mlaka pri Kranju","ru":"Mlaka pri Kranju","country":"651062fe-a702-44b9-a049-13b22129dd1e","countryCode":"SI","state":"5f393387-bdae-4958-994f-6ee03df5e488","stateCode":"052","latitude":"46.28333000","longitude":"14.35000000"},{"id":"5f7ef35a-0970-4880-921c-0d51e7f9772e","name":"Zgornje Bitnje","ru":"Zgornje Bitnje","country":"651062fe-a702-44b9-a049-13b22129dd1e","countryCode":"SI","state":"5f393387-bdae-4958-994f-6ee03df5e488","stateCode":"052","latitude":"46.22000000","longitude":"14.33667000"},{"id":"04d4feea-87f4-4800-82f4-b6b2cf7008e0","name":"Kranjska Gora","ru":"Kranjska Gora","country":"651062fe-a702-44b9-a049-13b22129dd1e","countryCode":"SI","state":"3f284e2b-05f0-44d6-83c3-7bbbc48f3f5c","stateCode":"053","latitude":"46.45689000","longitude":"13.77824000"},{"id":"2d035074-0191-4049-980f-86d34f4a07fb","name":"Mojstrana","ru":"Mojstrana","country":"651062fe-a702-44b9-a049-13b22129dd1e","countryCode":"SI","state":"3f284e2b-05f0-44d6-83c3-7bbbc48f3f5c","stateCode":"053","latitude":"46.42383000","longitude":"13.87520000"},{"id":"d27a313a-761c-4624-93af-8657d89ea27f","name":"Križevci pri Ljutomeru","ru":"Križevci pri Ljutomeru","country":"651062fe-a702-44b9-a049-13b22129dd1e","countryCode":"SI","state":"2f170ee1-6e27-4904-a958-b6d98ac24e7e","stateCode":"166","latitude":"46.56833000","longitude":"16.13861000"},{"id":"31dffb40-02e4-4dca-a840-d829d7b83cc0","name":"Zgornja Kungota","ru":"Zgornja Kungota","country":"651062fe-a702-44b9-a049-13b22129dd1e","countryCode":"SI","state":"32dfdb19-fa96-4a30-a20a-b1c7eede6d63","stateCode":"055","latitude":"46.63917000","longitude":"15.61556000"},{"id":"7b366774-58b5-4d40-b70a-b4bdaa6bbf70","name":"Kuzma","ru":"Kuzma","country":"651062fe-a702-44b9-a049-13b22129dd1e","countryCode":"SI","state":"c290afb2-7cc7-4b6d-b18c-2bc1a9f63165","stateCode":"056","latitude":"46.83694000","longitude":"16.08333000"},{"id":"10f58a72-aa1b-4abb-915d-2d3981e8470f","name":"Laško","ru":"Laško","country":"651062fe-a702-44b9-a049-13b22129dd1e","countryCode":"SI","state":"87663fee-b995-4aa1-b5e1-de118e2a5340","stateCode":"057","latitude":"46.15463000","longitude":"15.23555000"},{"id":"639bc150-98f1-4151-8e51-782318d57af2","name":"Lenart v Slov. Goricah","ru":"Lenart v Slov. Goricah","country":"651062fe-a702-44b9-a049-13b22129dd1e","countryCode":"SI","state":"5cf9f940-790a-49fc-b8d4-bc8f9518f73e","stateCode":"058","latitude":"46.57611000","longitude":"15.83139000"},{"id":"27fe4a20-d8d5-4378-9d40-f0ceb6ebcfeb","name":"Lendava","ru":"Lendava","country":"651062fe-a702-44b9-a049-13b22129dd1e","countryCode":"SI","state":"7a9bc50a-6e44-46ba-ac9e-7ee7d18be103","stateCode":"059","latitude":"46.56494000","longitude":"16.45091000"},{"id":"c425b63f-6f61-4aa1-8492-f41f6ddd4534","name":"Litija","ru":"Litija","country":"651062fe-a702-44b9-a049-13b22129dd1e","countryCode":"SI","state":"98fe7c7f-47b7-4cfc-a322-f41617345c56","stateCode":"060","latitude":"46.05861000","longitude":"14.82250000"},{"id":"18b99388-bbea-4fd1-8b0f-a7154f5cdf60","name":"Šentvid District","ru":"Šentvid District","country":"651062fe-a702-44b9-a049-13b22129dd1e","countryCode":"SI","state":"06e9693c-be8c-4d41-9f69-480bef9ea1c6","stateCode":"061","latitude":"46.10559000","longitude":"14.43329000"},{"id":"f217559d-68fd-4139-9093-c5530b09cfe7","name":"Dravlje District","ru":"Dravlje District","country":"651062fe-a702-44b9-a049-13b22129dd1e","countryCode":"SI","state":"06e9693c-be8c-4d41-9f69-480bef9ea1c6","stateCode":"061","latitude":"46.07290000","longitude":"14.44741000"},{"id":"28d010ff-651c-4775-9ddd-5534c4b567f1","name":"Jarše District","ru":"Jarše District","country":"651062fe-a702-44b9-a049-13b22129dd1e","countryCode":"SI","state":"06e9693c-be8c-4d41-9f69-480bef9ea1c6","stateCode":"061","latitude":"46.07345000","longitude":"14.55431000"},{"id":"3bb11928-6c42-4bd6-baa3-6e49494a9145","name":"Ljubljana","ru":"Ljubljana","country":"651062fe-a702-44b9-a049-13b22129dd1e","countryCode":"SI","state":"06e9693c-be8c-4d41-9f69-480bef9ea1c6","stateCode":"061","latitude":"46.05108000","longitude":"14.50513000"},{"id":"e515ffe2-e2d8-42af-9ed0-3b5e5789b822","name":"Opčina Ljubljana-Bežigrad","ru":"Opčina Ljubljana-Bežigrad","country":"651062fe-a702-44b9-a049-13b22129dd1e","countryCode":"SI","state":"06e9693c-be8c-4d41-9f69-480bef9ea1c6","stateCode":"061","latitude":"46.08333000","longitude":"14.53333000"},{"id":"25bd8356-a850-4927-8040-25d95954ed6d","name":"Opština Ljubljana-Center","ru":"Opština Ljubljana-Center","country":"651062fe-a702-44b9-a049-13b22129dd1e","countryCode":"SI","state":"06e9693c-be8c-4d41-9f69-480bef9ea1c6","stateCode":"061","latitude":"46.05000000","longitude":"14.53333000"},{"id":"4f1a022b-8345-4307-a174-f7662d21e13a","name":"Opština Ljubljana-Moste-Polje","ru":"Opština Ljubljana-Moste-Polje","country":"651062fe-a702-44b9-a049-13b22129dd1e","countryCode":"SI","state":"06e9693c-be8c-4d41-9f69-480bef9ea1c6","stateCode":"061","latitude":"46.06667000","longitude":"14.61667000"},{"id":"5db3976e-5a29-4f1c-a805-48d4a632a0bd","name":"Rožnik District","ru":"Rožnik District","country":"651062fe-a702-44b9-a049-13b22129dd1e","countryCode":"SI","state":"06e9693c-be8c-4d41-9f69-480bef9ea1c6","stateCode":"061","latitude":"46.05999000","longitude":"14.46779000"},{"id":"f63370cb-027e-4c6e-bfee-8f41ba9466a5","name":"Sostro District","ru":"Sostro District","country":"651062fe-a702-44b9-a049-13b22129dd1e","countryCode":"SI","state":"06e9693c-be8c-4d41-9f69-480bef9ea1c6","stateCode":"061","latitude":"46.04341000","longitude":"14.67293000"},{"id":"83a4c3f9-4b41-45f5-8171-3702d2bfe317","name":"Trnovo District","ru":"Trnovo District","country":"651062fe-a702-44b9-a049-13b22129dd1e","countryCode":"SI","state":"06e9693c-be8c-4d41-9f69-480bef9ea1c6","stateCode":"061","latitude":"46.02412000","longitude":"14.48891000"},{"id":"aa3b4910-7c1b-4841-bdfa-3dd4da5b67a7","name":"Vič District","ru":"Vič District","country":"651062fe-a702-44b9-a049-13b22129dd1e","countryCode":"SI","state":"06e9693c-be8c-4d41-9f69-480bef9ea1c6","stateCode":"061","latitude":"46.00779000","longitude":"14.46968000"},{"id":"0a098b82-4040-427a-bbbb-e516725972a9","name":"Ljubno ob Savinji","ru":"Ljubno ob Savinji","country":"651062fe-a702-44b9-a049-13b22129dd1e","countryCode":"SI","state":"4f62234d-9935-4600-be25-fd2183be2f8d","stateCode":"062","latitude":"46.34358000","longitude":"14.83377000"},{"id":"8f87b09d-b696-4f34-83ec-8643563c7739","name":"Ljutomer","ru":"Ljutomer","country":"651062fe-a702-44b9-a049-13b22129dd1e","countryCode":"SI","state":"5f7ebdec-725b-4c7c-b96f-881878bd2b48","stateCode":"063","latitude":"46.52083000","longitude":"16.19750000"},{"id":"b1029580-f7c5-472d-8b14-a3103e4d7472","name":"Leskova Dolina","ru":"Leskova Dolina","country":"651062fe-a702-44b9-a049-13b22129dd1e","countryCode":"SI","state":"8044154e-417f-4335-9f75-7d04336cf073","stateCode":"065","latitude":"45.62139000","longitude":"14.46056000"},{"id":"e45e1fea-0a59-4133-bc6c-3c032e8ec32b","name":"Hrib-Loški Potok","ru":"Hrib-Loški Potok","country":"651062fe-a702-44b9-a049-13b22129dd1e","countryCode":"SI","state":"933ca612-91e3-45e3-bf34-ea7e5b594073","stateCode":"066","latitude":"45.70688000","longitude":"14.61674000"},{"id":"f425ef65-47f0-4c42-b0ea-1020283ed042","name":"Logatec","ru":"Logatec","country":"651062fe-a702-44b9-a049-13b22129dd1e","countryCode":"SI","state":"bd61685d-1105-47dc-ae8f-6181d3be9e73","stateCode":"064","latitude":"45.91444000","longitude":"14.22583000"},{"id":"39398105-85c0-44a5-a84f-25cb87e07423","name":"Lovrenc na Pohorju","ru":"Lovrenc na Pohorju","country":"651062fe-a702-44b9-a049-13b22129dd1e","countryCode":"SI","state":"46f82810-02be-487d-bcb7-caa97dd0a179","stateCode":"167","latitude":"46.54056000","longitude":"15.39306000"},{"id":"36f533ad-aec3-4a7b-866a-1bb6100315a5","name":"Luče","ru":"Luče","country":"651062fe-a702-44b9-a049-13b22129dd1e","countryCode":"SI","state":"b2a11b49-cffd-41b6-84e0-786f465efb88","stateCode":"067","latitude":"46.35611000","longitude":"14.74667000"},{"id":"ca8cc0bc-8a58-49dc-8712-9fc21390721e","name":"Lukovica pri Domžalah","ru":"Lukovica pri Domžalah","country":"651062fe-a702-44b9-a049-13b22129dd1e","countryCode":"SI","state":"9301aa48-12ba-4c29-a490-3787813214b9","stateCode":"068","latitude":"46.16988000","longitude":"14.69179000"},{"id":"00e1db78-ffad-4c05-95b5-4a9f199130d2","name":"Majšperk","ru":"Majšperk","country":"651062fe-a702-44b9-a049-13b22129dd1e","countryCode":"SI","state":"a48a4577-a3d0-48fc-835d-e443a89b51a0","stateCode":"069","latitude":"46.35167000","longitude":"15.73361000"},{"id":"ee6a0c61-523d-4db4-8029-c602afd4c442","name":"Bresternica","ru":"Bresternica","country":"651062fe-a702-44b9-a049-13b22129dd1e","countryCode":"SI","state":"418c0a2f-81e1-44c0-9625-997024652c94","stateCode":"070","latitude":"46.56972000","longitude":"15.57500000"},{"id":"34b8733e-b080-4137-8550-b39854f17a28","name":"Kamnica","ru":"Kamnica","country":"651062fe-a702-44b9-a049-13b22129dd1e","countryCode":"SI","state":"418c0a2f-81e1-44c0-9625-997024652c94","stateCode":"070","latitude":"46.57444000","longitude":"15.61417000"},{"id":"a8adb249-e6f6-4da6-9c8c-230500de78f7","name":"Limbuš","ru":"Limbuš","country":"651062fe-a702-44b9-a049-13b22129dd1e","countryCode":"SI","state":"418c0a2f-81e1-44c0-9625-997024652c94","stateCode":"070","latitude":"46.55361000","longitude":"15.58361000"},{"id":"a10db2e0-0a34-4556-8583-5cc6361d5e4e","name":"Maribor","ru":"Maribor","country":"651062fe-a702-44b9-a049-13b22129dd1e","countryCode":"SI","state":"418c0a2f-81e1-44c0-9625-997024652c94","stateCode":"070","latitude":"46.55472000","longitude":"15.64667000"},{"id":"43c5f631-73ad-4984-bce3-300b46512eff","name":"Pekre","ru":"Pekre","country":"651062fe-a702-44b9-a049-13b22129dd1e","countryCode":"SI","state":"418c0a2f-81e1-44c0-9625-997024652c94","stateCode":"070","latitude":"46.54722000","longitude":"15.59556000"},{"id":"85afe290-97a0-4bd3-a87d-eafa9ddb6573","name":"Razvanje","ru":"Razvanje","country":"651062fe-a702-44b9-a049-13b22129dd1e","countryCode":"SI","state":"418c0a2f-81e1-44c0-9625-997024652c94","stateCode":"070","latitude":"46.51444000","longitude":"15.63611000"},{"id":"5d908bcf-453e-42d8-af75-374465c014de","name":"Markovci","ru":"Markovci","country":"651062fe-a702-44b9-a049-13b22129dd1e","countryCode":"SI","state":"ccac46aa-40ec-48e9-974e-6ae306c055b1","stateCode":"168","latitude":"46.39557000","longitude":"15.92831000"},{"id":"bcf1db3b-1eaa-4887-afd5-5ef30d1d097c","name":"Mežica","ru":"Mežica","country":"651062fe-a702-44b9-a049-13b22129dd1e","countryCode":"SI","state":"3ae55fc0-d0fe-468d-ab5b-dffbcd4afb70","stateCode":"074","latitude":"46.52139000","longitude":"14.85444000"},{"id":"8c284038-c159-4ba6-b5cf-c44a764bd5cf","name":"Medvode","ru":"Medvode","country":"651062fe-a702-44b9-a049-13b22129dd1e","countryCode":"SI","state":"8edc2b1a-b468-42ed-a267-c2eaac4363b1","stateCode":"071","latitude":"46.14220000","longitude":"14.41114000"},{"id":"384c3513-26bc-4988-a06b-a11f3d15e5fb","name":"Opština [historical] Ljubljana-Šiška","ru":"Opština [historical] Ljubljana-Šiška","country":"651062fe-a702-44b9-a049-13b22129dd1e","countryCode":"SI","state":"8edc2b1a-b468-42ed-a267-c2eaac4363b1","stateCode":"071","latitude":"46.16667000","longitude":"14.43333000"},{"id":"7f0a607a-967d-4967-bfe4-4b64cc9f6360","name":"Zgornje Pirniče","ru":"Zgornje Pirniče","country":"651062fe-a702-44b9-a049-13b22129dd1e","countryCode":"SI","state":"8edc2b1a-b468-42ed-a267-c2eaac4363b1","stateCode":"071","latitude":"46.14251000","longitude":"14.43158000"},{"id":"626a68d9-63f4-4071-a387-6f04f33cb99b","name":"Mengeš","ru":"Mengeš","country":"651062fe-a702-44b9-a049-13b22129dd1e","countryCode":"SI","state":"38a82167-dadb-42ee-912c-b0ae0597cd4f","stateCode":"072","latitude":"46.16694000","longitude":"14.57500000"},{"id":"efa6efa7-6da7-4f59-bbb7-b7b6236beb75","name":"Preserje pri Radomljah","ru":"Preserje pri Radomljah","country":"651062fe-a702-44b9-a049-13b22129dd1e","countryCode":"SI","state":"38a82167-dadb-42ee-912c-b0ae0597cd4f","stateCode":"072","latitude":"46.16911000","longitude":"14.59698000"},{"id":"5a02f701-8ece-4014-a20e-45f2a0f059f0","name":"Metlika","ru":"Metlika","country":"651062fe-a702-44b9-a049-13b22129dd1e","countryCode":"SI","state":"12a27051-8740-487f-b569-ed4265ce9153","stateCode":"073","latitude":"45.64722000","longitude":"15.31417000"},{"id":"45fa8353-c865-46e4-86c7-fc758a983e6e","name":"Miklavž na Dravskem Polju","ru":"Miklavž na Dravskem Polju","country":"651062fe-a702-44b9-a049-13b22129dd1e","countryCode":"SI","state":"18df2ee9-d2d1-4649-bc40-862bb33db05a","stateCode":"169","latitude":"46.50583000","longitude":"15.69722000"},{"id":"424fee37-84bf-425c-9d75-477108ceea13","name":"Bilje","ru":"Bilje","country":"651062fe-a702-44b9-a049-13b22129dd1e","countryCode":"SI","state":"d24a43af-df1f-4917-b5fb-53a370b1f62d","stateCode":"075","latitude":"45.89444000","longitude":"13.63222000"},{"id":"1283ae66-a018-461d-8d75-9373cf46f263","name":"Miren","ru":"Miren","country":"651062fe-a702-44b9-a049-13b22129dd1e","countryCode":"SI","state":"d24a43af-df1f-4917-b5fb-53a370b1f62d","stateCode":"075","latitude":"45.89556000","longitude":"13.60750000"},{"id":"e970beb1-27f5-44cb-a20b-a9e79fe3de6a","name":"Mirna Peč","ru":"Mirna Peč","country":"651062fe-a702-44b9-a049-13b22129dd1e","countryCode":"SI","state":"1d37c807-8fcd-4388-97e6-58de7073f701","stateCode":"170","latitude":"45.86028000","longitude":"15.08333000"},{"id":"f04627b0-c9e5-4941-8bfe-308a8201d101","name":"Mislinja","ru":"Mislinja","country":"651062fe-a702-44b9-a049-13b22129dd1e","countryCode":"SI","state":"8ad4ac3d-c162-4cab-ab08-8f70570d114c","stateCode":"076","latitude":"46.44141000","longitude":"15.20027000"},{"id":"9e87d5ad-aa1f-450f-bce9-6659dc6781c6","name":"Moravče","ru":"Moravče","country":"651062fe-a702-44b9-a049-13b22129dd1e","countryCode":"SI","state":"6f6d0397-eb58-4a5a-90af-33fb779f0b41","stateCode":"077","latitude":"46.13694000","longitude":"14.74500000"},{"id":"380965fc-c2c6-4c83-abc8-e94f118cb4bb","name":"Moravske Toplice","ru":"Moravske Toplice","country":"651062fe-a702-44b9-a049-13b22129dd1e","countryCode":"SI","state":"ce5d6797-5774-4d1a-ba20-79057b6756c8","stateCode":"078","latitude":"46.68313000","longitude":"16.22080000"},{"id":"5056d733-996d-4e17-80bb-5e1810049a02","name":"Mozirje","ru":"Mozirje","country":"651062fe-a702-44b9-a049-13b22129dd1e","countryCode":"SI","state":"577014e1-f7be-4545-94cb-23673b9da26a","stateCode":"079","latitude":"46.33944000","longitude":"14.96333000"},{"id":"dab33f90-12c4-4673-976a-dc90e0f2c5dc","name":"Apače","ru":"Apače","country":"651062fe-a702-44b9-a049-13b22129dd1e","countryCode":"SI","state":"81c5b43e-4fc4-43e9-9a65-0a301e2702d5","stateCode":"195","latitude":"46.69722000","longitude":"15.91056000"},{"id":"f701f43d-a3fc-4456-9339-f1308db26364","name":"Škofljica","ru":"Škofljica","country":"651062fe-a702-44b9-a049-13b22129dd1e","countryCode":"SI","state":"306cf6eb-9531-4a0c-b090-ac5f5c4b2df0","stateCode":"123","latitude":"45.98333000","longitude":"14.57667000"},{"id":"d198ddb5-7143-4de8-9be9-b44902271506","name":"Lavrica","ru":"Lavrica","country":"651062fe-a702-44b9-a049-13b22129dd1e","countryCode":"SI","state":"306cf6eb-9531-4a0c-b090-ac5f5c4b2df0","stateCode":"123","latitude":"46.00002000","longitude":"14.55730000"},{"id":"fade6f34-dbff-4e5f-81f8-132ef352e7fc","name":"Ilirska Bistrica","ru":"Ilirska Bistrica","country":"651062fe-a702-44b9-a049-13b22129dd1e","countryCode":"SI","state":"83ebc580-7c82-4b16-b845-8c8db33b85dd","stateCode":"038","latitude":"45.56757000","longitude":"14.24571000"},{"id":"efc09242-fe0f-4e9e-9fcf-de0c5630e69d","name":"Krško","ru":"Krško","country":"651062fe-a702-44b9-a049-13b22129dd1e","countryCode":"SI","state":"637340ee-23ed-4166-aace-87e12f7be916","stateCode":"054","latitude":"45.95915000","longitude":"15.49167000"},{"id":"047256a5-7dcf-41c7-b085-792e68bd9e4e","name":"Leskovec pri Krškem","ru":"Leskovec pri Krškem","country":"651062fe-a702-44b9-a049-13b22129dd1e","countryCode":"SI","state":"637340ee-23ed-4166-aace-87e12f7be916","stateCode":"054","latitude":"45.93566000","longitude":"15.47184000"},{"id":"eea228c5-9c22-4bd7-afa9-113799dfa869","name":"Senovo","ru":"Senovo","country":"651062fe-a702-44b9-a049-13b22129dd1e","countryCode":"SI","state":"637340ee-23ed-4166-aace-87e12f7be916","stateCode":"054","latitude":"46.02361000","longitude":"15.47694000"},{"id":"2902f044-eaca-4c99-af66-b876ec4c63db","name":"Černelavci","ru":"Černelavci","country":"651062fe-a702-44b9-a049-13b22129dd1e","countryCode":"SI","state":"b6b287f1-1fd1-4205-af0f-b38df9547a48","stateCode":"080","latitude":"46.66667000","longitude":"16.13333000"},{"id":"98f03097-d456-482a-9022-df19a7df96fe","name":"Bakovci","ru":"Bakovci","country":"651062fe-a702-44b9-a049-13b22129dd1e","countryCode":"SI","state":"b6b287f1-1fd1-4205-af0f-b38df9547a48","stateCode":"080","latitude":"46.61889000","longitude":"16.15028000"},{"id":"2d000b88-1cd0-4d00-964a-d7d712b32db0","name":"Krog","ru":"Krog","country":"651062fe-a702-44b9-a049-13b22129dd1e","countryCode":"SI","state":"b6b287f1-1fd1-4205-af0f-b38df9547a48","stateCode":"080","latitude":"46.63806000","longitude":"16.14139000"},{"id":"374ceb2c-e930-401d-a56c-a681ca9d5f8f","name":"Murska Sobota","ru":"Murska Sobota","country":"651062fe-a702-44b9-a049-13b22129dd1e","countryCode":"SI","state":"b6b287f1-1fd1-4205-af0f-b38df9547a48","stateCode":"080","latitude":"46.66250000","longitude":"16.16639000"},{"id":"568b5f35-6c3d-4c9a-88fa-7aaf11f9b36e","name":"Rakičan","ru":"Rakičan","country":"651062fe-a702-44b9-a049-13b22129dd1e","countryCode":"SI","state":"b6b287f1-1fd1-4205-af0f-b38df9547a48","stateCode":"080","latitude":"46.65167000","longitude":"16.20417000"},{"id":"35a23be2-f918-4193-8b70-f8b8df94ac57","name":"Muta","ru":"Muta","country":"651062fe-a702-44b9-a049-13b22129dd1e","countryCode":"SI","state":"5edd01bf-f19e-4030-91de-9a82e9042974","stateCode":"081","latitude":"46.61139000","longitude":"15.16611000"},{"id":"490e53f7-bcab-4816-9641-5dc9828c37c0","name":"Naklo","ru":"Naklo","country":"651062fe-a702-44b9-a049-13b22129dd1e","countryCode":"SI","state":"06faea5a-8736-400a-b471-9383a733de34","stateCode":"082","latitude":"46.27278000","longitude":"14.31722000"},{"id":"19136d17-7476-4070-a48a-8836354c6fd1","name":"Nazarje","ru":"Nazarje","country":"651062fe-a702-44b9-a049-13b22129dd1e","countryCode":"SI","state":"73b5e00f-c157-4177-9b77-c93c9a96210e","stateCode":"083","latitude":"46.31757000","longitude":"14.94674000"},{"id":"62343deb-af13-46ec-b269-006ba1f62db0","name":"Šempas","ru":"Šempas","country":"651062fe-a702-44b9-a049-13b22129dd1e","countryCode":"SI","state":"c9477edf-35f4-4fee-8d12-f43629119b8b","stateCode":"084","latitude":"45.93028000","longitude":"13.74361000"},{"id":"51e3cd12-9eb4-4f76-adc9-cbcec0441618","name":"Kromberk","ru":"Kromberk","country":"651062fe-a702-44b9-a049-13b22129dd1e","countryCode":"SI","state":"c9477edf-35f4-4fee-8d12-f43629119b8b","stateCode":"084","latitude":"45.96083000","longitude":"13.66556000"},{"id":"d2d715d9-4cb5-4437-a196-0651d42a3be5","name":"Nova Gorica","ru":"Nova Gorica","country":"651062fe-a702-44b9-a049-13b22129dd1e","countryCode":"SI","state":"c9477edf-35f4-4fee-8d12-f43629119b8b","stateCode":"084","latitude":"45.95604000","longitude":"13.64837000"},{"id":"fc7fc8fb-2567-4ded-a58e-6edb7b665a36","name":"Prvačina","ru":"Prvačina","country":"651062fe-a702-44b9-a049-13b22129dd1e","countryCode":"SI","state":"c9477edf-35f4-4fee-8d12-f43629119b8b","stateCode":"084","latitude":"45.89000000","longitude":"13.71806000"},{"id":"6c2ab016-64a7-4af9-9ac0-f2217e42bc26","name":"Solkan","ru":"Solkan","country":"651062fe-a702-44b9-a049-13b22129dd1e","countryCode":"SI","state":"c9477edf-35f4-4fee-8d12-f43629119b8b","stateCode":"084","latitude":"45.97139000","longitude":"13.64944000"},{"id":"6eb71f35-bd70-435a-b93d-2087f3e709e3","name":"Odranci","ru":"Odranci","country":"651062fe-a702-44b9-a049-13b22129dd1e","countryCode":"SI","state":"fc852540-caa3-4782-8ed9-b98eaca327fb","stateCode":"086","latitude":"46.58667000","longitude":"16.28028000"},{"id":"39d88bcf-3705-4564-80bd-73ee1ddd453e","name":"Oplotnica","ru":"Oplotnica","country":"651062fe-a702-44b9-a049-13b22129dd1e","countryCode":"SI","state":"bb052a19-e554-4a40-8c07-df4b44786514","stateCode":"171","latitude":"46.38778000","longitude":"15.44667000"},{"id":"8787ab4e-3d94-477c-ba3b-6b237224644b","name":"Ormož","ru":"Ormož","country":"651062fe-a702-44b9-a049-13b22129dd1e","countryCode":"SI","state":"99b1ced7-efb1-4354-8ec5-54dfc79c939c","stateCode":"087","latitude":"46.41139000","longitude":"16.15444000"},{"id":"8da9b67f-c25c-483b-875c-41fb6f9f7116","name":"Osilnica","ru":"Osilnica","country":"651062fe-a702-44b9-a049-13b22129dd1e","countryCode":"SI","state":"52397332-079c-4cc2-98de-4126d1040042","stateCode":"088","latitude":"45.52914000","longitude":"14.69838000"},{"id":"d5453668-650c-4515-9ece-416645003c52","name":"Pesnica pri Mariboru","ru":"Pesnica pri Mariboru","country":"651062fe-a702-44b9-a049-13b22129dd1e","countryCode":"SI","state":"c789b8bc-2419-4df2-812e-9ddc73902ddb","stateCode":"089","latitude":"46.60694000","longitude":"15.67667000"},{"id":"efdcaa4e-69ef-4c95-a68a-36ddbc1c0c99","name":"Lucija","ru":"Lucija","country":"651062fe-a702-44b9-a049-13b22129dd1e","countryCode":"SI","state":"0b3b63a9-6391-4fde-852f-273156ecca23","stateCode":"090","latitude":"45.50526000","longitude":"13.60240000"},{"id":"2f9ab5d6-02e2-492d-b07b-c050d59ad673","name":"Piran","ru":"Piran","country":"651062fe-a702-44b9-a049-13b22129dd1e","countryCode":"SI","state":"0b3b63a9-6391-4fde-852f-273156ecca23","stateCode":"090","latitude":"45.52778000","longitude":"13.57056000"},{"id":"5aa497a2-2e1e-45cf-a7c1-245397af8ad8","name":"Portorož","ru":"Portorož","country":"651062fe-a702-44b9-a049-13b22129dd1e","countryCode":"SI","state":"0b3b63a9-6391-4fde-852f-273156ecca23","stateCode":"090","latitude":"45.51429000","longitude":"13.59206000"},{"id":"55301bce-c0d7-4eaa-bdd4-6ae5b3bec07b","name":"Seča","ru":"Seča","country":"651062fe-a702-44b9-a049-13b22129dd1e","countryCode":"SI","state":"0b3b63a9-6391-4fde-852f-273156ecca23","stateCode":"090","latitude":"45.49584000","longitude":"13.61466000"},{"id":"b9791276-043a-4522-8db1-a4808c31c89a","name":"Pivka","ru":"Pivka","country":"651062fe-a702-44b9-a049-13b22129dd1e","countryCode":"SI","state":"4b5638fd-a085-4893-bcdf-834433745bab","stateCode":"091","latitude":"45.68292000","longitude":"14.19588000"},{"id":"6c82759a-46f9-48c2-b2ac-16b61c817a1d","name":"Podčetrtek","ru":"Podčetrtek","country":"651062fe-a702-44b9-a049-13b22129dd1e","countryCode":"SI","state":"84e8e522-37ca-45cf-ac21-cf6728277ee8","stateCode":"092","latitude":"46.15694000","longitude":"15.59861000"},{"id":"b846a3f4-90a1-467d-ad8c-a05bf4733194","name":"Podlehnik","ru":"Podlehnik","country":"651062fe-a702-44b9-a049-13b22129dd1e","countryCode":"SI","state":"e8d2100f-8c14-477f-9e81-1204d80c15e1","stateCode":"172","latitude":"46.33528000","longitude":"15.88000000"},{"id":"9e441396-61c5-4d6e-9769-150dca28b6ec","name":"Podvelka","ru":"Podvelka","country":"651062fe-a702-44b9-a049-13b22129dd1e","countryCode":"SI","state":"33e70519-87b3-4f31-b80b-9174dc014829","stateCode":"093","latitude":"46.58694000","longitude":"15.33056000"},{"id":"26bc7f2d-6321-4cf5-80c4-831b738984f5","name":"Polzela","ru":"Polzela","country":"651062fe-a702-44b9-a049-13b22129dd1e","countryCode":"SI","state":"33217870-83e7-403e-be24-dd09a01f2f4a","stateCode":"173","latitude":"46.28333000","longitude":"15.06667000"},{"id":"20e3450a-28a6-4727-b3cb-e024c6bb4910","name":"Postojna","ru":"Postojna","country":"651062fe-a702-44b9-a049-13b22129dd1e","countryCode":"SI","state":"05e40e64-ca15-434a-bc35-143cb6a2fce7","stateCode":"094","latitude":"45.77435000","longitude":"14.21528000"},{"id":"947dcba6-d087-4a2e-b29d-780a8657d7c4","name":"Prebold","ru":"Prebold","country":"651062fe-a702-44b9-a049-13b22129dd1e","countryCode":"SI","state":"ffb383fb-7f8b-48a4-9e9b-dde9348f7992","stateCode":"174","latitude":"46.23694000","longitude":"15.09250000"},{"id":"f5d69b66-b26d-4e8a-85e0-5d43d3e077b1","name":"Preddvor","ru":"Preddvor","country":"651062fe-a702-44b9-a049-13b22129dd1e","countryCode":"SI","state":"70f13324-762e-4de7-90df-bd2885f4288b","stateCode":"095","latitude":"46.30250000","longitude":"14.42306000"},{"id":"471d99d4-5627-4407-956f-c272f1f4d087","name":"Prevalje","ru":"Prevalje","country":"651062fe-a702-44b9-a049-13b22129dd1e","countryCode":"SI","state":"d978e4a1-6c05-4b04-b125-05335dded1e9","stateCode":"175","latitude":"46.54694000","longitude":"14.92083000"},{"id":"d5c901f0-9dfe-48f8-bb02-80790591ee83","name":"Ptuj","ru":"Ptuj","country":"651062fe-a702-44b9-a049-13b22129dd1e","countryCode":"SI","state":"a39c8d81-e492-4ac7-bf3a-5a10129641a2","stateCode":"096","latitude":"46.42005000","longitude":"15.87018000"},{"id":"c5fdca11-829e-4f5c-a60f-970ac2301f6e","name":"Puconci","ru":"Puconci","country":"651062fe-a702-44b9-a049-13b22129dd1e","countryCode":"SI","state":"28e24c23-69a3-4c15-89c4-2b4fc5c2727c","stateCode":"097","latitude":"46.70667000","longitude":"16.15639000"},{"id":"f48a8011-52a1-4f68-87b9-be535b378751","name":"Fram","ru":"Fram","country":"651062fe-a702-44b9-a049-13b22129dd1e","countryCode":"SI","state":"492adbb5-d49d-41f2-9754-4aa592eca860","stateCode":"098","latitude":"46.45600000","longitude":"15.63007000"},{"id":"36759bc6-8b55-428d-8e17-ed4a252d8396","name":"Morje","ru":"Morje","country":"651062fe-a702-44b9-a049-13b22129dd1e","countryCode":"SI","state":"492adbb5-d49d-41f2-9754-4aa592eca860","stateCode":"098","latitude":"46.44444000","longitude":"15.62139000"},{"id":"c8f9056d-a573-4848-ba7d-a015b28fb5c9","name":"Rače","ru":"Rače","country":"651062fe-a702-44b9-a049-13b22129dd1e","countryCode":"SI","state":"492adbb5-d49d-41f2-9754-4aa592eca860","stateCode":"098","latitude":"46.45194000","longitude":"15.68139000"},{"id":"782532a1-eaa3-43da-821c-102cc8d0b17b","name":"Radeče","ru":"Radeče","country":"651062fe-a702-44b9-a049-13b22129dd1e","countryCode":"SI","state":"4d878c98-7a0c-47ae-915e-975774d9edaf","stateCode":"099","latitude":"46.06806000","longitude":"15.18389000"},{"id":"8bb65220-eed5-4ce9-a89e-dc543422e815","name":"Radenci","ru":"Radenci","country":"651062fe-a702-44b9-a049-13b22129dd1e","countryCode":"SI","state":"51b5f420-269e-40bf-bfd7-8752b71d8cc7","stateCode":"100","latitude":"46.64201000","longitude":"16.03781000"},{"id":"509c3a1c-7011-4b2c-979e-6c304e7bf42d","name":"Radlje ob Dravi","ru":"Radlje ob Dravi","country":"651062fe-a702-44b9-a049-13b22129dd1e","countryCode":"SI","state":"fa0580af-1320-4741-8207-681d48936c22","stateCode":"101","latitude":"46.61417000","longitude":"15.22639000"},{"id":"65e4aefb-193c-4e69-9d36-dfab5e0efea4","name":"Lesce","ru":"Lesce","country":"651062fe-a702-44b9-a049-13b22129dd1e","countryCode":"SI","state":"73505479-1db9-4609-81d1-0f9a4c15665f","stateCode":"102","latitude":"46.36111000","longitude":"14.15778000"},{"id":"75b101a6-d929-462d-9f76-c1be6a267b4f","name":"Radovljica","ru":"Radovljica","country":"651062fe-a702-44b9-a049-13b22129dd1e","countryCode":"SI","state":"73505479-1db9-4609-81d1-0f9a4c15665f","stateCode":"102","latitude":"46.34444000","longitude":"14.17444000"},{"id":"6abf4079-d602-4bd9-94fa-aaa54fd267dc","name":"Kotlje","ru":"Kotlje","country":"651062fe-a702-44b9-a049-13b22129dd1e","countryCode":"SI","state":"d2ca2647-068d-49b6-8aa2-c8fdd5ae66d3","stateCode":"103","latitude":"46.52139000","longitude":"14.98694000"},{"id":"4307a98a-87b9-464e-97f3-5eac89f82f63","name":"Ravne na Koroškem","ru":"Ravne na Koroškem","country":"651062fe-a702-44b9-a049-13b22129dd1e","countryCode":"SI","state":"d2ca2647-068d-49b6-8aa2-c8fdd5ae66d3","stateCode":"103","latitude":"46.54306000","longitude":"14.96917000"},{"id":"6d5c1ce4-4a67-41f1-a9f8-01db774cce1f","name":"Razkrižje","ru":"Razkrižje","country":"651062fe-a702-44b9-a049-13b22129dd1e","countryCode":"SI","state":"441e9e29-1685-451d-88fd-b089a283fd9e","stateCode":"176","latitude":"46.52167000","longitude":"16.28111000"},{"id":"4d84efba-54b5-4600-a792-3628c88ab1fc","name":"Renče","ru":"Renče","country":"651062fe-a702-44b9-a049-13b22129dd1e","countryCode":"SI","state":"983047d2-0752-4781-bae9-ab904c0346ee","stateCode":"201","latitude":"45.89000000","longitude":"13.66861000"},{"id":"3c96fb8f-3196-4615-ae7d-67287c00cc40","name":"Volčja Draga","ru":"Volčja Draga","country":"651062fe-a702-44b9-a049-13b22129dd1e","countryCode":"SI","state":"983047d2-0752-4781-bae9-ab904c0346ee","stateCode":"201","latitude":"45.90694000","longitude":"13.67750000"},{"id":"9f257216-6396-4f84-9fbc-9b28bfde849e","name":"Ribnica","ru":"Ribnica","country":"651062fe-a702-44b9-a049-13b22129dd1e","countryCode":"SI","state":"82d28956-15f6-478f-b407-d1df5220f543","stateCode":"104","latitude":"45.73861000","longitude":"14.72750000"},{"id":"47fc3a16-dd00-458f-973c-f207b38f9503","name":"Ribnica na Pohorju","ru":"Ribnica na Pohorju","country":"651062fe-a702-44b9-a049-13b22129dd1e","countryCode":"SI","state":"4cf302cc-8c40-4786-8dce-a5ff827b0a49","stateCode":"177","latitude":"46.53500000","longitude":"15.27278000"},{"id":"baf97654-f9a2-410a-ad01-2f25b6910177","name":"Rogaška Slatina","ru":"Rogaška Slatina","country":"651062fe-a702-44b9-a049-13b22129dd1e","countryCode":"SI","state":"64686be6-54a1-40f3-abe5-26d78228a05f","stateCode":"106","latitude":"46.23750000","longitude":"15.63972000"},{"id":"fbcaf591-0ed1-4768-8af6-614eedf32a5f","name":"Rogašovci","ru":"Rogašovci","country":"651062fe-a702-44b9-a049-13b22129dd1e","countryCode":"SI","state":"de044700-5bdc-4e89-aaa1-f45cc8604c49","stateCode":"105","latitude":"46.80000000","longitude":"16.03333000"},{"id":"eb720f5f-1e76-42a7-b517-c3b87387cde9","name":"Rogatec","ru":"Rogatec","country":"651062fe-a702-44b9-a049-13b22129dd1e","countryCode":"SI","state":"78d8f849-d223-4ee2-a22b-e7deca36bb2e","stateCode":"107","latitude":"46.22944000","longitude":"15.70028000"},{"id":"e03ccb43-e5ff-4a5f-a6d4-a1c1556aca8b","name":"Bistrica ob Dravi","ru":"Bistrica ob Dravi","country":"651062fe-a702-44b9-a049-13b22129dd1e","countryCode":"SI","state":"4e849c25-986e-48b1-8c4e-c7d2b3bd51eb","stateCode":"108","latitude":"46.55419000","longitude":"15.54855000"},{"id":"9028d205-0fa4-4b74-be3c-4510e470c822","name":"Ruše","ru":"Ruše","country":"651062fe-a702-44b9-a049-13b22129dd1e","countryCode":"SI","state":"4e849c25-986e-48b1-8c4e-c7d2b3bd51eb","stateCode":"108","latitude":"46.53944000","longitude":"15.51583000"},{"id":"9458a72d-00f1-43fb-90b3-2dfbed170c10","name":"Sežana","ru":"Sežana","country":"651062fe-a702-44b9-a049-13b22129dd1e","countryCode":"SI","state":"f5bba601-2101-4ca1-9274-dd59c053a5e0","stateCode":"111","latitude":"45.70924000","longitude":"13.87333000"},{"id":"db39be0c-726d-41ee-9bb4-9d14b1b6839f","name":"Selnica ob Dravi","ru":"Selnica ob Dravi","country":"651062fe-a702-44b9-a049-13b22129dd1e","countryCode":"SI","state":"cb69ae09-0215-463f-a232-4c4c2f3a000f","stateCode":"178","latitude":"46.55000000","longitude":"15.49500000"},{"id":"28b08ba8-5e16-4caf-b0fa-4802b5954dff","name":"Semič","ru":"Semič","country":"651062fe-a702-44b9-a049-13b22129dd1e","countryCode":"SI","state":"e3afd222-4c8a-4896-8ab9-0a359f77b759","stateCode":"109","latitude":"45.64611000","longitude":"15.18222000"},{"id":"f6fb60c6-5458-468a-8388-7ee4e73d2109","name":"Sevnica","ru":"Sevnica","country":"651062fe-a702-44b9-a049-13b22129dd1e","countryCode":"SI","state":"16bb475b-f6c0-4613-b566-84698c42f9cb","stateCode":"110","latitude":"46.00778000","longitude":"15.31556000"},{"id":"72a3e05f-45d4-4d6e-92ad-0157e2d8e836","name":"Šmartno pri Slovenj Gradcu","ru":"Šmartno pri Slovenj Gradcu","country":"651062fe-a702-44b9-a049-13b22129dd1e","countryCode":"SI","state":"524baa34-5a66-49df-bf4a-8ee08307e3c3","stateCode":"112","latitude":"46.48944000","longitude":"15.10667000"},{"id":"39e0ddbd-c905-491d-8b99-eda0dce1aee8","name":"Legen","ru":"Legen","country":"651062fe-a702-44b9-a049-13b22129dd1e","countryCode":"SI","state":"524baa34-5a66-49df-bf4a-8ee08307e3c3","stateCode":"112","latitude":"46.50651000","longitude":"15.14424000"},{"id":"a22d59ed-00c9-40e3-8c49-065254b28d3c","name":"Pameče","ru":"Pameče","country":"651062fe-a702-44b9-a049-13b22129dd1e","countryCode":"SI","state":"524baa34-5a66-49df-bf4a-8ee08307e3c3","stateCode":"112","latitude":"46.53417000","longitude":"15.07917000"},{"id":"f0707532-6b6d-4839-baf7-a17489f32d80","name":"Slovenj Gradec","ru":"Slovenj Gradec","country":"651062fe-a702-44b9-a049-13b22129dd1e","countryCode":"SI","state":"524baa34-5a66-49df-bf4a-8ee08307e3c3","stateCode":"112","latitude":"46.51028000","longitude":"15.08056000"},{"id":"94e5d6f3-16c5-4ed2-8893-e3d92524133b","name":"Pragersko","ru":"Pragersko","country":"651062fe-a702-44b9-a049-13b22129dd1e","countryCode":"SI","state":"f9dd9ca0-a3e8-488e-9382-279acf60f4f1","stateCode":"113","latitude":"46.39667000","longitude":"15.66000000"},{"id":"e3241ba6-0496-4e85-b371-d50cb556adc5","name":"Slovenska Bistrica","ru":"Slovenska Bistrica","country":"651062fe-a702-44b9-a049-13b22129dd1e","countryCode":"SI","state":"f9dd9ca0-a3e8-488e-9382-279acf60f4f1","stateCode":"113","latitude":"46.39278000","longitude":"15.57444000"},{"id":"40263151-4b05-41bc-a802-aa39b0df2233","name":"Zgornja Polskava","ru":"Zgornja Polskava","country":"651062fe-a702-44b9-a049-13b22129dd1e","countryCode":"SI","state":"f9dd9ca0-a3e8-488e-9382-279acf60f4f1","stateCode":"113","latitude":"46.42556000","longitude":"15.61222000"},{"id":"6cdf9425-74d3-4fc9-ae6f-2eb3675a51c9","name":"Slovenske Konjice","ru":"Slovenske Konjice","country":"651062fe-a702-44b9-a049-13b22129dd1e","countryCode":"SI","state":"80e6f891-df68-4d75-9cab-9b1e809e2aed","stateCode":"114","latitude":"46.33667000","longitude":"15.42583000"},{"id":"515bc606-5f20-4502-aaa8-c011960c3336","name":"Sodražica","ru":"Sodražica","country":"651062fe-a702-44b9-a049-13b22129dd1e","countryCode":"SI","state":"4931af18-dc34-4df6-8e7a-8346c04815cb","stateCode":"179","latitude":"45.76111000","longitude":"14.63556000"},{"id":"cae33be8-ddde-4816-9c62-a302f14a3b70","name":"Solčava","ru":"Solčava","country":"651062fe-a702-44b9-a049-13b22129dd1e","countryCode":"SI","state":"fd5aaf7e-220a-4e5f-be1f-ec8a01247692","stateCode":"180","latitude":"46.41944000","longitude":"14.69361000"},{"id":"ec60d254-b50a-4508-8c44-8e623a28abc8","name":"Središče ob Dravi","ru":"Središče ob Dravi","country":"651062fe-a702-44b9-a049-13b22129dd1e","countryCode":"SI","state":"7b2e303c-9e8a-4faf-9a61-0c286d9e403a","stateCode":"202","latitude":"46.39417000","longitude":"16.26806000"},{"id":"90a38ce5-3722-4b5a-9dae-bdff97c7b023","name":"Starše","ru":"Starše","country":"651062fe-a702-44b9-a049-13b22129dd1e","countryCode":"SI","state":"5eede0f3-31d7-4e9e-bc9a-d353f094cfb1","stateCode":"115","latitude":"46.46583000","longitude":"15.76722000"},{"id":"3a7f4aa7-35c2-4f51-ab06-00a757d894c6","name":"Straža","ru":"Straža","country":"651062fe-a702-44b9-a049-13b22129dd1e","countryCode":"SI","state":"47dc35e5-b603-4176-b2a3-ebb8359e39d9","stateCode":"203","latitude":"45.78000000","longitude":"15.07278000"},{"id":"a00632fb-d072-497a-8f5e-2128e2a43327","name":"Sv. Ana v Slov. Goricah","ru":"Sv. Ana v Slov. Goricah","country":"651062fe-a702-44b9-a049-13b22129dd1e","countryCode":"SI","state":"a8afa09c-9ff3-4dc0-80a3-426f95e8798b","stateCode":"181","latitude":"46.64917000","longitude":"15.84417000"},{"id":"28a43890-95ae-46e1-befe-20669c2e8b5f","name":"Sv. Trojica v Slov. Goricah","ru":"Sv. Trojica v Slov. Goricah","country":"651062fe-a702-44b9-a049-13b22129dd1e","countryCode":"SI","state":"2a629c0c-5e8a-4b0f-a0b3-05d88fdb8f49","stateCode":"204","latitude":"46.57667000","longitude":"15.87694000"},{"id":"a330de79-b3c4-4e5d-b595-6093b4166a58","name":"Vitomarci","ru":"Vitomarci","country":"651062fe-a702-44b9-a049-13b22129dd1e","countryCode":"SI","state":"f71f405e-bbcd-4b72-b439-a4327449c861","stateCode":"182","latitude":"46.52750000","longitude":"15.93944000"},{"id":"c5a87139-327c-4f39-96fb-e63538ead70f","name":"Sveti Jurij ob Ščavnici","ru":"Sveti Jurij ob Ščavnici","country":"651062fe-a702-44b9-a049-13b22129dd1e","countryCode":"SI","state":"f99d8fa6-b497-4de2-94cf-8de9229e5144","stateCode":"210","latitude":"46.56950000","longitude":"16.02347000"},{"id":"639790ac-a553-4a8f-a1c7-4ae27955e2e7","name":"Sveti Tomaž","ru":"Sveti Tomaž","country":"651062fe-a702-44b9-a049-13b22129dd1e","countryCode":"SI","state":"0134ec93-c227-4e6a-8403-f7466a8bfcf7","stateCode":"205","latitude":"46.48417000","longitude":"16.08361000"},{"id":"13d32eb5-e67e-444f-a630-9a75cf7d64de","name":"Tabor","ru":"Tabor","country":"651062fe-a702-44b9-a049-13b22129dd1e","countryCode":"SI","state":"2bf3b24e-5509-4b7f-a7d7-31289b3cc5e7","stateCode":"184","latitude":"46.23611000","longitude":"15.01833000"},{"id":"321cb008-83dc-4bac-92e0-abc2207d4fba","name":"Tišina","ru":"Tišina","country":"651062fe-a702-44b9-a049-13b22129dd1e","countryCode":"SI","state":"8f78aa55-862d-4068-b86d-064c0e27c44c","stateCode":"010","latitude":"46.65806000","longitude":"16.09167000"},{"id":"80240a30-72d4-47e6-9aa0-d68091e3b224","name":"Tolmin","ru":"Tolmin","country":"651062fe-a702-44b9-a049-13b22129dd1e","countryCode":"SI","state":"4b7bfc0c-9718-4e5d-84ed-2419836aabeb","stateCode":"128","latitude":"46.18304000","longitude":"13.73321000"},{"id":"a94ca1f9-5545-4017-b891-b6584688a1ea","name":"Bistrica pri Tržiču","ru":"Bistrica pri Tržiču","country":"651062fe-a702-44b9-a049-13b22129dd1e","countryCode":"SI","state":"6ed6816f-6d22-40f5-89b1-e57a89b35b08","stateCode":"131","latitude":"46.35472000","longitude":"14.29167000"},{"id":"f67d9e00-7702-4d42-b68b-b656b29fdae2","name":"Tržič","ru":"Tržič","country":"651062fe-a702-44b9-a049-13b22129dd1e","countryCode":"SI","state":"6ed6816f-6d22-40f5-89b1-e57a89b35b08","stateCode":"131","latitude":"46.36357000","longitude":"14.31046000"},{"id":"d1085216-e4f2-437f-beed-9c5066ae8a91","name":"Trbovlje","ru":"Trbovlje","country":"651062fe-a702-44b9-a049-13b22129dd1e","countryCode":"SI","state":"ce690bbb-4b6a-4ba3-b376-02a013004219","stateCode":"129","latitude":"46.15500000","longitude":"15.05333000"},{"id":"fcad8470-8283-4e09-9958-849870941f52","name":"Trebnje","ru":"Trebnje","country":"651062fe-a702-44b9-a049-13b22129dd1e","countryCode":"SI","state":"6d85fcaf-1343-46e4-9f25-d7cddc7c7f9c","stateCode":"130","latitude":"45.90417000","longitude":"15.02167000"},{"id":"3e3902fc-9e50-4a5d-8704-f74a35e07713","name":"Trnovska Vas","ru":"Trnovska Vas","country":"651062fe-a702-44b9-a049-13b22129dd1e","countryCode":"SI","state":"9b367c58-1324-4a2b-86f1-70dc013c77a4","stateCode":"185","latitude":"46.52019000","longitude":"15.88657000"},{"id":"221a6b23-b431-4134-9972-4d96618b3498","name":"Črnuče District","ru":"Črnuče District","country":"651062fe-a702-44b9-a049-13b22129dd1e","countryCode":"SI","state":"5d196b4d-edb8-4065-913e-ade80bb17c86","stateCode":"186","latitude":"46.11506000","longitude":"14.55371000"},{"id":"c9088547-9bd7-4ac6-8308-22f43341e36b","name":"Trzin","ru":"Trzin","country":"651062fe-a702-44b9-a049-13b22129dd1e","countryCode":"SI","state":"5d196b4d-edb8-4065-913e-ade80bb17c86","stateCode":"186","latitude":"46.13333000","longitude":"14.56667000"},{"id":"152d1b34-faec-474e-9678-ee66b370b8ce","name":"Turnišče","ru":"Turnišče","country":"651062fe-a702-44b9-a049-13b22129dd1e","countryCode":"SI","state":"7114df22-35fb-49b3-b5ec-a48e6f2ce7d0","stateCode":"132","latitude":"46.62778000","longitude":"16.32028000"},{"id":"d7dc0edb-247b-4981-bd91-7333d6a61286","name":"Velika Polana","ru":"Velika Polana","country":"651062fe-a702-44b9-a049-13b22129dd1e","countryCode":"SI","state":"c3148bb8-ddb4-4fe2-94bf-d747964e2b9d","stateCode":"187","latitude":"46.57194000","longitude":"16.34694000"},{"id":"a6781383-ff49-4776-a707-0f5675fd627e","name":"Velike Lašče","ru":"Velike Lašče","country":"651062fe-a702-44b9-a049-13b22129dd1e","countryCode":"SI","state":"8a1deacf-7911-4ac6-b109-0522a04b9adf","stateCode":"134","latitude":"45.83222000","longitude":"14.63639000"},{"id":"f85030f3-6861-4068-a126-0ed4ff40333a","name":"Veržej","ru":"Veržej","country":"651062fe-a702-44b9-a049-13b22129dd1e","countryCode":"SI","state":"c8e7e4ff-a54d-4198-94bc-cade680de5e0","stateCode":"188","latitude":"46.58361000","longitude":"16.16528000"},{"id":"e68c51bb-3730-49f1-8a4a-6530b0a1ddfe","name":"Videm pri Ptuju","ru":"Videm pri Ptuju","country":"651062fe-a702-44b9-a049-13b22129dd1e","countryCode":"SI","state":"669dabc3-8690-4afe-8cc9-ada4466ee57d","stateCode":"135","latitude":"46.36861000","longitude":"15.90639000"},{"id":"14b5b6bc-0a40-489b-849c-24ae856a3d9e","name":"Vipava","ru":"Vipava","country":"651062fe-a702-44b9-a049-13b22129dd1e","countryCode":"SI","state":"6807037f-cbec-4a43-97d3-3586b8b66439","stateCode":"136","latitude":"45.84667000","longitude":"13.96306000"},{"id":"427be088-bfef-4eb3-b2c6-bd950ec82a05","name":"Vitanje","ru":"Vitanje","country":"651062fe-a702-44b9-a049-13b22129dd1e","countryCode":"SI","state":"e71b5e6c-25d8-4383-8a5b-e44f4df59195","stateCode":"137","latitude":"46.38167000","longitude":"15.29583000"},{"id":"db11fdd6-c751-42e9-a1b6-c54d70318a16","name":"Vodice","ru":"Vodice","country":"651062fe-a702-44b9-a049-13b22129dd1e","countryCode":"SI","state":"0d775300-c198-4cbd-90fa-3fc088a65931","stateCode":"138","latitude":"46.18987000","longitude":"14.49492000"},{"id":"cd2e9466-609d-4293-a4bd-e99725647e7d","name":"Vojnik","ru":"Vojnik","country":"651062fe-a702-44b9-a049-13b22129dd1e","countryCode":"SI","state":"9869ecd2-c3d0-4f6e-ad4c-a8d955908f13","stateCode":"139","latitude":"46.29333000","longitude":"15.30333000"},{"id":"a562ce56-54e5-4125-9189-50a16e8b8ce9","name":"Vransko","ru":"Vransko","country":"651062fe-a702-44b9-a049-13b22129dd1e","countryCode":"SI","state":"817f8277-41dd-41f7-b37a-b6c78cc1e253","stateCode":"189","latitude":"46.24389000","longitude":"14.95139000"},{"id":"855bd110-919f-43bf-98e0-d06f44a18eba","name":"Verd","ru":"Verd","country":"651062fe-a702-44b9-a049-13b22129dd1e","countryCode":"SI","state":"2ecaacc6-05aa-4995-94f3-90d3dcbf7fc5","stateCode":"140","latitude":"45.95667000","longitude":"14.30583000"},{"id":"66ce9f20-4333-4e96-826f-f689182c0f5b","name":"Vrhnika","ru":"Vrhnika","country":"651062fe-a702-44b9-a049-13b22129dd1e","countryCode":"SI","state":"2ecaacc6-05aa-4995-94f3-90d3dcbf7fc5","stateCode":"140","latitude":"45.96350000","longitude":"14.29484000"},{"id":"e9b0b5c8-b04d-4050-90d0-ece264407316","name":"Vuzenica","ru":"Vuzenica","country":"651062fe-a702-44b9-a049-13b22129dd1e","countryCode":"SI","state":"25e0baf6-00c0-4d41-bafd-6de13f9b2040","stateCode":"141","latitude":"46.59639000","longitude":"15.16722000"},{"id":"69e8f32f-401d-40ae-88b8-f9e00fb834fc","name":"Izlake","ru":"Izlake","country":"651062fe-a702-44b9-a049-13b22129dd1e","countryCode":"SI","state":"37f9bb77-b7d2-4a1a-a3f5-c792e4444a48","stateCode":"142","latitude":"46.15000000","longitude":"14.95000000"},{"id":"f9b46477-b79b-4032-8d9d-8fe90bd36a6d","name":"Kisovec","ru":"Kisovec","country":"651062fe-a702-44b9-a049-13b22129dd1e","countryCode":"SI","state":"37f9bb77-b7d2-4a1a-a3f5-c792e4444a48","stateCode":"142","latitude":"46.13911000","longitude":"14.96295000"},{"id":"e8a96a38-4204-4b0a-850a-69efa5f98b01","name":"Zagorje ob Savi","ru":"Zagorje ob Savi","country":"651062fe-a702-44b9-a049-13b22129dd1e","countryCode":"SI","state":"37f9bb77-b7d2-4a1a-a3f5-c792e4444a48","stateCode":"142","latitude":"46.13179000","longitude":"14.99694000"},{"id":"f71a4dd7-7bb2-4181-83f6-6c794f06783f","name":"Zavrč","ru":"Zavrč","country":"651062fe-a702-44b9-a049-13b22129dd1e","countryCode":"SI","state":"c454c0d3-38ed-414f-8161-a1bc0eec932c","stateCode":"143","latitude":"46.39167000","longitude":"16.04972000"},{"id":"a4488c0e-3676-4acf-91b1-d3ac69767d51","name":"Zreče","ru":"Zreče","country":"651062fe-a702-44b9-a049-13b22129dd1e","countryCode":"SI","state":"ec6dac64-27f7-4933-9e7c-e94745eb0161","stateCode":"144","latitude":"46.38222000","longitude":"15.37917000"}]