[{"id":"9e98d9b0-0f72-4157-91b7-34d9325a9a2a","name":"Abrud","ru":"Abrud","country":"d57ad926-7223-4358-af4b-9d5618032a6f","countryCode":"RO","state":"e45a0bc1-86a2-45a4-a0cb-3998bc9015c3","stateCode":"AB","latitude":"46.27406000","longitude":"23.06339000"},{"id":"678f9e8c-92d2-4edc-b958-7c3c4f3d6625","name":"Abrud-Sat","ru":"Abrud-Sat","country":"d57ad926-7223-4358-af4b-9d5618032a6f","countryCode":"RO","state":"e45a0bc1-86a2-45a4-a0cb-3998bc9015c3","stateCode":"AB","latitude":"46.28166000","longitude":"23.06098000"},{"id":"b45caf41-de04-4f69-a58a-73e3d2023c89","name":"Aiud","ru":"Aiud","country":"d57ad926-7223-4358-af4b-9d5618032a6f","countryCode":"RO","state":"e45a0bc1-86a2-45a4-a0cb-3998bc9015c3","stateCode":"AB","latitude":"46.31006000","longitude":"23.72128000"},{"id":"392dab5f-707d-436e-b58a-270ae51df400","name":"Aiudul de Sus","ru":"Aiudul de Sus","country":"d57ad926-7223-4358-af4b-9d5618032a6f","countryCode":"RO","state":"e45a0bc1-86a2-45a4-a0cb-3998bc9015c3","stateCode":"AB","latitude":"46.31653000","longitude":"23.69053000"},{"id":"d54a7cf2-fae3-40ef-8857-4ad1eab6a38d","name":"Alba Iulia","ru":"Alba Iulia","country":"d57ad926-7223-4358-af4b-9d5618032a6f","countryCode":"RO","state":"e45a0bc1-86a2-45a4-a0cb-3998bc9015c3","stateCode":"AB","latitude":"46.06667000","longitude":"23.58333000"},{"id":"b0b8b8ad-10b5-4ead-8472-881dc98de1c1","name":"Albac","ru":"Albac","country":"d57ad926-7223-4358-af4b-9d5618032a6f","countryCode":"RO","state":"e45a0bc1-86a2-45a4-a0cb-3998bc9015c3","stateCode":"AB","latitude":"46.45246000","longitude":"22.95164000"},{"id":"e32f7582-813c-4f71-88ca-b45771adff2c","name":"Almaşu Mare","ru":"Almaşu Mare","country":"d57ad926-7223-4358-af4b-9d5618032a6f","countryCode":"RO","state":"e45a0bc1-86a2-45a4-a0cb-3998bc9015c3","stateCode":"AB","latitude":"46.11014000","longitude":"23.11721000"},{"id":"873cc345-a971-4790-9fc8-af7ae412d84b","name":"Arieşeni","ru":"Arieşeni","country":"d57ad926-7223-4358-af4b-9d5618032a6f","countryCode":"RO","state":"e45a0bc1-86a2-45a4-a0cb-3998bc9015c3","stateCode":"AB","latitude":"46.47641000","longitude":"22.75741000"},{"id":"c0dac101-ab41-4a57-a5b0-a300d8338b79","name":"Avram Iancu","ru":"Avram Iancu","country":"d57ad926-7223-4358-af4b-9d5618032a6f","countryCode":"RO","state":"e45a0bc1-86a2-45a4-a0cb-3998bc9015c3","stateCode":"AB","latitude":"46.38333000","longitude":"22.78333000"},{"id":"99172646-7316-449d-9fe6-b72c67de4d6d","name":"Şibot","ru":"Şibot","country":"d57ad926-7223-4358-af4b-9d5618032a6f","countryCode":"RO","state":"e45a0bc1-86a2-45a4-a0cb-3998bc9015c3","stateCode":"AB","latitude":"45.95000000","longitude":"23.33333000"},{"id":"12759f1a-7e64-4965-a347-38cce72bdac0","name":"Şona","ru":"Şona","country":"d57ad926-7223-4358-af4b-9d5618032a6f","countryCode":"RO","state":"e45a0bc1-86a2-45a4-a0cb-3998bc9015c3","stateCode":"AB","latitude":"46.21667000","longitude":"24.01667000"},{"id":"a6061aaf-32be-4acb-b19b-96f98a1964b7","name":"Şpring","ru":"Şpring","country":"d57ad926-7223-4358-af4b-9d5618032a6f","countryCode":"RO","state":"e45a0bc1-86a2-45a4-a0cb-3998bc9015c3","stateCode":"AB","latitude":"45.96667000","longitude":"23.78333000"},{"id":"fdb73cfc-c7e1-471c-aaab-cb36226d0259","name":"Şugag","ru":"Şugag","country":"d57ad926-7223-4358-af4b-9d5618032a6f","countryCode":"RO","state":"e45a0bc1-86a2-45a4-a0cb-3998bc9015c3","stateCode":"AB","latitude":"45.76667000","longitude":"23.63333000"},{"id":"344ec5d0-e0cd-4f66-8eab-49d277a12a2c","name":"Baia de Arieş","ru":"Baia de Arieş","country":"d57ad926-7223-4358-af4b-9d5618032a6f","countryCode":"RO","state":"e45a0bc1-86a2-45a4-a0cb-3998bc9015c3","stateCode":"AB","latitude":"46.38045000","longitude":"23.28115000"},{"id":"5563698b-141a-4403-91e2-3f03ad26ac1b","name":"Bălcaciu","ru":"Bălcaciu","country":"d57ad926-7223-4358-af4b-9d5618032a6f","countryCode":"RO","state":"e45a0bc1-86a2-45a4-a0cb-3998bc9015c3","stateCode":"AB","latitude":"46.19122000","longitude":"24.06139000"},{"id":"21842033-c30b-4515-a377-b23b7bd8e676","name":"Bărăbanț","ru":"Bărăbanț","country":"d57ad926-7223-4358-af4b-9d5618032a6f","countryCode":"RO","state":"e45a0bc1-86a2-45a4-a0cb-3998bc9015c3","stateCode":"AB","latitude":"46.09930000","longitude":"23.58487000"},{"id":"ad30b28a-004f-41dd-8823-5136a8fa5480","name":"Berghin","ru":"Berghin","country":"d57ad926-7223-4358-af4b-9d5618032a6f","countryCode":"RO","state":"e45a0bc1-86a2-45a4-a0cb-3998bc9015c3","stateCode":"AB","latitude":"46.07782000","longitude":"23.73742000"},{"id":"78e0a440-e4b0-40b4-b333-b17e2f228da2","name":"Biia","ru":"Biia","country":"d57ad926-7223-4358-af4b-9d5618032a6f","countryCode":"RO","state":"e45a0bc1-86a2-45a4-a0cb-3998bc9015c3","stateCode":"AB","latitude":"46.23097000","longitude":"24.00461000"},{"id":"adc7398b-6782-4595-b361-00aee29f154b","name":"Bistra","ru":"Bistra","country":"d57ad926-7223-4358-af4b-9d5618032a6f","countryCode":"RO","state":"e45a0bc1-86a2-45a4-a0cb-3998bc9015c3","stateCode":"AB","latitude":"46.37820000","longitude":"23.10081000"},{"id":"f1a4c6b3-9a66-472c-afe5-295c30dd3077","name":"Blaj","ru":"Blaj","country":"d57ad926-7223-4358-af4b-9d5618032a6f","countryCode":"RO","state":"e45a0bc1-86a2-45a4-a0cb-3998bc9015c3","stateCode":"AB","latitude":"46.17508000","longitude":"23.91578000"},{"id":"22a3019c-36f5-4bc1-b6b6-3201713b8b3f","name":"Blândiana","ru":"Blândiana","country":"d57ad926-7223-4358-af4b-9d5618032a6f","countryCode":"RO","state":"e45a0bc1-86a2-45a4-a0cb-3998bc9015c3","stateCode":"AB","latitude":"45.97943000","longitude":"23.38543000"},{"id":"6bea24a4-1f9f-4ed1-bfa3-8106604f0ccf","name":"Blideşti","ru":"Blideşti","country":"d57ad926-7223-4358-af4b-9d5618032a6f","countryCode":"RO","state":"e45a0bc1-86a2-45a4-a0cb-3998bc9015c3","stateCode":"AB","latitude":"46.30000000","longitude":"23.13333000"},{"id":"2a1a46f8-a88f-406b-96f9-ee74ce9a0619","name":"Bucerdea-Grânoasă","ru":"Bucerdea-Grânoasă","country":"d57ad926-7223-4358-af4b-9d5618032a6f","countryCode":"RO","state":"e45a0bc1-86a2-45a4-a0cb-3998bc9015c3","stateCode":"AB","latitude":"46.20000000","longitude":"23.83333000"},{"id":"3a74d3b8-fca4-42f3-9772-62594e13a649","name":"Bucium","ru":"Bucium","country":"d57ad926-7223-4358-af4b-9d5618032a6f","countryCode":"RO","state":"e45a0bc1-86a2-45a4-a0cb-3998bc9015c3","stateCode":"AB","latitude":"46.26402000","longitude":"23.17910000"},{"id":"5368894f-e968-43b6-87b1-6b927a1c4a8a","name":"Câlnic","ru":"Câlnic","country":"d57ad926-7223-4358-af4b-9d5618032a6f","countryCode":"RO","state":"e45a0bc1-86a2-45a4-a0cb-3998bc9015c3","stateCode":"AB","latitude":"45.88333000","longitude":"23.66667000"},{"id":"7e37db5b-d748-4d15-aea4-a4def6ee1689","name":"Câmpeni","ru":"Câmpeni","country":"d57ad926-7223-4358-af4b-9d5618032a6f","countryCode":"RO","state":"e45a0bc1-86a2-45a4-a0cb-3998bc9015c3","stateCode":"AB","latitude":"46.36667000","longitude":"23.05000000"},{"id":"979e79a3-c28d-4a62-ac59-62f02d359d4c","name":"Cenade","ru":"Cenade","country":"d57ad926-7223-4358-af4b-9d5618032a6f","countryCode":"RO","state":"e45a0bc1-86a2-45a4-a0cb-3998bc9015c3","stateCode":"AB","latitude":"46.05000000","longitude":"24.01667000"},{"id":"c22d2838-af24-453d-8007-e0ab4fd0af6e","name":"Cergău Mare","ru":"Cergău Mare","country":"d57ad926-7223-4358-af4b-9d5618032a6f","countryCode":"RO","state":"e45a0bc1-86a2-45a4-a0cb-3998bc9015c3","stateCode":"AB","latitude":"46.09869000","longitude":"23.92284000"},{"id":"bbfe7404-9501-4de5-9f9b-9961bd166856","name":"Cergău Mic","ru":"Cergău Mic","country":"d57ad926-7223-4358-af4b-9d5618032a6f","countryCode":"RO","state":"e45a0bc1-86a2-45a4-a0cb-3998bc9015c3","stateCode":"AB","latitude":"46.08333000","longitude":"23.93333000"},{"id":"f14cb947-6768-4e51-be47-66c1f5565543","name":"Ceru-Băcăinţi","ru":"Ceru-Băcăinţi","country":"d57ad926-7223-4358-af4b-9d5618032a6f","countryCode":"RO","state":"e45a0bc1-86a2-45a4-a0cb-3998bc9015c3","stateCode":"AB","latitude":"45.98333000","longitude":"23.25000000"},{"id":"265c967b-6896-4efb-a7dc-1b85c1de0ed7","name":"Cetatea de Baltă","ru":"Cetatea de Baltă","country":"d57ad926-7223-4358-af4b-9d5618032a6f","countryCode":"RO","state":"e45a0bc1-86a2-45a4-a0cb-3998bc9015c3","stateCode":"AB","latitude":"46.24794000","longitude":"24.17244000"},{"id":"09617ceb-d7d5-469f-b17a-f66445580af7","name":"Ciugud","ru":"Ciugud","country":"d57ad926-7223-4358-af4b-9d5618032a6f","countryCode":"RO","state":"e45a0bc1-86a2-45a4-a0cb-3998bc9015c3","stateCode":"AB","latitude":"46.05000000","longitude":"23.61667000"},{"id":"4b2f396d-e447-49e2-bed3-6ca232b91f1b","name":"Ciumbrud","ru":"Ciumbrud","country":"d57ad926-7223-4358-af4b-9d5618032a6f","countryCode":"RO","state":"e45a0bc1-86a2-45a4-a0cb-3998bc9015c3","stateCode":"AB","latitude":"46.30810000","longitude":"23.76222000"},{"id":"4b04a083-d9b4-450f-b6f0-38335bce8b2e","name":"Ciuruleasa","ru":"Ciuruleasa","country":"d57ad926-7223-4358-af4b-9d5618032a6f","countryCode":"RO","state":"e45a0bc1-86a2-45a4-a0cb-3998bc9015c3","stateCode":"AB","latitude":"46.25000000","longitude":"23.03333000"},{"id":"91b1d29e-c03d-42d0-bea0-1078545e6dcb","name":"Comuna Albac","ru":"Comuna Albac","country":"d57ad926-7223-4358-af4b-9d5618032a6f","countryCode":"RO","state":"e45a0bc1-86a2-45a4-a0cb-3998bc9015c3","stateCode":"AB","latitude":"46.45246000","longitude":"22.95027000"},{"id":"20f0c947-dcfa-4692-b68c-cb66d11769fe","name":"Comuna Almaşu Mare","ru":"Comuna Almaşu Mare","country":"d57ad926-7223-4358-af4b-9d5618032a6f","countryCode":"RO","state":"e45a0bc1-86a2-45a4-a0cb-3998bc9015c3","stateCode":"AB","latitude":"46.10877000","longitude":"23.12038000"},{"id":"700473f2-e2e2-4805-9092-093bd8d10d32","name":"Comuna Arieşeni","ru":"Comuna Arieşeni","country":"d57ad926-7223-4358-af4b-9d5618032a6f","countryCode":"RO","state":"e45a0bc1-86a2-45a4-a0cb-3998bc9015c3","stateCode":"AB","latitude":"46.47659000","longitude":"22.75535000"},{"id":"734ecd51-ecc9-4ab4-b155-8a7ad3372cfe","name":"Comuna Avram Iancu","ru":"Comuna Avram Iancu","country":"d57ad926-7223-4358-af4b-9d5618032a6f","countryCode":"RO","state":"e45a0bc1-86a2-45a4-a0cb-3998bc9015c3","stateCode":"AB","latitude":"46.38333000","longitude":"22.78333000"},{"id":"e7cfe837-c56c-4b11-aa3c-1a54f6b8a419","name":"Comuna Şibot","ru":"Comuna Şibot","country":"d57ad926-7223-4358-af4b-9d5618032a6f","countryCode":"RO","state":"e45a0bc1-86a2-45a4-a0cb-3998bc9015c3","stateCode":"AB","latitude":"45.94093000","longitude":"23.32226000"},{"id":"93ac2869-8e9a-415f-a033-544fe3fdf7f2","name":"Comuna Întregalde","ru":"Comuna Întregalde","country":"d57ad926-7223-4358-af4b-9d5618032a6f","countryCode":"RO","state":"e45a0bc1-86a2-45a4-a0cb-3998bc9015c3","stateCode":"AB","latitude":"46.24908000","longitude":"23.39213000"},{"id":"2e6749f1-3c4e-4ea8-b4ed-294207313b6e","name":"Comuna Şona","ru":"Comuna Şona","country":"d57ad926-7223-4358-af4b-9d5618032a6f","countryCode":"RO","state":"e45a0bc1-86a2-45a4-a0cb-3998bc9015c3","stateCode":"AB","latitude":"46.25089000","longitude":"24.00259000"},{"id":"92b3ae46-02e2-4747-a5f6-bb965d5ad08f","name":"Comuna Şpring","ru":"Comuna Şpring","country":"d57ad926-7223-4358-af4b-9d5618032a6f","countryCode":"RO","state":"e45a0bc1-86a2-45a4-a0cb-3998bc9015c3","stateCode":"AB","latitude":"45.96833000","longitude":"23.73449000"},{"id":"9696506c-6acf-42aa-9edc-122a437aa384","name":"Comuna Şugag","ru":"Comuna Şugag","country":"d57ad926-7223-4358-af4b-9d5618032a6f","countryCode":"RO","state":"e45a0bc1-86a2-45a4-a0cb-3998bc9015c3","stateCode":"AB","latitude":"45.74780000","longitude":"23.59957000"},{"id":"11487c1b-5726-4621-88f5-7955adb5cea4","name":"Comuna Berghin","ru":"Comuna Berghin","country":"d57ad926-7223-4358-af4b-9d5618032a6f","countryCode":"RO","state":"e45a0bc1-86a2-45a4-a0cb-3998bc9015c3","stateCode":"AB","latitude":"46.07484000","longitude":"23.73768000"},{"id":"65d184fa-8b5e-48fb-b1b1-d6bf21835c2a","name":"Comuna Bistra","ru":"Comuna Bistra","country":"d57ad926-7223-4358-af4b-9d5618032a6f","countryCode":"RO","state":"e45a0bc1-86a2-45a4-a0cb-3998bc9015c3","stateCode":"AB","latitude":"46.37856000","longitude":"23.10150000"},{"id":"26ef7408-fdf1-48d4-97fd-cc5ddfa50473","name":"Comuna Blândiana","ru":"Comuna Blândiana","country":"d57ad926-7223-4358-af4b-9d5618032a6f","countryCode":"RO","state":"e45a0bc1-86a2-45a4-a0cb-3998bc9015c3","stateCode":"AB","latitude":"45.98146000","longitude":"23.38543000"},{"id":"4d750b20-c1f2-4e51-ba32-6ffae3df957e","name":"Comuna Bucerdea-Grânoasă","ru":"Comuna Bucerdea-Grânoasă","country":"d57ad926-7223-4358-af4b-9d5618032a6f","countryCode":"RO","state":"e45a0bc1-86a2-45a4-a0cb-3998bc9015c3","stateCode":"AB","latitude":"46.20878000","longitude":"23.85614000"},{"id":"6032a1e4-7d38-48e4-bd76-8250884be498","name":"Comuna Bucium","ru":"Comuna Bucium","country":"d57ad926-7223-4358-af4b-9d5618032a6f","countryCode":"RO","state":"e45a0bc1-86a2-45a4-a0cb-3998bc9015c3","stateCode":"AB","latitude":"46.26131000","longitude":"23.15742000"},{"id":"03811056-6e90-4e3d-b0f2-c5d363f1d782","name":"Comuna Câlnic","ru":"Comuna Câlnic","country":"d57ad926-7223-4358-af4b-9d5618032a6f","countryCode":"RO","state":"e45a0bc1-86a2-45a4-a0cb-3998bc9015c3","stateCode":"AB","latitude":"45.87305000","longitude":"23.64329000"},{"id":"504e9573-84a7-4fa8-ba74-3441d6dccf4b","name":"Comuna Cenade","ru":"Comuna Cenade","country":"d57ad926-7223-4358-af4b-9d5618032a6f","countryCode":"RO","state":"e45a0bc1-86a2-45a4-a0cb-3998bc9015c3","stateCode":"AB","latitude":"46.08045000","longitude":"24.01382000"},{"id":"7cdfc03e-1ec0-4c11-b09c-43825c0bdb6d","name":"Comuna Cergău","ru":"Comuna Cergău","country":"d57ad926-7223-4358-af4b-9d5618032a6f","countryCode":"RO","state":"e45a0bc1-86a2-45a4-a0cb-3998bc9015c3","stateCode":"AB","latitude":"46.09314000","longitude":"23.94597000"},{"id":"a5514408-cbc9-46f0-b4b7-6433564913cc","name":"Comuna Ceru-Băcăinţi","ru":"Comuna Ceru-Băcăinţi","country":"d57ad926-7223-4358-af4b-9d5618032a6f","countryCode":"RO","state":"e45a0bc1-86a2-45a4-a0cb-3998bc9015c3","stateCode":"AB","latitude":"46.00117000","longitude":"23.26983000"},{"id":"5ac03b04-5ef9-4f7f-a115-1124da9a18ae","name":"Comuna Cetatea de Baltă","ru":"Comuna Cetatea de Baltă","country":"d57ad926-7223-4358-af4b-9d5618032a6f","countryCode":"RO","state":"e45a0bc1-86a2-45a4-a0cb-3998bc9015c3","stateCode":"AB","latitude":"46.21619000","longitude":"24.16716000"},{"id":"d0c2559b-1f3e-4098-89f5-74cb63e29c0c","name":"Comuna Ciugud","ru":"Comuna Ciugud","country":"d57ad926-7223-4358-af4b-9d5618032a6f","countryCode":"RO","state":"e45a0bc1-86a2-45a4-a0cb-3998bc9015c3","stateCode":"AB","latitude":"46.06526000","longitude":"23.62794000"},{"id":"a1fe9098-20cb-4f7c-bb64-87356abf8756","name":"Comuna Ciuruleasa","ru":"Comuna Ciuruleasa","country":"d57ad926-7223-4358-af4b-9d5618032a6f","countryCode":"RO","state":"e45a0bc1-86a2-45a4-a0cb-3998bc9015c3","stateCode":"AB","latitude":"46.24481000","longitude":"23.01644000"},{"id":"f00bb6e0-2821-4826-b387-7269629ad923","name":"Comuna Crăciunelu de Jos","ru":"Comuna Crăciunelu de Jos","country":"d57ad926-7223-4358-af4b-9d5618032a6f","countryCode":"RO","state":"e45a0bc1-86a2-45a4-a0cb-3998bc9015c3","stateCode":"AB","latitude":"46.17285000","longitude":"23.83585000"},{"id":"199e3320-0b81-4572-8b79-a74d8f0700f2","name":"Comuna Cricău","ru":"Comuna Cricău","country":"d57ad926-7223-4358-af4b-9d5618032a6f","countryCode":"RO","state":"e45a0bc1-86a2-45a4-a0cb-3998bc9015c3","stateCode":"AB","latitude":"46.18689000","longitude":"23.55309000"},{"id":"64fdfd66-8085-4b53-ad80-13fa14af9796","name":"Comuna Cut","ru":"Comuna Cut","country":"d57ad926-7223-4358-af4b-9d5618032a6f","countryCode":"RO","state":"e45a0bc1-86a2-45a4-a0cb-3998bc9015c3","stateCode":"AB","latitude":"45.93972000","longitude":"23.66719000"},{"id":"3d96c101-4186-4cce-bedb-ec8260894a27","name":"Comuna Daia Română","ru":"Comuna Daia Română","country":"d57ad926-7223-4358-af4b-9d5618032a6f","countryCode":"RO","state":"e45a0bc1-86a2-45a4-a0cb-3998bc9015c3","stateCode":"AB","latitude":"46.00709000","longitude":"23.66816000"},{"id":"14ce5c84-37a8-49aa-b644-51dfb2d388e2","name":"Comuna Doştat","ru":"Comuna Doştat","country":"d57ad926-7223-4358-af4b-9d5618032a6f","countryCode":"RO","state":"e45a0bc1-86a2-45a4-a0cb-3998bc9015c3","stateCode":"AB","latitude":"45.96143000","longitude":"23.83313000"},{"id":"b7c92350-c0e2-4982-b181-c0266a8d77eb","name":"Comuna Fărău","ru":"Comuna Fărău","country":"d57ad926-7223-4358-af4b-9d5618032a6f","countryCode":"RO","state":"e45a0bc1-86a2-45a4-a0cb-3998bc9015c3","stateCode":"AB","latitude":"46.32999000","longitude":"24.04335000"},{"id":"41210daa-989c-4c1d-b5a8-3e608d5f0b15","name":"Comuna Galda de Jos","ru":"Comuna Galda de Jos","country":"d57ad926-7223-4358-af4b-9d5618032a6f","countryCode":"RO","state":"e45a0bc1-86a2-45a4-a0cb-3998bc9015c3","stateCode":"AB","latitude":"46.21776000","longitude":"23.56918000"},{"id":"16fb2a4d-5948-4607-ae2a-4eff46ca1689","name":"Comuna Gârbova","ru":"Comuna Gârbova","country":"d57ad926-7223-4358-af4b-9d5618032a6f","countryCode":"RO","state":"e45a0bc1-86a2-45a4-a0cb-3998bc9015c3","stateCode":"AB","latitude":"45.85277000","longitude":"23.68693000"},{"id":"5a71fb8e-d2a5-4318-bc4b-c5c5f65a535c","name":"Comuna Gârda de Sus","ru":"Comuna Gârda de Sus","country":"d57ad926-7223-4358-af4b-9d5618032a6f","countryCode":"RO","state":"e45a0bc1-86a2-45a4-a0cb-3998bc9015c3","stateCode":"AB","latitude":"46.46719000","longitude":"22.81519000"},{"id":"f80d724f-28af-47dd-ad7f-47762f106738","name":"Comuna Hopârta","ru":"Comuna Hopârta","country":"d57ad926-7223-4358-af4b-9d5618032a6f","countryCode":"RO","state":"e45a0bc1-86a2-45a4-a0cb-3998bc9015c3","stateCode":"AB","latitude":"46.33134000","longitude":"23.90340000"},{"id":"7d2aa305-7158-48d1-9204-6ff99b55a9c3","name":"Comuna Horea","ru":"Comuna Horea","country":"d57ad926-7223-4358-af4b-9d5618032a6f","countryCode":"RO","state":"e45a0bc1-86a2-45a4-a0cb-3998bc9015c3","stateCode":"AB","latitude":"46.50058000","longitude":"22.94915000"},{"id":"545d41d1-dec7-4173-bea1-67b9e982cc1b","name":"Comuna Ighiu","ru":"Comuna Ighiu","country":"d57ad926-7223-4358-af4b-9d5618032a6f","countryCode":"RO","state":"e45a0bc1-86a2-45a4-a0cb-3998bc9015c3","stateCode":"AB","latitude":"46.14854000","longitude":"23.51232000"},{"id":"7e517ae5-7a39-4ce4-ae34-7fecd715188e","name":"Comuna Jidvei","ru":"Comuna Jidvei","country":"d57ad926-7223-4358-af4b-9d5618032a6f","countryCode":"RO","state":"e45a0bc1-86a2-45a4-a0cb-3998bc9015c3","stateCode":"AB","latitude":"46.23083000","longitude":"24.11475000"},{"id":"4cfedbb9-8e61-420c-8095-e975f2f31e0c","name":"Comuna Livezile","ru":"Comuna Livezile","country":"d57ad926-7223-4358-af4b-9d5618032a6f","countryCode":"RO","state":"e45a0bc1-86a2-45a4-a0cb-3998bc9015c3","stateCode":"AB","latitude":"46.37559000","longitude":"23.58563000"},{"id":"48da3702-8f51-45be-9a48-690f2e859066","name":"Comuna Lopadea Nouă","ru":"Comuna Lopadea Nouă","country":"d57ad926-7223-4358-af4b-9d5618032a6f","countryCode":"RO","state":"e45a0bc1-86a2-45a4-a0cb-3998bc9015c3","stateCode":"AB","latitude":"46.27782000","longitude":"23.84975000"},{"id":"5c08c2d1-0a92-4ef9-ad8e-d8fb4eb28eee","name":"Comuna Lunca Mureşului","ru":"Comuna Lunca Mureşului","country":"d57ad926-7223-4358-af4b-9d5618032a6f","countryCode":"RO","state":"e45a0bc1-86a2-45a4-a0cb-3998bc9015c3","stateCode":"AB","latitude":"46.42943000","longitude":"23.93272000"},{"id":"376cbad8-75b2-4586-9326-218b4399d53c","name":"Comuna Lupşa","ru":"Comuna Lupşa","country":"d57ad926-7223-4358-af4b-9d5618032a6f","countryCode":"RO","state":"e45a0bc1-86a2-45a4-a0cb-3998bc9015c3","stateCode":"AB","latitude":"46.34891000","longitude":"23.20455000"},{"id":"659d08ef-cc62-4edf-9ff0-7cbb1d50471a","name":"Comuna Meteş","ru":"Comuna Meteş","country":"d57ad926-7223-4358-af4b-9d5618032a6f","countryCode":"RO","state":"e45a0bc1-86a2-45a4-a0cb-3998bc9015c3","stateCode":"AB","latitude":"46.10543000","longitude":"23.41707000"},{"id":"3a3072ad-589c-40ea-aec4-32e9092876a2","name":"Comuna Mihalţ","ru":"Comuna Mihalţ","country":"d57ad926-7223-4358-af4b-9d5618032a6f","countryCode":"RO","state":"e45a0bc1-86a2-45a4-a0cb-3998bc9015c3","stateCode":"AB","latitude":"46.17641000","longitude":"23.73841000"},{"id":"e3a65e99-62cb-4cbc-b34b-23e1cb6197d9","name":"Comuna Mirăslău","ru":"Comuna Mirăslău","country":"d57ad926-7223-4358-af4b-9d5618032a6f","countryCode":"RO","state":"e45a0bc1-86a2-45a4-a0cb-3998bc9015c3","stateCode":"AB","latitude":"46.38660000","longitude":"23.69329000"},{"id":"7d524cfe-92c9-4d6f-af8a-071d3abc92e9","name":"Comuna Mogoş","ru":"Comuna Mogoş","country":"d57ad926-7223-4358-af4b-9d5618032a6f","countryCode":"RO","state":"e45a0bc1-86a2-45a4-a0cb-3998bc9015c3","stateCode":"AB","latitude":"46.28356000","longitude":"23.31873000"},{"id":"54c15ddd-ab11-4bf8-a9c2-af52a3e1e896","name":"Comuna Noşlac","ru":"Comuna Noşlac","country":"d57ad926-7223-4358-af4b-9d5618032a6f","countryCode":"RO","state":"e45a0bc1-86a2-45a4-a0cb-3998bc9015c3","stateCode":"AB","latitude":"46.41300000","longitude":"23.97668000"},{"id":"9c3d4688-eb0c-4027-867a-2ecdf6431c4c","name":"Comuna Ocoliş","ru":"Comuna Ocoliş","country":"d57ad926-7223-4358-af4b-9d5618032a6f","countryCode":"RO","state":"e45a0bc1-86a2-45a4-a0cb-3998bc9015c3","stateCode":"AB","latitude":"46.49636000","longitude":"23.46581000"},{"id":"2b96a483-d892-4476-bb3d-ccd2f0d96d63","name":"Comuna Ohaba","ru":"Comuna Ohaba","country":"d57ad926-7223-4358-af4b-9d5618032a6f","countryCode":"RO","state":"e45a0bc1-86a2-45a4-a0cb-3998bc9015c3","stateCode":"AB","latitude":"46.08263000","longitude":"23.80106000"},{"id":"d6a9135d-60a9-4180-aa64-9cf2fee3d881","name":"Comuna Pianu","ru":"Comuna Pianu","country":"d57ad926-7223-4358-af4b-9d5618032a6f","countryCode":"RO","state":"e45a0bc1-86a2-45a4-a0cb-3998bc9015c3","stateCode":"AB","latitude":"45.87127000","longitude":"23.49549000"},{"id":"8dca6c9a-291f-4e0d-82b3-5ef0e3572e51","name":"Comuna Poşaga","ru":"Comuna Poşaga","country":"d57ad926-7223-4358-af4b-9d5618032a6f","countryCode":"RO","state":"e45a0bc1-86a2-45a4-a0cb-3998bc9015c3","stateCode":"AB","latitude":"46.45354000","longitude":"23.36115000"},{"id":"732dfa1f-66b1-4849-86a1-e834999e53e6","name":"Comuna Poiana Vadului","ru":"Comuna Poiana Vadului","country":"d57ad926-7223-4358-af4b-9d5618032a6f","countryCode":"RO","state":"e45a0bc1-86a2-45a4-a0cb-3998bc9015c3","stateCode":"AB","latitude":"46.40457000","longitude":"22.87080000"},{"id":"9ae87336-03be-4907-98c5-a6b975900531","name":"Comuna Ponor","ru":"Comuna Ponor","country":"d57ad926-7223-4358-af4b-9d5618032a6f","countryCode":"RO","state":"e45a0bc1-86a2-45a4-a0cb-3998bc9015c3","stateCode":"AB","latitude":"46.32065000","longitude":"23.40376000"},{"id":"c7d5590c-4626-49ca-9939-59c968d1d7b4","name":"Comuna Râmeţ","ru":"Comuna Râmeţ","country":"d57ad926-7223-4358-af4b-9d5618032a6f","countryCode":"RO","state":"e45a0bc1-86a2-45a4-a0cb-3998bc9015c3","stateCode":"AB","latitude":"46.31564000","longitude":"23.52602000"},{"id":"1ca5ee8d-4db7-4894-b949-e25800a97625","name":"Comuna Râmetea","ru":"Comuna Râmetea","country":"d57ad926-7223-4358-af4b-9d5618032a6f","countryCode":"RO","state":"e45a0bc1-86a2-45a4-a0cb-3998bc9015c3","stateCode":"AB","latitude":"46.43815000","longitude":"23.56579000"},{"id":"dd7c2dcb-ab7b-48b5-b047-d87a49bb001c","name":"Comuna Rădeşti","ru":"Comuna Rădeşti","country":"d57ad926-7223-4358-af4b-9d5618032a6f","countryCode":"RO","state":"e45a0bc1-86a2-45a4-a0cb-3998bc9015c3","stateCode":"AB","latitude":"46.24931000","longitude":"23.74444000"},{"id":"4cf86ae0-0fe0-4336-9065-086700abaecc","name":"Comuna Roşia de Secaş","ru":"Comuna Roşia de Secaş","country":"d57ad926-7223-4358-af4b-9d5618032a6f","countryCode":"RO","state":"e45a0bc1-86a2-45a4-a0cb-3998bc9015c3","stateCode":"AB","latitude":"46.04807000","longitude":"23.85329000"},{"id":"b14404fe-c59e-42ba-8d6c-e7d5b846e31a","name":"Comuna Roşia Montană","ru":"Comuna Roşia Montană","country":"d57ad926-7223-4358-af4b-9d5618032a6f","countryCode":"RO","state":"e45a0bc1-86a2-45a4-a0cb-3998bc9015c3","stateCode":"AB","latitude":"46.30991000","longitude":"23.08697000"},{"id":"a94467dd-8887-41a3-b3cb-6a31390c2eea","name":"Comuna Sâncel","ru":"Comuna Sâncel","country":"d57ad926-7223-4358-af4b-9d5618032a6f","countryCode":"RO","state":"e45a0bc1-86a2-45a4-a0cb-3998bc9015c3","stateCode":"AB","latitude":"46.21176000","longitude":"23.94791000"},{"id":"61514cce-d132-4524-8a06-20bdaa193c6c","name":"Comuna Sântimbru","ru":"Comuna Sântimbru","country":"d57ad926-7223-4358-af4b-9d5618032a6f","countryCode":"RO","state":"e45a0bc1-86a2-45a4-a0cb-3998bc9015c3","stateCode":"AB","latitude":"46.12974000","longitude":"23.66899000"},{"id":"7d9d541b-d7ad-4ec9-ad54-04713f61b96d","name":"Comuna Sãliştea","ru":"Comuna Sãliştea","country":"d57ad926-7223-4358-af4b-9d5618032a6f","countryCode":"RO","state":"e45a0bc1-86a2-45a4-a0cb-3998bc9015c3","stateCode":"AB","latitude":"45.91425000","longitude":"23.41294000"},{"id":"529b24fe-f970-4b51-9be1-47206907db1b","name":"Comuna Sălciua","ru":"Comuna Sălciua","country":"d57ad926-7223-4358-af4b-9d5618032a6f","countryCode":"RO","state":"e45a0bc1-86a2-45a4-a0cb-3998bc9015c3","stateCode":"AB","latitude":"46.38261000","longitude":"23.41526000"},{"id":"5b3fa325-9d38-4547-bae2-579c954f38d8","name":"Comuna Săsciori","ru":"Comuna Săsciori","country":"d57ad926-7223-4358-af4b-9d5618032a6f","countryCode":"RO","state":"e45a0bc1-86a2-45a4-a0cb-3998bc9015c3","stateCode":"AB","latitude":"45.85629000","longitude":"23.56898000"},{"id":"cd833810-9d0d-4dc5-ade5-ace9bbe6bb78","name":"Comuna Scărişoara","ru":"Comuna Scărişoara","country":"d57ad926-7223-4358-af4b-9d5618032a6f","countryCode":"RO","state":"e45a0bc1-86a2-45a4-a0cb-3998bc9015c3","stateCode":"AB","latitude":"46.46072000","longitude":"22.88166000"},{"id":"ef506645-6f8e-4b25-b16a-9976400b2c19","name":"Comuna Sohodol","ru":"Comuna Sohodol","country":"d57ad926-7223-4358-af4b-9d5618032a6f","countryCode":"RO","state":"e45a0bc1-86a2-45a4-a0cb-3998bc9015c3","stateCode":"AB","latitude":"46.32748000","longitude":"22.99414000"},{"id":"cfc0bd22-e22f-4f9e-bf7f-b0e1d220b4a8","name":"Comuna Stremţ","ru":"Comuna Stremţ","country":"d57ad926-7223-4358-af4b-9d5618032a6f","countryCode":"RO","state":"e45a0bc1-86a2-45a4-a0cb-3998bc9015c3","stateCode":"AB","latitude":"46.25606000","longitude":"23.59340000"},{"id":"31877f57-e9bb-4008-908d-3e444205c7f5","name":"Comuna Unirea","ru":"Comuna Unirea","country":"d57ad926-7223-4358-af4b-9d5618032a6f","countryCode":"RO","state":"e45a0bc1-86a2-45a4-a0cb-3998bc9015c3","stateCode":"AB","latitude":"46.41948000","longitude":"23.76260000"},{"id":"1f1ac177-c175-4d88-b722-f7c7d6132b96","name":"Comuna Vadu Moţilor","ru":"Comuna Vadu Moţilor","country":"d57ad926-7223-4358-af4b-9d5618032a6f","countryCode":"RO","state":"e45a0bc1-86a2-45a4-a0cb-3998bc9015c3","stateCode":"AB","latitude":"46.40910000","longitude":"22.95532000"},{"id":"94eae16d-095d-42a8-a1cf-7cba49f06b11","name":"Comuna Valea Lungă","ru":"Comuna Valea Lungă","country":"d57ad926-7223-4358-af4b-9d5618032a6f","countryCode":"RO","state":"e45a0bc1-86a2-45a4-a0cb-3998bc9015c3","stateCode":"AB","latitude":"46.13355000","longitude":"24.08280000"},{"id":"28901200-f238-46ca-baa4-fe72d62e8391","name":"Comuna Vidra","ru":"Comuna Vidra","country":"d57ad926-7223-4358-af4b-9d5618032a6f","countryCode":"RO","state":"e45a0bc1-86a2-45a4-a0cb-3998bc9015c3","stateCode":"AB","latitude":"46.37067000","longitude":"22.92726000"},{"id":"88b76f60-3549-4d3c-90aa-993d0854b718","name":"Comuna Vinţu de Jos","ru":"Comuna Vinţu de Jos","country":"d57ad926-7223-4358-af4b-9d5618032a6f","countryCode":"RO","state":"e45a0bc1-86a2-45a4-a0cb-3998bc9015c3","stateCode":"AB","latitude":"46.02229000","longitude":"23.45647000"},{"id":"5a7ee0a3-3673-48e0-9739-ed75ff5637e2","name":"Crăciunelu de Jos","ru":"Crăciunelu de Jos","country":"d57ad926-7223-4358-af4b-9d5618032a6f","countryCode":"RO","state":"e45a0bc1-86a2-45a4-a0cb-3998bc9015c3","stateCode":"AB","latitude":"46.18333000","longitude":"23.83333000"},{"id":"62fb39b8-bda5-4c48-a433-46ef8d9162b6","name":"Cricău","ru":"Cricău","country":"d57ad926-7223-4358-af4b-9d5618032a6f","countryCode":"RO","state":"e45a0bc1-86a2-45a4-a0cb-3998bc9015c3","stateCode":"AB","latitude":"46.18333000","longitude":"23.56667000"},{"id":"c859896e-558f-44d5-9ed7-a376c392da7c","name":"Cugir","ru":"Cugir","country":"d57ad926-7223-4358-af4b-9d5618032a6f","countryCode":"RO","state":"e45a0bc1-86a2-45a4-a0cb-3998bc9015c3","stateCode":"AB","latitude":"45.83651000","longitude":"23.36998000"},{"id":"25aad8b8-d80b-4734-92b9-99c927fba75a","name":"Cut","ru":"Cut","country":"d57ad926-7223-4358-af4b-9d5618032a6f","countryCode":"RO","state":"e45a0bc1-86a2-45a4-a0cb-3998bc9015c3","stateCode":"AB","latitude":"45.93972000","longitude":"23.66719000"},{"id":"9600cbfb-a70d-4b08-b670-6a4715486dc7","name":"Daia Română","ru":"Daia Română","country":"d57ad926-7223-4358-af4b-9d5618032a6f","countryCode":"RO","state":"e45a0bc1-86a2-45a4-a0cb-3998bc9015c3","stateCode":"AB","latitude":"46.01667000","longitude":"23.66667000"},{"id":"ae7d09a0-cdb6-4fc9-a3d3-157f33c31448","name":"Doştat","ru":"Doştat","country":"d57ad926-7223-4358-af4b-9d5618032a6f","countryCode":"RO","state":"e45a0bc1-86a2-45a4-a0cb-3998bc9015c3","stateCode":"AB","latitude":"45.96667000","longitude":"23.85000000"},{"id":"2377e37c-ff11-401e-9a49-d729653d3abf","name":"Dobra","ru":"Dobra","country":"d57ad926-7223-4358-af4b-9d5618032a6f","countryCode":"RO","state":"e45a0bc1-86a2-45a4-a0cb-3998bc9015c3","stateCode":"AB","latitude":"45.76913000","longitude":"23.64218000"},{"id":"4f84f03e-f7f5-47d7-bd8e-4fa7d20f7a79","name":"Țelna","ru":"Țelna","country":"d57ad926-7223-4358-af4b-9d5618032a6f","countryCode":"RO","state":"e45a0bc1-86a2-45a4-a0cb-3998bc9015c3","stateCode":"AB","latitude":"46.15902000","longitude":"23.50099000"},{"id":"bdea61ad-fe3d-4b3f-9dd5-59bd4f49f827","name":"Șard","ru":"Șard","country":"d57ad926-7223-4358-af4b-9d5618032a6f","countryCode":"RO","state":"e45a0bc1-86a2-45a4-a0cb-3998bc9015c3","stateCode":"AB","latitude":"46.12814000","longitude":"23.53520000"},{"id":"87f39945-affc-48d7-8aa0-49287b44cb0b","name":"Fărău","ru":"Fărău","country":"d57ad926-7223-4358-af4b-9d5618032a6f","countryCode":"RO","state":"e45a0bc1-86a2-45a4-a0cb-3998bc9015c3","stateCode":"AB","latitude":"46.33333000","longitude":"24.01667000"},{"id":"ce35a20c-fa14-4163-acb6-9f381054d05b","name":"Feisa","ru":"Feisa","country":"d57ad926-7223-4358-af4b-9d5618032a6f","countryCode":"RO","state":"e45a0bc1-86a2-45a4-a0cb-3998bc9015c3","stateCode":"AB","latitude":"46.22608000","longitude":"24.14492000"},{"id":"ce90ad33-1b60-44af-8035-3dd311c7a477","name":"Feneș","ru":"Feneș","country":"d57ad926-7223-4358-af4b-9d5618032a6f","countryCode":"RO","state":"e45a0bc1-86a2-45a4-a0cb-3998bc9015c3","stateCode":"AB","latitude":"46.10431000","longitude":"23.29511000"},{"id":"87458d61-5ad0-44bd-b934-ee9f3bdf7c0e","name":"Galda de Jos","ru":"Galda de Jos","country":"d57ad926-7223-4358-af4b-9d5618032a6f","countryCode":"RO","state":"e45a0bc1-86a2-45a4-a0cb-3998bc9015c3","stateCode":"AB","latitude":"46.18333000","longitude":"23.61667000"},{"id":"b67b9af5-e730-45c2-9c15-e91155f738e3","name":"Gârbova","ru":"Gârbova","country":"d57ad926-7223-4358-af4b-9d5618032a6f","countryCode":"RO","state":"e45a0bc1-86a2-45a4-a0cb-3998bc9015c3","stateCode":"AB","latitude":"45.86667000","longitude":"23.73333000"},{"id":"3d85ea4d-59dd-4bb6-acbc-db633bd65bb0","name":"Gârda de Sus","ru":"Gârda de Sus","country":"d57ad926-7223-4358-af4b-9d5618032a6f","countryCode":"RO","state":"e45a0bc1-86a2-45a4-a0cb-3998bc9015c3","stateCode":"AB","latitude":"46.45000000","longitude":"22.81667000"},{"id":"b8eb92ce-451e-498a-9bb4-8c1bfabec06a","name":"Hopârta","ru":"Hopârta","country":"d57ad926-7223-4358-af4b-9d5618032a6f","countryCode":"RO","state":"e45a0bc1-86a2-45a4-a0cb-3998bc9015c3","stateCode":"AB","latitude":"46.32134000","longitude":"23.87244000"},{"id":"08893b42-ac63-4fac-afc6-667a9bd9aef5","name":"Horea","ru":"Horea","country":"d57ad926-7223-4358-af4b-9d5618032a6f","countryCode":"RO","state":"e45a0bc1-86a2-45a4-a0cb-3998bc9015c3","stateCode":"AB","latitude":"46.50246000","longitude":"22.95034000"},{"id":"071d4bdf-fcf4-451c-8178-b66bcf47c06d","name":"Ighiel","ru":"Ighiel","country":"d57ad926-7223-4358-af4b-9d5618032a6f","countryCode":"RO","state":"e45a0bc1-86a2-45a4-a0cb-3998bc9015c3","stateCode":"AB","latitude":"46.14680000","longitude":"23.47968000"},{"id":"d4a6d12b-a5fe-4112-bd6f-7688ad92ef22","name":"Ighiu","ru":"Ighiu","country":"d57ad926-7223-4358-af4b-9d5618032a6f","countryCode":"RO","state":"e45a0bc1-86a2-45a4-a0cb-3998bc9015c3","stateCode":"AB","latitude":"46.15000000","longitude":"23.51667000"},{"id":"68786253-4256-4cb5-a055-0e2aff1a3430","name":"Intregalde","ru":"Intregalde","country":"d57ad926-7223-4358-af4b-9d5618032a6f","countryCode":"RO","state":"e45a0bc1-86a2-45a4-a0cb-3998bc9015c3","stateCode":"AB","latitude":"46.25000000","longitude":"23.41667000"},{"id":"d5826e39-f477-4f45-b724-d071f0ec37cc","name":"Izvoarele","ru":"Izvoarele","country":"d57ad926-7223-4358-af4b-9d5618032a6f","countryCode":"RO","state":"e45a0bc1-86a2-45a4-a0cb-3998bc9015c3","stateCode":"AB","latitude":"46.17011000","longitude":"23.90377000"},{"id":"bfe1d522-f7de-4183-8108-47589458614f","name":"Jidvei","ru":"Jidvei","country":"d57ad926-7223-4358-af4b-9d5618032a6f","countryCode":"RO","state":"e45a0bc1-86a2-45a4-a0cb-3998bc9015c3","stateCode":"AB","latitude":"46.21667000","longitude":"24.10000000"},{"id":"bb1ecd13-25c7-4201-98f6-b4a19e48c65b","name":"Lancrăm","ru":"Lancrăm","country":"d57ad926-7223-4358-af4b-9d5618032a6f","countryCode":"RO","state":"e45a0bc1-86a2-45a4-a0cb-3998bc9015c3","stateCode":"AB","latitude":"45.98708000","longitude":"23.55665000"},{"id":"f48d443d-e34d-439e-baf3-d53763b76be2","name":"Livezile","ru":"Livezile","country":"d57ad926-7223-4358-af4b-9d5618032a6f","countryCode":"RO","state":"e45a0bc1-86a2-45a4-a0cb-3998bc9015c3","stateCode":"AB","latitude":"46.35000000","longitude":"23.63333000"},{"id":"94e2556e-c2ba-4014-b979-a2d978506af6","name":"Lopadea Nouă","ru":"Lopadea Nouă","country":"d57ad926-7223-4358-af4b-9d5618032a6f","countryCode":"RO","state":"e45a0bc1-86a2-45a4-a0cb-3998bc9015c3","stateCode":"AB","latitude":"46.29090000","longitude":"23.81901000"},{"id":"19df65ab-8836-448d-9625-47777e90ce1b","name":"Lunca Mureşului","ru":"Lunca Mureşului","country":"d57ad926-7223-4358-af4b-9d5618032a6f","countryCode":"RO","state":"e45a0bc1-86a2-45a4-a0cb-3998bc9015c3","stateCode":"AB","latitude":"46.43333000","longitude":"23.90000000"},{"id":"30d4a4ab-f071-4929-98ea-979bc14cc491","name":"Lupşa","ru":"Lupşa","country":"d57ad926-7223-4358-af4b-9d5618032a6f","countryCode":"RO","state":"e45a0bc1-86a2-45a4-a0cb-3998bc9015c3","stateCode":"AB","latitude":"46.36667000","longitude":"23.20000000"},{"id":"b1eacb07-90cf-4567-8510-f557c68330c4","name":"Meteş","ru":"Meteş","country":"d57ad926-7223-4358-af4b-9d5618032a6f","countryCode":"RO","state":"e45a0bc1-86a2-45a4-a0cb-3998bc9015c3","stateCode":"AB","latitude":"46.10000000","longitude":"23.41667000"},{"id":"f01bd0ff-9fd5-44d0-9c07-7b1f3db9d7b4","name":"Micești","ru":"Micești","country":"d57ad926-7223-4358-af4b-9d5618032a6f","countryCode":"RO","state":"e45a0bc1-86a2-45a4-a0cb-3998bc9015c3","stateCode":"AB","latitude":"46.10141000","longitude":"23.55573000"},{"id":"3db4e8b9-5e9f-44d2-8c8b-2185b560cfcd","name":"Mihalţ","ru":"Mihalţ","country":"d57ad926-7223-4358-af4b-9d5618032a6f","countryCode":"RO","state":"e45a0bc1-86a2-45a4-a0cb-3998bc9015c3","stateCode":"AB","latitude":"46.15000000","longitude":"23.73333000"},{"id":"1811af60-ae46-4050-a80c-b2c88ec77e41","name":"Mirăslău","ru":"Mirăslău","country":"d57ad926-7223-4358-af4b-9d5618032a6f","countryCode":"RO","state":"e45a0bc1-86a2-45a4-a0cb-3998bc9015c3","stateCode":"AB","latitude":"46.36667000","longitude":"23.71667000"},{"id":"f98416db-121e-45ca-a045-845083d6292d","name":"Mogoș","ru":"Mogoș","country":"d57ad926-7223-4358-af4b-9d5618032a6f","countryCode":"RO","state":"e45a0bc1-86a2-45a4-a0cb-3998bc9015c3","stateCode":"AB","latitude":"46.27554000","longitude":"23.28038000"},{"id":"12e7d09b-44be-4d6e-a8fe-dea12f310784","name":"Municipiul Aiud","ru":"Municipiul Aiud","country":"d57ad926-7223-4358-af4b-9d5618032a6f","countryCode":"RO","state":"e45a0bc1-86a2-45a4-a0cb-3998bc9015c3","stateCode":"AB","latitude":"46.30440000","longitude":"23.69751000"},{"id":"9b2399e0-3021-49a2-a29f-7e051533e825","name":"Municipiul Alba Iulia","ru":"Municipiul Alba Iulia","country":"d57ad926-7223-4358-af4b-9d5618032a6f","countryCode":"RO","state":"e45a0bc1-86a2-45a4-a0cb-3998bc9015c3","stateCode":"AB","latitude":"46.06346000","longitude":"23.57494000"},{"id":"81dc6422-fd02-4cfe-b549-ea04f9fbef1c","name":"Municipiul Blaj","ru":"Municipiul Blaj","country":"d57ad926-7223-4358-af4b-9d5618032a6f","countryCode":"RO","state":"e45a0bc1-86a2-45a4-a0cb-3998bc9015c3","stateCode":"AB","latitude":"46.15084000","longitude":"23.91041000"},{"id":"2307da70-6a34-4d30-a749-855161eebe6d","name":"Municipiul Sebeş","ru":"Municipiul Sebeş","country":"d57ad926-7223-4358-af4b-9d5618032a6f","countryCode":"RO","state":"e45a0bc1-86a2-45a4-a0cb-3998bc9015c3","stateCode":"AB","latitude":"45.94237000","longitude":"23.57681000"},{"id":"7b3db98b-449c-4f5f-a3da-52a2a73d983f","name":"Noşlac","ru":"Noşlac","country":"d57ad926-7223-4358-af4b-9d5618032a6f","countryCode":"RO","state":"e45a0bc1-86a2-45a4-a0cb-3998bc9015c3","stateCode":"AB","latitude":"46.40000000","longitude":"23.93333000"},{"id":"538b5d6a-034b-4541-a99e-86ab4ff24cf4","name":"Oarda","ru":"Oarda","country":"d57ad926-7223-4358-af4b-9d5618032a6f","countryCode":"RO","state":"e45a0bc1-86a2-45a4-a0cb-3998bc9015c3","stateCode":"AB","latitude":"46.03333000","longitude":"23.56667000"},{"id":"ab069d53-6131-4ae9-89dd-c9f76fb8e6d3","name":"Ocna Mureş","ru":"Ocna Mureş","country":"d57ad926-7223-4358-af4b-9d5618032a6f","countryCode":"RO","state":"e45a0bc1-86a2-45a4-a0cb-3998bc9015c3","stateCode":"AB","latitude":"46.38333000","longitude":"23.85000000"},{"id":"f7a5c5ea-2030-4e20-b4bd-6f8d86605e6d","name":"Ocoliş","ru":"Ocoliş","country":"d57ad926-7223-4358-af4b-9d5618032a6f","countryCode":"RO","state":"e45a0bc1-86a2-45a4-a0cb-3998bc9015c3","stateCode":"AB","latitude":"46.48333000","longitude":"23.46667000"},{"id":"c18487f0-756d-437b-b0e5-d07f39a827da","name":"Ohaba","ru":"Ohaba","country":"d57ad926-7223-4358-af4b-9d5618032a6f","countryCode":"RO","state":"e45a0bc1-86a2-45a4-a0cb-3998bc9015c3","stateCode":"AB","latitude":"46.06667000","longitude":"23.78333000"},{"id":"9519d84a-6869-4754-af93-2dd1fd5b5566","name":"Oraş abrud","ru":"Oraş abrud","country":"d57ad926-7223-4358-af4b-9d5618032a6f","countryCode":"RO","state":"e45a0bc1-86a2-45a4-a0cb-3998bc9015c3","stateCode":"AB","latitude":"46.27409000","longitude":"23.06129000"},{"id":"772032e6-e3e6-4cbf-85f6-e282ab3b94c3","name":"Oraş Baia de Arieş","ru":"Oraş Baia de Arieş","country":"d57ad926-7223-4358-af4b-9d5618032a6f","countryCode":"RO","state":"e45a0bc1-86a2-45a4-a0cb-3998bc9015c3","stateCode":"AB","latitude":"46.37933000","longitude":"23.29903000"},{"id":"7263082d-c48e-4b74-8168-e83f34ca64db","name":"Oraş Câmpeni","ru":"Oraş Câmpeni","country":"d57ad926-7223-4358-af4b-9d5618032a6f","countryCode":"RO","state":"e45a0bc1-86a2-45a4-a0cb-3998bc9015c3","stateCode":"AB","latitude":"46.38493000","longitude":"23.04553000"},{"id":"b3528698-e411-4cd2-8d6b-20442907d3a4","name":"Oraş Cugir","ru":"Oraş Cugir","country":"d57ad926-7223-4358-af4b-9d5618032a6f","countryCode":"RO","state":"e45a0bc1-86a2-45a4-a0cb-3998bc9015c3","stateCode":"AB","latitude":"45.81371000","longitude":"23.40740000"},{"id":"e37b3461-4381-45b3-b73f-614d7d8786ab","name":"Oraş Ocna Mureş","ru":"Oraş Ocna Mureş","country":"d57ad926-7223-4358-af4b-9d5618032a6f","countryCode":"RO","state":"e45a0bc1-86a2-45a4-a0cb-3998bc9015c3","stateCode":"AB","latitude":"46.38475000","longitude":"23.84070000"},{"id":"29e651cf-5ea8-4d77-b82d-8fba93b206e2","name":"Oraş Teiuş","ru":"Oraş Teiuş","country":"d57ad926-7223-4358-af4b-9d5618032a6f","countryCode":"RO","state":"e45a0bc1-86a2-45a4-a0cb-3998bc9015c3","stateCode":"AB","latitude":"46.20959000","longitude":"23.70812000"},{"id":"b6a61b1e-cf6c-4d2b-905f-ac54f875ca43","name":"Oraş Zlatna","ru":"Oraş Zlatna","country":"d57ad926-7223-4358-af4b-9d5618032a6f","countryCode":"RO","state":"e45a0bc1-86a2-45a4-a0cb-3998bc9015c3","stateCode":"AB","latitude":"46.13753000","longitude":"23.20215000"},{"id":"17d676ea-6b02-4d8d-b16a-343e7a667875","name":"Petrești","ru":"Petrești","country":"d57ad926-7223-4358-af4b-9d5618032a6f","countryCode":"RO","state":"e45a0bc1-86a2-45a4-a0cb-3998bc9015c3","stateCode":"AB","latitude":"45.92102000","longitude":"23.56083000"},{"id":"427bdd34-406e-46c4-9c53-9d598635d071","name":"Pianu de Jos","ru":"Pianu de Jos","country":"d57ad926-7223-4358-af4b-9d5618032a6f","countryCode":"RO","state":"e45a0bc1-86a2-45a4-a0cb-3998bc9015c3","stateCode":"AB","latitude":"45.93528000","longitude":"23.48912000"},{"id":"baa137ca-5dfa-41e6-b0a7-dda821b74e95","name":"Pianu de Sus","ru":"Pianu de Sus","country":"d57ad926-7223-4358-af4b-9d5618032a6f","countryCode":"RO","state":"e45a0bc1-86a2-45a4-a0cb-3998bc9015c3","stateCode":"AB","latitude":"45.90000000","longitude":"23.48333000"},{"id":"44988e68-80ca-4ff7-bd73-c33bb1a4cf58","name":"Poşaga de Sus","ru":"Poşaga de Sus","country":"d57ad926-7223-4358-af4b-9d5618032a6f","countryCode":"RO","state":"e45a0bc1-86a2-45a4-a0cb-3998bc9015c3","stateCode":"AB","latitude":"46.46667000","longitude":"23.38333000"},{"id":"2b4decf2-7194-43ce-aa4f-8386012c1488","name":"Poiana Vadului","ru":"Poiana Vadului","country":"d57ad926-7223-4358-af4b-9d5618032a6f","countryCode":"RO","state":"e45a0bc1-86a2-45a4-a0cb-3998bc9015c3","stateCode":"AB","latitude":"46.40000000","longitude":"22.88333000"},{"id":"f9a11726-7d74-419f-a7dd-b6eee3be9286","name":"Poienile-Mogoş","ru":"Poienile-Mogoş","country":"d57ad926-7223-4358-af4b-9d5618032a6f","countryCode":"RO","state":"e45a0bc1-86a2-45a4-a0cb-3998bc9015c3","stateCode":"AB","latitude":"46.28333000","longitude":"23.28333000"},{"id":"dd0b9207-79c1-4d69-95fe-ffe7d20cd7d2","name":"Ponor","ru":"Ponor","country":"d57ad926-7223-4358-af4b-9d5618032a6f","countryCode":"RO","state":"e45a0bc1-86a2-45a4-a0cb-3998bc9015c3","stateCode":"AB","latitude":"46.33333000","longitude":"23.41667000"},{"id":"e22a69d6-1548-43d6-adcf-23bc202ae0cb","name":"Rădeşti","ru":"Rădeşti","country":"d57ad926-7223-4358-af4b-9d5618032a6f","countryCode":"RO","state":"e45a0bc1-86a2-45a4-a0cb-3998bc9015c3","stateCode":"AB","latitude":"46.26667000","longitude":"23.71667000"},{"id":"15827f11-5ad6-462f-b858-1e329b502a70","name":"Războieni-Cetate","ru":"Războieni-Cetate","country":"d57ad926-7223-4358-af4b-9d5618032a6f","countryCode":"RO","state":"e45a0bc1-86a2-45a4-a0cb-3998bc9015c3","stateCode":"AB","latitude":"46.41335000","longitude":"23.87158000"},{"id":"63d79361-388d-44fc-9773-2d3c2e4a4e52","name":"Rimetea","ru":"Rimetea","country":"d57ad926-7223-4358-af4b-9d5618032a6f","countryCode":"RO","state":"e45a0bc1-86a2-45a4-a0cb-3998bc9015c3","stateCode":"AB","latitude":"46.45000000","longitude":"23.56667000"},{"id":"3f3348d7-ff35-41c5-b2ec-96363fc21090","name":"Roşia de Secaş","ru":"Roşia de Secaş","country":"d57ad926-7223-4358-af4b-9d5618032a6f","countryCode":"RO","state":"e45a0bc1-86a2-45a4-a0cb-3998bc9015c3","stateCode":"AB","latitude":"46.05000000","longitude":"23.88333000"},{"id":"982285b9-6ca7-4d35-a6f5-14002d789ebe","name":"Roșia Montană","ru":"Roșia Montană","country":"d57ad926-7223-4358-af4b-9d5618032a6f","countryCode":"RO","state":"e45a0bc1-86a2-45a4-a0cb-3998bc9015c3","stateCode":"AB","latitude":"46.30669000","longitude":"23.13373000"},{"id":"831e47f9-607e-4dba-b2c5-d4c62833abf6","name":"Sâncel","ru":"Sâncel","country":"d57ad926-7223-4358-af4b-9d5618032a6f","countryCode":"RO","state":"e45a0bc1-86a2-45a4-a0cb-3998bc9015c3","stateCode":"AB","latitude":"46.20000000","longitude":"23.95000000"},{"id":"7716e32b-973f-4c6e-9dcd-a3d960902b3d","name":"Sâncrai","ru":"Sâncrai","country":"d57ad926-7223-4358-af4b-9d5618032a6f","countryCode":"RO","state":"e45a0bc1-86a2-45a4-a0cb-3998bc9015c3","stateCode":"AB","latitude":"46.29394000","longitude":"23.75209000"},{"id":"83b664fd-6cf2-4919-a26e-ba85ecf13770","name":"Sântimbru","ru":"Sântimbru","country":"d57ad926-7223-4358-af4b-9d5618032a6f","countryCode":"RO","state":"e45a0bc1-86a2-45a4-a0cb-3998bc9015c3","stateCode":"AB","latitude":"46.13333000","longitude":"23.65000000"},{"id":"eda7eb51-2796-4cdf-ab84-9bdff1e42bee","name":"Sălciua de Sus","ru":"Sălciua de Sus","country":"d57ad926-7223-4358-af4b-9d5618032a6f","countryCode":"RO","state":"e45a0bc1-86a2-45a4-a0cb-3998bc9015c3","stateCode":"AB","latitude":"46.40000000","longitude":"23.41667000"},{"id":"a372c92c-2b87-4613-9c92-74dff41c2b0c","name":"Săliştea-Deal","ru":"Săliştea-Deal","country":"d57ad926-7223-4358-af4b-9d5618032a6f","countryCode":"RO","state":"e45a0bc1-86a2-45a4-a0cb-3998bc9015c3","stateCode":"AB","latitude":"45.90000000","longitude":"23.40000000"},{"id":"8f7641de-aeed-4d56-9c71-558aebb3dff7","name":"Săliștea","ru":"Săliștea","country":"d57ad926-7223-4358-af4b-9d5618032a6f","countryCode":"RO","state":"e45a0bc1-86a2-45a4-a0cb-3998bc9015c3","stateCode":"AB","latitude":"45.90744000","longitude":"23.39789000"},{"id":"82cdbed8-284c-4c8c-b59a-9ba0bc0e781b","name":"Săsciori","ru":"Săsciori","country":"d57ad926-7223-4358-af4b-9d5618032a6f","countryCode":"RO","state":"e45a0bc1-86a2-45a4-a0cb-3998bc9015c3","stateCode":"AB","latitude":"45.86667000","longitude":"23.58333000"},{"id":"fa55010d-bffa-42f9-9c62-077c17113a36","name":"Scărişoara","ru":"Scărişoara","country":"d57ad926-7223-4358-af4b-9d5618032a6f","countryCode":"RO","state":"e45a0bc1-86a2-45a4-a0cb-3998bc9015c3","stateCode":"AB","latitude":"46.46667000","longitude":"22.85000000"},{"id":"047b4e7f-e233-45ee-bb1f-7fb46f296948","name":"Sebeş","ru":"Sebeş","country":"d57ad926-7223-4358-af4b-9d5618032a6f","countryCode":"RO","state":"e45a0bc1-86a2-45a4-a0cb-3998bc9015c3","stateCode":"AB","latitude":"45.95646000","longitude":"23.57100000"},{"id":"c7e930eb-c0a4-4b14-b751-0349b189418d","name":"Sebeșel","ru":"Sebeșel","country":"d57ad926-7223-4358-af4b-9d5618032a6f","countryCode":"RO","state":"e45a0bc1-86a2-45a4-a0cb-3998bc9015c3","stateCode":"AB","latitude":"45.88771000","longitude":"23.56606000"},{"id":"d6214344-78de-4614-be74-1e099a3aadcc","name":"Sohodol","ru":"Sohodol","country":"d57ad926-7223-4358-af4b-9d5618032a6f","countryCode":"RO","state":"e45a0bc1-86a2-45a4-a0cb-3998bc9015c3","stateCode":"AB","latitude":"46.35581000","longitude":"23.02923000"},{"id":"0cd291ab-9bc7-4623-b850-7a60ac20ab03","name":"Stremţ","ru":"Stremţ","country":"d57ad926-7223-4358-af4b-9d5618032a6f","countryCode":"RO","state":"e45a0bc1-86a2-45a4-a0cb-3998bc9015c3","stateCode":"AB","latitude":"46.21667000","longitude":"23.63333000"},{"id":"575cb826-0e8f-47cb-a487-cb909f838ac3","name":"Teiuş","ru":"Teiuş","country":"d57ad926-7223-4358-af4b-9d5618032a6f","countryCode":"RO","state":"e45a0bc1-86a2-45a4-a0cb-3998bc9015c3","stateCode":"AB","latitude":"46.20000000","longitude":"23.68333000"},{"id":"4e4ddf94-02c7-4e66-9e76-ff052f034f4d","name":"Tiur","ru":"Tiur","country":"d57ad926-7223-4358-af4b-9d5618032a6f","countryCode":"RO","state":"e45a0bc1-86a2-45a4-a0cb-3998bc9015c3","stateCode":"AB","latitude":"46.16009000","longitude":"23.88927000"},{"id":"60419428-6287-49ad-845a-17c8cbbcfbc9","name":"Uioara de Jos","ru":"Uioara de Jos","country":"d57ad926-7223-4358-af4b-9d5618032a6f","countryCode":"RO","state":"e45a0bc1-86a2-45a4-a0cb-3998bc9015c3","stateCode":"AB","latitude":"46.37087000","longitude":"23.83863000"},{"id":"69a428c0-fb01-4762-bb30-2c162f1aa8ac","name":"Unirea","ru":"Unirea","country":"d57ad926-7223-4358-af4b-9d5618032a6f","countryCode":"RO","state":"e45a0bc1-86a2-45a4-a0cb-3998bc9015c3","stateCode":"AB","latitude":"46.40387000","longitude":"23.81314000"},{"id":"0110fd97-15ba-4704-8545-35051ef0f331","name":"Vadu Moţilor","ru":"Vadu Moţilor","country":"d57ad926-7223-4358-af4b-9d5618032a6f","countryCode":"RO","state":"e45a0bc1-86a2-45a4-a0cb-3998bc9015c3","stateCode":"AB","latitude":"46.40000000","longitude":"22.96667000"},{"id":"e3635df0-e737-4376-8cef-2d61b378f18e","name":"Valea Lungă Alba Romania","ru":"Valea Lungă Alba Romania","country":"d57ad926-7223-4358-af4b-9d5618032a6f","countryCode":"RO","state":"e45a0bc1-86a2-45a4-a0cb-3998bc9015c3","stateCode":"AB","latitude":"46.12592000","longitude":"24.04541000"},{"id":"09066911-d530-4de3-b532-c6377ce167e0","name":"Veseuș","ru":"Veseuș","country":"d57ad926-7223-4358-af4b-9d5618032a6f","countryCode":"RO","state":"e45a0bc1-86a2-45a4-a0cb-3998bc9015c3","stateCode":"AB","latitude":"46.27456000","longitude":"24.14276000"},{"id":"ce1c6eea-b231-4025-bb81-97baae2a2b1d","name":"Veza","ru":"Veza","country":"d57ad926-7223-4358-af4b-9d5618032a6f","countryCode":"RO","state":"e45a0bc1-86a2-45a4-a0cb-3998bc9015c3","stateCode":"AB","latitude":"46.16747000","longitude":"23.92470000"},{"id":"2d1da68b-13ac-4c8c-aa94-03368bf9284b","name":"Vidra","ru":"Vidra","country":"d57ad926-7223-4358-af4b-9d5618032a6f","countryCode":"RO","state":"e45a0bc1-86a2-45a4-a0cb-3998bc9015c3","stateCode":"AB","latitude":"46.36758000","longitude":"22.88811000"},{"id":"0a1b4416-4486-42ce-afe7-e779021c3e26","name":"Vinerea","ru":"Vinerea","country":"d57ad926-7223-4358-af4b-9d5618032a6f","countryCode":"RO","state":"e45a0bc1-86a2-45a4-a0cb-3998bc9015c3","stateCode":"AB","latitude":"45.88632000","longitude":"23.35289000"},{"id":"36cc14fa-369b-47b6-b209-fcc5a31bdfaa","name":"Vințu de Jos","ru":"Vințu de Jos","country":"d57ad926-7223-4358-af4b-9d5618032a6f","countryCode":"RO","state":"e45a0bc1-86a2-45a4-a0cb-3998bc9015c3","stateCode":"AB","latitude":"45.99462000","longitude":"23.48612000"},{"id":"36a7535e-0420-423e-bc6e-eb680708aa1a","name":"Vurpăr","ru":"Vurpăr","country":"d57ad926-7223-4358-af4b-9d5618032a6f","countryCode":"RO","state":"e45a0bc1-86a2-45a4-a0cb-3998bc9015c3","stateCode":"AB","latitude":"46.00000000","longitude":"23.46667000"},{"id":"1e35c2bd-0084-46e6-a010-132253bdcf62","name":"Zlatna","ru":"Zlatna","country":"d57ad926-7223-4358-af4b-9d5618032a6f","countryCode":"RO","state":"e45a0bc1-86a2-45a4-a0cb-3998bc9015c3","stateCode":"AB","latitude":"46.10633000","longitude":"23.23162000"},{"id":"50131f97-9ff1-4e85-af24-379384e0a688","name":"Adea","ru":"Adea","country":"d57ad926-7223-4358-af4b-9d5618032a6f","countryCode":"RO","state":"86e22273-7bab-4318-8c87-31bf146a4017","stateCode":"AR","latitude":"46.55511000","longitude":"21.58433000"},{"id":"b8ec6d9f-a410-4902-a000-b6cccd7ce713","name":"Agrișu Mare","ru":"Agrișu Mare","country":"d57ad926-7223-4358-af4b-9d5618032a6f","countryCode":"RO","state":"86e22273-7bab-4318-8c87-31bf146a4017","stateCode":"AR","latitude":"46.27243000","longitude":"21.75558000"},{"id":"80ff5fa3-a8b0-4c23-9d85-8e7e95cece07","name":"Almaş","ru":"Almaş","country":"d57ad926-7223-4358-af4b-9d5618032a6f","countryCode":"RO","state":"86e22273-7bab-4318-8c87-31bf146a4017","stateCode":"AR","latitude":"46.28333000","longitude":"22.23333000"},{"id":"4c47ffcd-b163-454b-b4ca-8f51865a41ae","name":"Andrei Șaguna","ru":"Andrei Șaguna","country":"d57ad926-7223-4358-af4b-9d5618032a6f","countryCode":"RO","state":"86e22273-7bab-4318-8c87-31bf146a4017","stateCode":"AR","latitude":"46.28810000","longitude":"21.39175000"},{"id":"1e9c16c4-5398-474d-aa96-a43350dae591","name":"Apateu","ru":"Apateu","country":"d57ad926-7223-4358-af4b-9d5618032a6f","countryCode":"RO","state":"86e22273-7bab-4318-8c87-31bf146a4017","stateCode":"AR","latitude":"46.61667000","longitude":"21.78333000"},{"id":"b0d59f86-3160-48b0-a55c-5dd28dc7ddd1","name":"Arad","ru":"Arad","country":"d57ad926-7223-4358-af4b-9d5618032a6f","countryCode":"RO","state":"86e22273-7bab-4318-8c87-31bf146a4017","stateCode":"AR","latitude":"46.18333000","longitude":"21.31667000"},{"id":"a6afd7c1-5965-40d9-9b26-0a1caa8960f4","name":"Archiş","ru":"Archiş","country":"d57ad926-7223-4358-af4b-9d5618032a6f","countryCode":"RO","state":"86e22273-7bab-4318-8c87-31bf146a4017","stateCode":"AR","latitude":"46.48333000","longitude":"22.05000000"},{"id":"da9d7eab-d746-4a40-bdb3-d9b4a93c2cae","name":"Şagu","ru":"Şagu","country":"d57ad926-7223-4358-af4b-9d5618032a6f","countryCode":"RO","state":"86e22273-7bab-4318-8c87-31bf146a4017","stateCode":"AR","latitude":"46.05000000","longitude":"21.28333000"},{"id":"91c41118-ebe4-433c-a34b-c79998955f67","name":"Şeitin","ru":"Şeitin","country":"d57ad926-7223-4358-af4b-9d5618032a6f","countryCode":"RO","state":"86e22273-7bab-4318-8c87-31bf146a4017","stateCode":"AR","latitude":"46.10000000","longitude":"20.85000000"},{"id":"612312db-750e-4d08-a7be-756e49d772d5","name":"Şiştarovăţ","ru":"Şiştarovăţ","country":"d57ad926-7223-4358-af4b-9d5618032a6f","countryCode":"RO","state":"86e22273-7bab-4318-8c87-31bf146a4017","stateCode":"AR","latitude":"46.01667000","longitude":"21.73333000"},{"id":"eb3f9a4e-f47c-4492-8760-034f727134e3","name":"Şicula","ru":"Şicula","country":"d57ad926-7223-4358-af4b-9d5618032a6f","countryCode":"RO","state":"86e22273-7bab-4318-8c87-31bf146a4017","stateCode":"AR","latitude":"46.43333000","longitude":"21.75000000"},{"id":"ffdf0c54-a2e6-437f-b324-437a6ac0d1dd","name":"Şilindia","ru":"Şilindia","country":"d57ad926-7223-4358-af4b-9d5618032a6f","countryCode":"RO","state":"86e22273-7bab-4318-8c87-31bf146a4017","stateCode":"AR","latitude":"46.35000000","longitude":"21.91667000"},{"id":"df4dfd7f-75ba-4d85-bad3-44f591569939","name":"Şimand","ru":"Şimand","country":"d57ad926-7223-4358-af4b-9d5618032a6f","countryCode":"RO","state":"86e22273-7bab-4318-8c87-31bf146a4017","stateCode":"AR","latitude":"46.43333000","longitude":"21.45000000"},{"id":"ede3175b-0d71-4f24-bde7-a0f3f5b56246","name":"Şiria","ru":"Şiria","country":"d57ad926-7223-4358-af4b-9d5618032a6f","countryCode":"RO","state":"86e22273-7bab-4318-8c87-31bf146a4017","stateCode":"AR","latitude":"46.26667000","longitude":"21.63333000"},{"id":"0943d8dd-76ae-452e-98b6-2fe1593fd3ff","name":"Şofronea","ru":"Şofronea","country":"d57ad926-7223-4358-af4b-9d5618032a6f","countryCode":"RO","state":"86e22273-7bab-4318-8c87-31bf146a4017","stateCode":"AR","latitude":"46.26667000","longitude":"21.30000000"},{"id":"da01f206-f871-4dc8-9f38-0211d12d7169","name":"Bata","ru":"Bata","country":"d57ad926-7223-4358-af4b-9d5618032a6f","countryCode":"RO","state":"86e22273-7bab-4318-8c87-31bf146a4017","stateCode":"AR","latitude":"46.01667000","longitude":"22.03333000"},{"id":"ce9c23f2-9bb0-4909-8e89-110ef4f86541","name":"Bârsa","ru":"Bârsa","country":"d57ad926-7223-4358-af4b-9d5618032a6f","countryCode":"RO","state":"86e22273-7bab-4318-8c87-31bf146a4017","stateCode":"AR","latitude":"46.38333000","longitude":"22.06667000"},{"id":"a5c5fb33-1dcb-434d-a636-23fb3e69aca3","name":"Bârzava","ru":"Bârzava","country":"d57ad926-7223-4358-af4b-9d5618032a6f","countryCode":"RO","state":"86e22273-7bab-4318-8c87-31bf146a4017","stateCode":"AR","latitude":"46.11667000","longitude":"21.98333000"},{"id":"8372f498-8822-48ad-8869-c85ca3e8cfb8","name":"Beliu","ru":"Beliu","country":"d57ad926-7223-4358-af4b-9d5618032a6f","countryCode":"RO","state":"86e22273-7bab-4318-8c87-31bf146a4017","stateCode":"AR","latitude":"46.48333000","longitude":"21.98333000"},{"id":"b0b195ce-8f42-49bf-bcf5-9603c6869f87","name":"Birchiş","ru":"Birchiş","country":"d57ad926-7223-4358-af4b-9d5618032a6f","countryCode":"RO","state":"86e22273-7bab-4318-8c87-31bf146a4017","stateCode":"AR","latitude":"45.96667000","longitude":"22.16667000"},{"id":"17b355d0-ce53-437b-9345-8801bbb46897","name":"Bocsig","ru":"Bocsig","country":"d57ad926-7223-4358-af4b-9d5618032a6f","countryCode":"RO","state":"86e22273-7bab-4318-8c87-31bf146a4017","stateCode":"AR","latitude":"46.41667000","longitude":"21.95000000"},{"id":"3dfd531a-a021-4e8a-b57e-25c7fec3b573","name":"Brazii","ru":"Brazii","country":"d57ad926-7223-4358-af4b-9d5618032a6f","countryCode":"RO","state":"86e22273-7bab-4318-8c87-31bf146a4017","stateCode":"AR","latitude":"46.23333000","longitude":"22.33333000"},{"id":"d053738f-f550-4dec-8dad-a722338ca39a","name":"Buteni","ru":"Buteni","country":"d57ad926-7223-4358-af4b-9d5618032a6f","countryCode":"RO","state":"86e22273-7bab-4318-8c87-31bf146a4017","stateCode":"AR","latitude":"46.31667000","longitude":"22.11667000"},{"id":"7c0a135a-a7bb-4eb9-be0d-0e1b7c361a8c","name":"Caporal Alexa","ru":"Caporal Alexa","country":"d57ad926-7223-4358-af4b-9d5618032a6f","countryCode":"RO","state":"86e22273-7bab-4318-8c87-31bf146a4017","stateCode":"AR","latitude":"46.33793000","longitude":"21.58316000"},{"id":"0157eaa9-4c9c-45ca-a18c-3f07ef3eb585","name":"Cărand","ru":"Cărand","country":"d57ad926-7223-4358-af4b-9d5618032a6f","countryCode":"RO","state":"86e22273-7bab-4318-8c87-31bf146a4017","stateCode":"AR","latitude":"46.45000000","longitude":"22.08333000"},{"id":"cb411099-08a2-412c-aba7-2be09aa5f142","name":"Cermei","ru":"Cermei","country":"d57ad926-7223-4358-af4b-9d5618032a6f","countryCode":"RO","state":"86e22273-7bab-4318-8c87-31bf146a4017","stateCode":"AR","latitude":"46.55000000","longitude":"21.85000000"},{"id":"8c1dd129-43b9-4fcd-9ea5-6b93af1faaaa","name":"Chereluș","ru":"Chereluș","country":"d57ad926-7223-4358-af4b-9d5618032a6f","countryCode":"RO","state":"86e22273-7bab-4318-8c87-31bf146a4017","stateCode":"AR","latitude":"46.46860000","longitude":"21.70706000"},{"id":"25b5dccf-f2c9-415c-8dc5-3b2d73e8c86a","name":"Chesinț","ru":"Chesinț","country":"d57ad926-7223-4358-af4b-9d5618032a6f","countryCode":"RO","state":"86e22273-7bab-4318-8c87-31bf146a4017","stateCode":"AR","latitude":"46.04973000","longitude":"21.57944000"},{"id":"39554a6a-e39b-49dc-b152-e0fc80264190","name":"Chişineu-Criş","ru":"Chişineu-Criş","country":"d57ad926-7223-4358-af4b-9d5618032a6f","countryCode":"RO","state":"86e22273-7bab-4318-8c87-31bf146a4017","stateCode":"AR","latitude":"46.52509000","longitude":"21.51844000"},{"id":"a4f953e3-3dd9-4983-9150-1f2c3cc14c53","name":"Chier","ru":"Chier","country":"d57ad926-7223-4358-af4b-9d5618032a6f","countryCode":"RO","state":"86e22273-7bab-4318-8c87-31bf146a4017","stateCode":"AR","latitude":"46.34199000","longitude":"21.82488000"},{"id":"2fc756f6-4e76-4a95-acd5-b678b362c183","name":"Chisindia","ru":"Chisindia","country":"d57ad926-7223-4358-af4b-9d5618032a6f","countryCode":"RO","state":"86e22273-7bab-4318-8c87-31bf146a4017","stateCode":"AR","latitude":"46.28333000","longitude":"22.10000000"},{"id":"7f1d5caf-3445-46b8-9474-3932c1e62544","name":"Cintei","ru":"Cintei","country":"d57ad926-7223-4358-af4b-9d5618032a6f","countryCode":"RO","state":"86e22273-7bab-4318-8c87-31bf146a4017","stateCode":"AR","latitude":"46.44434000","longitude":"21.56556000"},{"id":"094d3e39-0804-4b42-9fc5-373938be6976","name":"Comuna Almaş","ru":"Comuna Almaş","country":"d57ad926-7223-4358-af4b-9d5618032a6f","countryCode":"RO","state":"86e22273-7bab-4318-8c87-31bf146a4017","stateCode":"AR","latitude":"46.28480000","longitude":"22.23173000"},{"id":"cd43f4b3-80ea-4c76-89c0-e4d5931775c0","name":"Comuna Apateu","ru":"Comuna Apateu","country":"d57ad926-7223-4358-af4b-9d5618032a6f","countryCode":"RO","state":"86e22273-7bab-4318-8c87-31bf146a4017","stateCode":"AR","latitude":"46.62598000","longitude":"21.82530000"},{"id":"f8da599b-90e9-4ec0-b11b-fff83676629e","name":"Comuna Archiş","ru":"Comuna Archiş","country":"d57ad926-7223-4358-af4b-9d5618032a6f","countryCode":"RO","state":"86e22273-7bab-4318-8c87-31bf146a4017","stateCode":"AR","latitude":"46.48333000","longitude":"22.09663000"},{"id":"770dc33a-5af5-4dde-a146-6412d2ff82d1","name":"Comuna Şagu","ru":"Comuna Şagu","country":"d57ad926-7223-4358-af4b-9d5618032a6f","countryCode":"RO","state":"86e22273-7bab-4318-8c87-31bf146a4017","stateCode":"AR","latitude":"46.04254000","longitude":"21.34239000"},{"id":"49ea39ee-6358-4b02-a296-4bf583738e20","name":"Comuna Şeitin","ru":"Comuna Şeitin","country":"d57ad926-7223-4358-af4b-9d5618032a6f","countryCode":"RO","state":"86e22273-7bab-4318-8c87-31bf146a4017","stateCode":"AR","latitude":"46.10858000","longitude":"20.84464000"},{"id":"71e40c13-5d30-4a6c-8ea0-fad47f971744","name":"Comuna Şepreuş","ru":"Comuna Şepreuş","country":"d57ad926-7223-4358-af4b-9d5618032a6f","countryCode":"RO","state":"86e22273-7bab-4318-8c87-31bf146a4017","stateCode":"AR","latitude":"46.57125000","longitude":"21.73417000"},{"id":"37d60726-345b-4157-9c80-a45476bdf55f","name":"Comuna Şiştarovăţ","ru":"Comuna Şiştarovăţ","country":"d57ad926-7223-4358-af4b-9d5618032a6f","countryCode":"RO","state":"86e22273-7bab-4318-8c87-31bf146a4017","stateCode":"AR","latitude":"45.98649000","longitude":"21.75589000"},{"id":"23b46601-9427-481f-b56e-8c138068ecc8","name":"Comuna Şicula","ru":"Comuna Şicula","country":"d57ad926-7223-4358-af4b-9d5618032a6f","countryCode":"RO","state":"86e22273-7bab-4318-8c87-31bf146a4017","stateCode":"AR","latitude":"46.45723000","longitude":"21.75137000"},{"id":"9452fc52-44ca-4c6d-b651-9a09a63eeae9","name":"Comuna Şilindia","ru":"Comuna Şilindia","country":"d57ad926-7223-4358-af4b-9d5618032a6f","countryCode":"RO","state":"86e22273-7bab-4318-8c87-31bf146a4017","stateCode":"AR","latitude":"46.33611000","longitude":"21.93488000"},{"id":"0175525c-e046-422e-8b88-64a316865af4","name":"Comuna Şimand","ru":"Comuna Şimand","country":"d57ad926-7223-4358-af4b-9d5618032a6f","countryCode":"RO","state":"86e22273-7bab-4318-8c87-31bf146a4017","stateCode":"AR","latitude":"46.42400000","longitude":"21.45145000"},{"id":"3a3e6470-da9d-4e38-89da-f30616a87826","name":"Comuna Şiria","ru":"Comuna Şiria","country":"d57ad926-7223-4358-af4b-9d5618032a6f","countryCode":"RO","state":"86e22273-7bab-4318-8c87-31bf146a4017","stateCode":"AR","latitude":"46.28470000","longitude":"21.65419000"},{"id":"97137a2b-9f98-4ce1-8662-2e0005436b06","name":"Comuna Şofronea","ru":"Comuna Şofronea","country":"d57ad926-7223-4358-af4b-9d5618032a6f","countryCode":"RO","state":"86e22273-7bab-4318-8c87-31bf146a4017","stateCode":"AR","latitude":"46.26814000","longitude":"21.29059000"},{"id":"5dbca998-a2f2-4217-987f-6a5c30c3e125","name":"Comuna Bata","ru":"Comuna Bata","country":"d57ad926-7223-4358-af4b-9d5618032a6f","countryCode":"RO","state":"86e22273-7bab-4318-8c87-31bf146a4017","stateCode":"AR","latitude":"45.99641000","longitude":"22.07805000"},{"id":"579eaa43-b981-4d37-afd1-415bba71e468","name":"Comuna Bârsa","ru":"Comuna Bârsa","country":"d57ad926-7223-4358-af4b-9d5618032a6f","countryCode":"RO","state":"86e22273-7bab-4318-8c87-31bf146a4017","stateCode":"AR","latitude":"46.38410000","longitude":"22.04459000"},{"id":"c9adec17-5b3d-4418-a2df-73fdf5d48930","name":"Comuna Bârzava","ru":"Comuna Bârzava","country":"d57ad926-7223-4358-af4b-9d5618032a6f","countryCode":"RO","state":"86e22273-7bab-4318-8c87-31bf146a4017","stateCode":"AR","latitude":"46.09910000","longitude":"22.06096000"},{"id":"0b1253de-2400-4000-9217-a761bcf16cc5","name":"Comuna Beliu","ru":"Comuna Beliu","country":"d57ad926-7223-4358-af4b-9d5618032a6f","countryCode":"RO","state":"86e22273-7bab-4318-8c87-31bf146a4017","stateCode":"AR","latitude":"46.52965000","longitude":"21.99566000"},{"id":"3ad5137c-169f-4d67-99e1-1bdac80a1fb6","name":"Comuna Birchiş","ru":"Comuna Birchiş","country":"d57ad926-7223-4358-af4b-9d5618032a6f","countryCode":"RO","state":"86e22273-7bab-4318-8c87-31bf146a4017","stateCode":"AR","latitude":"45.96987000","longitude":"22.16845000"},{"id":"e80be1b7-4fc2-4697-a233-917f84c1143d","name":"Comuna Bocsig","ru":"Comuna Bocsig","country":"d57ad926-7223-4358-af4b-9d5618032a6f","countryCode":"RO","state":"86e22273-7bab-4318-8c87-31bf146a4017","stateCode":"AR","latitude":"46.41893000","longitude":"21.98424000"},{"id":"487884a0-cbe7-4cf0-b7b7-d8609853351d","name":"Comuna Brazii","ru":"Comuna Brazii","country":"d57ad926-7223-4358-af4b-9d5618032a6f","countryCode":"RO","state":"86e22273-7bab-4318-8c87-31bf146a4017","stateCode":"AR","latitude":"46.22177000","longitude":"22.32613000"},{"id":"8003729f-6ee9-4513-b499-d6b4f5db7414","name":"Comuna Buteni","ru":"Comuna Buteni","country":"d57ad926-7223-4358-af4b-9d5618032a6f","countryCode":"RO","state":"86e22273-7bab-4318-8c87-31bf146a4017","stateCode":"AR","latitude":"46.33119000","longitude":"22.11472000"},{"id":"c2d0ff0d-81db-4029-83ca-867bb96c6ac2","name":"Comuna Cărand","ru":"Comuna Cărand","country":"d57ad926-7223-4358-af4b-9d5618032a6f","countryCode":"RO","state":"86e22273-7bab-4318-8c87-31bf146a4017","stateCode":"AR","latitude":"46.45551000","longitude":"22.05755000"},{"id":"41cd41a4-7444-433a-a470-9f32228a18c5","name":"Comuna Cermei","ru":"Comuna Cermei","country":"d57ad926-7223-4358-af4b-9d5618032a6f","countryCode":"RO","state":"86e22273-7bab-4318-8c87-31bf146a4017","stateCode":"AR","latitude":"46.55433000","longitude":"21.87084000"},{"id":"a6dea1e1-9f45-4254-bda8-937156a2bac1","name":"Comuna Chisindia","ru":"Comuna Chisindia","country":"d57ad926-7223-4358-af4b-9d5618032a6f","countryCode":"RO","state":"86e22273-7bab-4318-8c87-31bf146a4017","stateCode":"AR","latitude":"46.26509000","longitude":"22.08572000"},{"id":"4bbfde93-bb3b-4d68-8fcd-2c6d90c2a2e3","name":"Comuna Conop","ru":"Comuna Conop","country":"d57ad926-7223-4358-af4b-9d5618032a6f","countryCode":"RO","state":"86e22273-7bab-4318-8c87-31bf146a4017","stateCode":"AR","latitude":"46.10401000","longitude":"21.88047000"},{"id":"b920e922-700b-4503-b25e-7af62c2ea10f","name":"Comuna Covăsinţ","ru":"Comuna Covăsinţ","country":"d57ad926-7223-4358-af4b-9d5618032a6f","countryCode":"RO","state":"86e22273-7bab-4318-8c87-31bf146a4017","stateCode":"AR","latitude":"46.20571000","longitude":"21.60944000"},{"id":"b4e62a41-d666-4142-a794-03d919fa2443","name":"Comuna Craiva","ru":"Comuna Craiva","country":"d57ad926-7223-4358-af4b-9d5618032a6f","countryCode":"RO","state":"86e22273-7bab-4318-8c87-31bf146a4017","stateCode":"AR","latitude":"46.59969000","longitude":"21.97908000"},{"id":"18e2ef40-1190-4aac-b737-22717ba8917d","name":"Comuna Dezna","ru":"Comuna Dezna","country":"d57ad926-7223-4358-af4b-9d5618032a6f","countryCode":"RO","state":"86e22273-7bab-4318-8c87-31bf146a4017","stateCode":"AR","latitude":"46.40997000","longitude":"22.22726000"},{"id":"f56a902d-4408-4736-8e74-16219bbf9994","name":"Comuna Dieci","ru":"Comuna Dieci","country":"d57ad926-7223-4358-af4b-9d5618032a6f","countryCode":"RO","state":"86e22273-7bab-4318-8c87-31bf146a4017","stateCode":"AR","latitude":"46.32071000","longitude":"22.22373000"},{"id":"53787546-31b8-47d5-b83b-c23fb1c5045c","name":"Comuna Dorobanți","ru":"Comuna Dorobanți","country":"d57ad926-7223-4358-af4b-9d5618032a6f","countryCode":"RO","state":"86e22273-7bab-4318-8c87-31bf146a4017","stateCode":"AR","latitude":"46.35022000","longitude":"21.24441000"},{"id":"b2498f02-93b0-4b10-977c-3594915839d4","name":"Comuna Fântânele","ru":"Comuna Fântânele","country":"d57ad926-7223-4358-af4b-9d5618032a6f","countryCode":"RO","state":"86e22273-7bab-4318-8c87-31bf146a4017","stateCode":"AR","latitude":"46.12441000","longitude":"21.38111000"},{"id":"4775bc2e-f997-4aaf-bd54-b7271fb2c847","name":"Comuna Felnac","ru":"Comuna Felnac","country":"d57ad926-7223-4358-af4b-9d5618032a6f","countryCode":"RO","state":"86e22273-7bab-4318-8c87-31bf146a4017","stateCode":"AR","latitude":"46.12223000","longitude":"21.16704000"},{"id":"3115c71d-8840-4437-9b05-e47ff0c9ea6b","name":"Comuna Frumuşeni","ru":"Comuna Frumuşeni","country":"d57ad926-7223-4358-af4b-9d5618032a6f","countryCode":"RO","state":"86e22273-7bab-4318-8c87-31bf146a4017","stateCode":"AR","latitude":"46.10180000","longitude":"21.45836000"},{"id":"35d4ac28-ee8e-4c3b-835d-0dd6b80b133f","name":"Comuna Ghioroc","ru":"Comuna Ghioroc","country":"d57ad926-7223-4358-af4b-9d5618032a6f","countryCode":"RO","state":"86e22273-7bab-4318-8c87-31bf146a4017","stateCode":"AR","latitude":"46.15322000","longitude":"21.59651000"},{"id":"415a785b-57f0-4253-996d-e25ac4c51817","name":"Comuna Grăniceri","ru":"Comuna Grăniceri","country":"d57ad926-7223-4358-af4b-9d5618032a6f","countryCode":"RO","state":"86e22273-7bab-4318-8c87-31bf146a4017","stateCode":"AR","latitude":"46.50539000","longitude":"21.33672000"},{"id":"9ad1bd2f-70f1-4216-922d-3c56aa4413f0","name":"Comuna Gurahonţ","ru":"Comuna Gurahonţ","country":"d57ad926-7223-4358-af4b-9d5618032a6f","countryCode":"RO","state":"86e22273-7bab-4318-8c87-31bf146a4017","stateCode":"AR","latitude":"46.29220000","longitude":"22.33506000"},{"id":"92f5f627-247c-4835-95f0-ed87499a82c3","name":"Comuna Hăşmaş","ru":"Comuna Hăşmaş","country":"d57ad926-7223-4358-af4b-9d5618032a6f","countryCode":"RO","state":"86e22273-7bab-4318-8c87-31bf146a4017","stateCode":"AR","latitude":"46.52217000","longitude":"22.07003000"},{"id":"34e044a9-2d40-4a78-8f75-b842e4b60f0d","name":"Comuna Hălmagiu","ru":"Comuna Hălmagiu","country":"d57ad926-7223-4358-af4b-9d5618032a6f","countryCode":"RO","state":"86e22273-7bab-4318-8c87-31bf146a4017","stateCode":"AR","latitude":"46.27536000","longitude":"22.58183000"},{"id":"dbc8f9de-f222-40b1-900d-70bea07a3c57","name":"Comuna Hălmăgel","ru":"Comuna Hălmăgel","country":"d57ad926-7223-4358-af4b-9d5618032a6f","countryCode":"RO","state":"86e22273-7bab-4318-8c87-31bf146a4017","stateCode":"AR","latitude":"46.27662000","longitude":"22.63180000"},{"id":"b0c3f286-76e9-4281-b034-81759488a3cd","name":"Comuna Igneşti","ru":"Comuna Igneşti","country":"d57ad926-7223-4358-af4b-9d5618032a6f","countryCode":"RO","state":"86e22273-7bab-4318-8c87-31bf146a4017","stateCode":"AR","latitude":"46.43388000","longitude":"22.18227000"},{"id":"3b1ad039-779d-4bfd-bbe5-db5d4b53127d","name":"Comuna Iratoşu","ru":"Comuna Iratoşu","country":"d57ad926-7223-4358-af4b-9d5618032a6f","countryCode":"RO","state":"86e22273-7bab-4318-8c87-31bf146a4017","stateCode":"AR","latitude":"46.29414000","longitude":"21.18750000"},{"id":"61669a86-265e-4779-8615-61699c9d272b","name":"Comuna Livada","ru":"Comuna Livada","country":"d57ad926-7223-4358-af4b-9d5618032a6f","countryCode":"RO","state":"86e22273-7bab-4318-8c87-31bf146a4017","stateCode":"AR","latitude":"46.21924000","longitude":"21.38746000"},{"id":"2201e66f-df89-42aa-91b5-bbc1b45d53ff","name":"Comuna Macea","ru":"Comuna Macea","country":"d57ad926-7223-4358-af4b-9d5618032a6f","countryCode":"RO","state":"86e22273-7bab-4318-8c87-31bf146a4017","stateCode":"AR","latitude":"46.40094000","longitude":"21.33187000"},{"id":"25115cc9-8c23-4486-a0ee-46106a2e438c","name":"Comuna Mişca","ru":"Comuna Mişca","country":"d57ad926-7223-4358-af4b-9d5618032a6f","countryCode":"RO","state":"86e22273-7bab-4318-8c87-31bf146a4017","stateCode":"AR","latitude":"46.62016000","longitude":"21.65353000"},{"id":"aab84498-456b-4dc6-9cd0-c9645d185ee3","name":"Comuna Moneasa","ru":"Comuna Moneasa","country":"d57ad926-7223-4358-af4b-9d5618032a6f","countryCode":"RO","state":"86e22273-7bab-4318-8c87-31bf146a4017","stateCode":"AR","latitude":"46.44443000","longitude":"22.25323000"},{"id":"8ce52f7d-7742-4aa8-b4c2-a42aec9387f9","name":"Comuna Olari","ru":"Comuna Olari","country":"d57ad926-7223-4358-af4b-9d5618032a6f","countryCode":"RO","state":"86e22273-7bab-4318-8c87-31bf146a4017","stateCode":"AR","latitude":"46.38673000","longitude":"21.54522000"},{"id":"d2f6fcc4-56d0-4a63-a9b3-de583ae2324f","name":"Comuna Păuliş","ru":"Comuna Păuliş","country":"d57ad926-7223-4358-af4b-9d5618032a6f","countryCode":"RO","state":"86e22273-7bab-4318-8c87-31bf146a4017","stateCode":"AR","latitude":"46.12506000","longitude":"21.60246000"},{"id":"64aec298-2629-48ea-a2c7-421a68893980","name":"Comuna Peregu Mare","ru":"Comuna Peregu Mare","country":"d57ad926-7223-4358-af4b-9d5618032a6f","countryCode":"RO","state":"86e22273-7bab-4318-8c87-31bf146a4017","stateCode":"AR","latitude":"46.23377000","longitude":"20.90612000"},{"id":"60c38221-df79-46cd-9db7-00b74f6f784f","name":"Comuna Petriş","ru":"Comuna Petriş","country":"d57ad926-7223-4358-af4b-9d5618032a6f","countryCode":"RO","state":"86e22273-7bab-4318-8c87-31bf146a4017","stateCode":"AR","latitude":"46.06770000","longitude":"22.39523000"},{"id":"5554596a-9e41-4781-82c4-4a67d1f51967","name":"Comuna Pilu","ru":"Comuna Pilu","country":"d57ad926-7223-4358-af4b-9d5618032a6f","countryCode":"RO","state":"86e22273-7bab-4318-8c87-31bf146a4017","stateCode":"AR","latitude":"46.59727000","longitude":"21.34711000"},{"id":"ac0c778d-e7e3-4e85-be24-ec5bf30516af","name":"Comuna Pleşcuţa","ru":"Comuna Pleşcuţa","country":"d57ad926-7223-4358-af4b-9d5618032a6f","countryCode":"RO","state":"86e22273-7bab-4318-8c87-31bf146a4017","stateCode":"AR","latitude":"46.28315000","longitude":"22.43178000"},{"id":"8dde9e1c-9636-4c10-b869-7a23441fa6d1","name":"Comuna Săvârşin","ru":"Comuna Săvârşin","country":"d57ad926-7223-4358-af4b-9d5618032a6f","countryCode":"RO","state":"86e22273-7bab-4318-8c87-31bf146a4017","stateCode":"AR","latitude":"46.02527000","longitude":"22.26514000"},{"id":"13fcdb5d-cd52-4049-b332-1c7328188550","name":"Comuna Secusigiu","ru":"Comuna Secusigiu","country":"d57ad926-7223-4358-af4b-9d5618032a6f","countryCode":"RO","state":"86e22273-7bab-4318-8c87-31bf146a4017","stateCode":"AR","latitude":"46.09260000","longitude":"21.00295000"},{"id":"34b04e1b-3514-465f-a353-da3f4a214ec0","name":"Comuna Seleuş","ru":"Comuna Seleuş","country":"d57ad926-7223-4358-af4b-9d5618032a6f","countryCode":"RO","state":"86e22273-7bab-4318-8c87-31bf146a4017","stateCode":"AR","latitude":"46.37886000","longitude":"21.74875000"},{"id":"2a129655-6fee-47fa-bb0c-5d105527c25c","name":"Comuna Semlac","ru":"Comuna Semlac","country":"d57ad926-7223-4358-af4b-9d5618032a6f","countryCode":"RO","state":"86e22273-7bab-4318-8c87-31bf146a4017","stateCode":"AR","latitude":"46.11260000","longitude":"20.93210000"},{"id":"cdc9f7ef-2238-4a90-82be-9ef9f1c25323","name":"Comuna Sintea Mare","ru":"Comuna Sintea Mare","country":"d57ad926-7223-4358-af4b-9d5618032a6f","countryCode":"RO","state":"86e22273-7bab-4318-8c87-31bf146a4017","stateCode":"AR","latitude":"46.51684000","longitude":"21.60800000"},{"id":"4be676bf-4058-4bc3-b405-eca204abe64b","name":"Comuna Socodor","ru":"Comuna Socodor","country":"d57ad926-7223-4358-af4b-9d5618032a6f","countryCode":"RO","state":"86e22273-7bab-4318-8c87-31bf146a4017","stateCode":"AR","latitude":"46.51010000","longitude":"21.44128000"},{"id":"57fe1458-ad39-4bf9-adaa-774e01b7c3f8","name":"Comuna Tauţ","ru":"Comuna Tauţ","country":"d57ad926-7223-4358-af4b-9d5618032a6f","countryCode":"RO","state":"86e22273-7bab-4318-8c87-31bf146a4017","stateCode":"AR","latitude":"46.26383000","longitude":"21.96747000"},{"id":"971c27c7-95a7-4429-a39d-8099f05527ae","name":"Comuna Târnova","ru":"Comuna Târnova","country":"d57ad926-7223-4358-af4b-9d5618032a6f","countryCode":"RO","state":"86e22273-7bab-4318-8c87-31bf146a4017","stateCode":"AR","latitude":"46.29054000","longitude":"21.80388000"},{"id":"e031334f-36c6-4543-8a4f-468afce217bb","name":"Comuna Ususău","ru":"Comuna Ususău","country":"d57ad926-7223-4358-af4b-9d5618032a6f","countryCode":"RO","state":"86e22273-7bab-4318-8c87-31bf146a4017","stateCode":"AR","latitude":"46.06781000","longitude":"21.81490000"},{"id":"247c56c9-1b08-4baa-aa89-8001ef9742f6","name":"Comuna Vârfurile","ru":"Comuna Vârfurile","country":"d57ad926-7223-4358-af4b-9d5618032a6f","countryCode":"RO","state":"86e22273-7bab-4318-8c87-31bf146a4017","stateCode":"AR","latitude":"46.33689000","longitude":"22.51984000"},{"id":"31737dc6-5108-4e6a-a1be-8b5bc8195553","name":"Comuna Vărădia de Mureş","ru":"Comuna Vărădia de Mureş","country":"d57ad926-7223-4358-af4b-9d5618032a6f","countryCode":"RO","state":"86e22273-7bab-4318-8c87-31bf146a4017","stateCode":"AR","latitude":"46.04619000","longitude":"22.15651000"},{"id":"0ca032b6-9eed-4339-b8c6-279ffa2f3abf","name":"Comuna Vinga","ru":"Comuna Vinga","country":"d57ad926-7223-4358-af4b-9d5618032a6f","countryCode":"RO","state":"86e22273-7bab-4318-8c87-31bf146a4017","stateCode":"AR","latitude":"46.02249000","longitude":"21.15244000"},{"id":"53fa8a27-606d-4d97-8158-7d72c6001b5a","name":"Comuna Vladimirescu","ru":"Comuna Vladimirescu","country":"d57ad926-7223-4358-af4b-9d5618032a6f","countryCode":"RO","state":"86e22273-7bab-4318-8c87-31bf146a4017","stateCode":"AR","latitude":"46.16509000","longitude":"21.40411000"},{"id":"2f7857a5-c4e0-401a-8b9d-07bac007ccc7","name":"Comuna Zăbrani","ru":"Comuna Zăbrani","country":"d57ad926-7223-4358-af4b-9d5618032a6f","countryCode":"RO","state":"86e22273-7bab-4318-8c87-31bf146a4017","stateCode":"AR","latitude":"46.06310000","longitude":"21.58529000"},{"id":"09d9a1db-418b-4c0d-85ed-a3e2d70215cb","name":"Comuna Zădăreni","ru":"Comuna Zădăreni","country":"d57ad926-7223-4358-af4b-9d5618032a6f","countryCode":"RO","state":"86e22273-7bab-4318-8c87-31bf146a4017","stateCode":"AR","latitude":"46.13077000","longitude":"21.20866000"},{"id":"13ee0235-6f8f-4e08-8e83-5c2f80722691","name":"Comuna Zărand","ru":"Comuna Zărand","country":"d57ad926-7223-4358-af4b-9d5618032a6f","countryCode":"RO","state":"86e22273-7bab-4318-8c87-31bf146a4017","stateCode":"AR","latitude":"46.43911000","longitude":"21.56909000"},{"id":"4e819053-a15f-4d91-93cc-b7ea3b72ba58","name":"Comuna Zerind","ru":"Comuna Zerind","country":"d57ad926-7223-4358-af4b-9d5618032a6f","countryCode":"RO","state":"86e22273-7bab-4318-8c87-31bf146a4017","stateCode":"AR","latitude":"46.63087000","longitude":"21.50777000"},{"id":"aaf4f531-755c-40fe-a81a-92196f697f1d","name":"Comuna Zimandu Nou","ru":"Comuna Zimandu Nou","country":"d57ad926-7223-4358-af4b-9d5618032a6f","countryCode":"RO","state":"86e22273-7bab-4318-8c87-31bf146a4017","stateCode":"AR","latitude":"46.27496000","longitude":"21.39162000"},{"id":"98c42fac-868e-44db-8144-e27efc625c91","name":"Conop","ru":"Conop","country":"d57ad926-7223-4358-af4b-9d5618032a6f","countryCode":"RO","state":"86e22273-7bab-4318-8c87-31bf146a4017","stateCode":"AR","latitude":"46.10186000","longitude":"21.87970000"},{"id":"48a35b6b-1a8e-4c06-ac66-60268a5997c2","name":"Covăsinţ","ru":"Covăsinţ","country":"d57ad926-7223-4358-af4b-9d5618032a6f","countryCode":"RO","state":"86e22273-7bab-4318-8c87-31bf146a4017","stateCode":"AR","latitude":"46.20000000","longitude":"21.60000000"},{"id":"64f969a3-36bc-4e78-ad21-2bda26900cf1","name":"Craiva","ru":"Craiva","country":"d57ad926-7223-4358-af4b-9d5618032a6f","countryCode":"RO","state":"86e22273-7bab-4318-8c87-31bf146a4017","stateCode":"AR","latitude":"46.58333000","longitude":"21.96667000"},{"id":"a9ffad13-e354-4bcf-b0ae-9bb74f304549","name":"Curtici","ru":"Curtici","country":"d57ad926-7223-4358-af4b-9d5618032a6f","countryCode":"RO","state":"86e22273-7bab-4318-8c87-31bf146a4017","stateCode":"AR","latitude":"46.35000000","longitude":"21.30000000"},{"id":"79efde03-0a08-473d-8fd9-d98516c2c63c","name":"Cuvin","ru":"Cuvin","country":"d57ad926-7223-4358-af4b-9d5618032a6f","countryCode":"RO","state":"86e22273-7bab-4318-8c87-31bf146a4017","stateCode":"AR","latitude":"46.17001000","longitude":"21.59360000"},{"id":"06962187-a131-452f-8bac-b7c7d9b4b55e","name":"Dezna","ru":"Dezna","country":"d57ad926-7223-4358-af4b-9d5618032a6f","countryCode":"RO","state":"86e22273-7bab-4318-8c87-31bf146a4017","stateCode":"AR","latitude":"46.40000000","longitude":"22.25000000"},{"id":"f47ff718-b0be-46e0-a1c0-1d9f68fd2f48","name":"Dieci","ru":"Dieci","country":"d57ad926-7223-4358-af4b-9d5618032a6f","countryCode":"RO","state":"86e22273-7bab-4318-8c87-31bf146a4017","stateCode":"AR","latitude":"46.31667000","longitude":"22.25000000"},{"id":"70420542-e5e3-4dd5-b66e-c3f27384a079","name":"Dorgoş","ru":"Dorgoş","country":"d57ad926-7223-4358-af4b-9d5618032a6f","countryCode":"RO","state":"86e22273-7bab-4318-8c87-31bf146a4017","stateCode":"AR","latitude":"46.05000000","longitude":"21.83333000"},{"id":"1eed08e0-e792-4622-9c1d-c61d174197f2","name":"Dorobanți","ru":"Dorobanți","country":"d57ad926-7223-4358-af4b-9d5618032a6f","countryCode":"RO","state":"86e22273-7bab-4318-8c87-31bf146a4017","stateCode":"AR","latitude":"46.35022000","longitude":"21.24441000"},{"id":"86e40ae2-5330-48e9-b7fa-3e7512ff344f","name":"Drauț","ru":"Drauț","country":"d57ad926-7223-4358-af4b-9d5618032a6f","countryCode":"RO","state":"86e22273-7bab-4318-8c87-31bf146a4017","stateCode":"AR","latitude":"46.26048000","longitude":"21.80924000"},{"id":"35e858d2-9815-42c8-b02c-700c472afe6f","name":"Țipar","ru":"Țipar","country":"d57ad926-7223-4358-af4b-9d5618032a6f","countryCode":"RO","state":"86e22273-7bab-4318-8c87-31bf146a4017","stateCode":"AR","latitude":"46.47563000","longitude":"21.63431000"},{"id":"8e479f34-f6b5-4b07-aacd-6bfee8e43f06","name":"Șepreuș","ru":"Șepreuș","country":"d57ad926-7223-4358-af4b-9d5618032a6f","countryCode":"RO","state":"86e22273-7bab-4318-8c87-31bf146a4017","stateCode":"AR","latitude":"46.57125000","longitude":"21.73417000"},{"id":"06e40450-560f-407c-b41f-e609246a221c","name":"Șiclău","ru":"Șiclău","country":"d57ad926-7223-4358-af4b-9d5618032a6f","countryCode":"RO","state":"86e22273-7bab-4318-8c87-31bf146a4017","stateCode":"AR","latitude":"46.49124000","longitude":"21.36834000"},{"id":"ed8a02e7-b611-4b12-b59e-bda290a747d9","name":"Fântânele","ru":"Fântânele","country":"d57ad926-7223-4358-af4b-9d5618032a6f","countryCode":"RO","state":"86e22273-7bab-4318-8c87-31bf146a4017","stateCode":"AR","latitude":"46.12370000","longitude":"21.38420000"},{"id":"4a9e3e1a-44c9-41db-bd68-d5a3a06a99a0","name":"Felnac","ru":"Felnac","country":"d57ad926-7223-4358-af4b-9d5618032a6f","countryCode":"RO","state":"86e22273-7bab-4318-8c87-31bf146a4017","stateCode":"AR","latitude":"46.11667000","longitude":"21.15000000"},{"id":"24974b39-dd5c-446b-a9e3-0892e9dc903b","name":"Frumușeni","ru":"Frumușeni","country":"d57ad926-7223-4358-af4b-9d5618032a6f","countryCode":"RO","state":"86e22273-7bab-4318-8c87-31bf146a4017","stateCode":"AR","latitude":"46.10252000","longitude":"21.46167000"},{"id":"d1512778-e739-4046-86e5-a99ad6697e18","name":"Galșa","ru":"Galșa","country":"d57ad926-7223-4358-af4b-9d5618032a6f","countryCode":"RO","state":"86e22273-7bab-4318-8c87-31bf146a4017","stateCode":"AR","latitude":"46.28810000","longitude":"21.65137000"},{"id":"be6f51e7-39d7-42c8-87b7-741d92dd76e2","name":"Ghioroc","ru":"Ghioroc","country":"d57ad926-7223-4358-af4b-9d5618032a6f","countryCode":"RO","state":"86e22273-7bab-4318-8c87-31bf146a4017","stateCode":"AR","latitude":"46.15000000","longitude":"21.58333000"},{"id":"c2af8dc1-c4e8-4364-94b5-950678924cc7","name":"Grăniceri","ru":"Grăniceri","country":"d57ad926-7223-4358-af4b-9d5618032a6f","countryCode":"RO","state":"86e22273-7bab-4318-8c87-31bf146a4017","stateCode":"AR","latitude":"46.51667000","longitude":"21.30000000"},{"id":"7bf610d8-3af1-4f20-9ed9-b8b4e0fab658","name":"Gurahonţ","ru":"Gurahonţ","country":"d57ad926-7223-4358-af4b-9d5618032a6f","countryCode":"RO","state":"86e22273-7bab-4318-8c87-31bf146a4017","stateCode":"AR","latitude":"46.26667000","longitude":"22.35000000"},{"id":"80830c8e-2554-4e58-843e-2c6f1515e6e2","name":"Gurba","ru":"Gurba","country":"d57ad926-7223-4358-af4b-9d5618032a6f","countryCode":"RO","state":"86e22273-7bab-4318-8c87-31bf146a4017","stateCode":"AR","latitude":"46.46756000","longitude":"21.78789000"},{"id":"93126b95-85df-4fc7-a9af-19adf5b9d2f9","name":"Hășmaș","ru":"Hășmaș","country":"d57ad926-7223-4358-af4b-9d5618032a6f","countryCode":"RO","state":"86e22273-7bab-4318-8c87-31bf146a4017","stateCode":"AR","latitude":"46.50000000","longitude":"22.08333000"},{"id":"ee8090e1-42d4-4761-81dd-c14069a3acc8","name":"Hălmagiu","ru":"Hălmagiu","country":"d57ad926-7223-4358-af4b-9d5618032a6f","countryCode":"RO","state":"86e22273-7bab-4318-8c87-31bf146a4017","stateCode":"AR","latitude":"46.26667000","longitude":"22.58333000"},{"id":"f319dfdf-a444-45dc-b098-d4e4c91c3332","name":"Hălmăgel","ru":"Hălmăgel","country":"d57ad926-7223-4358-af4b-9d5618032a6f","countryCode":"RO","state":"86e22273-7bab-4318-8c87-31bf146a4017","stateCode":"AR","latitude":"46.26667000","longitude":"22.61667000"},{"id":"9847db68-f27b-4383-b086-5d3acce179c5","name":"Horia","ru":"Horia","country":"d57ad926-7223-4358-af4b-9d5618032a6f","countryCode":"RO","state":"86e22273-7bab-4318-8c87-31bf146a4017","stateCode":"AR","latitude":"46.20847000","longitude":"21.46287000"},{"id":"f2ba4690-4046-40d9-ab1d-30ee1803bb0d","name":"Igneşti","ru":"Igneşti","country":"d57ad926-7223-4358-af4b-9d5618032a6f","countryCode":"RO","state":"86e22273-7bab-4318-8c87-31bf146a4017","stateCode":"AR","latitude":"46.40000000","longitude":"22.16667000"},{"id":"5b17e61c-bff1-4ede-a5e8-1b677cbcdefe","name":"Ineu","ru":"Ineu","country":"d57ad926-7223-4358-af4b-9d5618032a6f","countryCode":"RO","state":"86e22273-7bab-4318-8c87-31bf146a4017","stateCode":"AR","latitude":"46.43372000","longitude":"21.84048000"},{"id":"cbb45b9d-6b69-4dd0-a947-37053269e764","name":"Iratoşu","ru":"Iratoşu","country":"d57ad926-7223-4358-af4b-9d5618032a6f","countryCode":"RO","state":"86e22273-7bab-4318-8c87-31bf146a4017","stateCode":"AR","latitude":"46.31667000","longitude":"21.20000000"},{"id":"903d0e11-3fde-4caa-a388-eb1da7945976","name":"Lipova","ru":"Lipova","country":"d57ad926-7223-4358-af4b-9d5618032a6f","countryCode":"RO","state":"86e22273-7bab-4318-8c87-31bf146a4017","stateCode":"AR","latitude":"46.09085000","longitude":"21.69628000"},{"id":"ae29bcae-e565-4c87-983e-9981e0bb625a","name":"Livada","ru":"Livada","country":"d57ad926-7223-4358-af4b-9d5618032a6f","countryCode":"RO","state":"86e22273-7bab-4318-8c87-31bf146a4017","stateCode":"AR","latitude":"46.22284000","longitude":"21.38403000"},{"id":"77f77e6a-2c00-41f5-b730-490a946b4c67","name":"Macea","ru":"Macea","country":"d57ad926-7223-4358-af4b-9d5618032a6f","countryCode":"RO","state":"86e22273-7bab-4318-8c87-31bf146a4017","stateCode":"AR","latitude":"46.38333000","longitude":"21.30000000"},{"id":"b2779185-bc18-4767-9cc3-a76cdaa0468a","name":"Mailat","ru":"Mailat","country":"d57ad926-7223-4358-af4b-9d5618032a6f","countryCode":"RO","state":"86e22273-7bab-4318-8c87-31bf146a4017","stateCode":"AR","latitude":"46.04189000","longitude":"21.10702000"},{"id":"d36d1050-20d3-4b89-a3d2-119ae431e237","name":"Mândruloc","ru":"Mândruloc","country":"d57ad926-7223-4358-af4b-9d5618032a6f","countryCode":"RO","state":"86e22273-7bab-4318-8c87-31bf146a4017","stateCode":"AR","latitude":"46.14863000","longitude":"21.46570000"},{"id":"4886faa7-e692-4530-b2eb-02ac13c39a77","name":"Mâsca","ru":"Mâsca","country":"d57ad926-7223-4358-af4b-9d5618032a6f","countryCode":"RO","state":"86e22273-7bab-4318-8c87-31bf146a4017","stateCode":"AR","latitude":"46.30000000","longitude":"21.68333000"},{"id":"dad61c98-59ba-4463-9e14-e453b93a05ce","name":"Măderat","ru":"Măderat","country":"d57ad926-7223-4358-af4b-9d5618032a6f","countryCode":"RO","state":"86e22273-7bab-4318-8c87-31bf146a4017","stateCode":"AR","latitude":"46.29493000","longitude":"21.71137000"},{"id":"d0673818-0fdb-462d-899c-7484a7d5d217","name":"Mănăștur","ru":"Mănăștur","country":"d57ad926-7223-4358-af4b-9d5618032a6f","countryCode":"RO","state":"86e22273-7bab-4318-8c87-31bf146a4017","stateCode":"AR","latitude":"46.00949000","longitude":"21.13362000"},{"id":"649b5061-6e25-40c9-9835-da48eafc32a8","name":"Mișca","ru":"Mișca","country":"d57ad926-7223-4358-af4b-9d5618032a6f","countryCode":"RO","state":"86e22273-7bab-4318-8c87-31bf146a4017","stateCode":"AR","latitude":"46.60280000","longitude":"21.59998000"},{"id":"d4eecebc-632a-4a40-985b-2d018bac4f7b","name":"Moneasa","ru":"Moneasa","country":"d57ad926-7223-4358-af4b-9d5618032a6f","countryCode":"RO","state":"86e22273-7bab-4318-8c87-31bf146a4017","stateCode":"AR","latitude":"46.45000000","longitude":"22.25000000"},{"id":"a2fba769-2840-44f7-8310-7016543dabfb","name":"Municipiul Arad","ru":"Municipiul Arad","country":"d57ad926-7223-4358-af4b-9d5618032a6f","countryCode":"RO","state":"86e22273-7bab-4318-8c87-31bf146a4017","stateCode":"AR","latitude":"46.17745000","longitude":"21.31348000"},{"id":"172af86f-89ef-46a7-af06-6b7e68015ed7","name":"Nadab","ru":"Nadab","country":"d57ad926-7223-4358-af4b-9d5618032a6f","countryCode":"RO","state":"86e22273-7bab-4318-8c87-31bf146a4017","stateCode":"AR","latitude":"46.48195000","longitude":"21.51178000"},{"id":"c87ee5eb-e068-4306-8330-b0c8ef259d22","name":"Nadăș","ru":"Nadăș","country":"d57ad926-7223-4358-af4b-9d5618032a6f","countryCode":"RO","state":"86e22273-7bab-4318-8c87-31bf146a4017","stateCode":"AR","latitude":"46.22490000","longitude":"21.95036000"},{"id":"d115b468-438a-4cf1-9160-f5ca838d1e21","name":"Nădlac","ru":"Nădlac","country":"d57ad926-7223-4358-af4b-9d5618032a6f","countryCode":"RO","state":"86e22273-7bab-4318-8c87-31bf146a4017","stateCode":"AR","latitude":"46.16667000","longitude":"20.75000000"},{"id":"559f7d88-e75e-497a-8526-91f87006ddc6","name":"Neudorf","ru":"Neudorf","country":"d57ad926-7223-4358-af4b-9d5618032a6f","countryCode":"RO","state":"86e22273-7bab-4318-8c87-31bf146a4017","stateCode":"AR","latitude":"46.06960000","longitude":"21.61899000"},{"id":"81731dce-7737-4057-aff2-9fc0273c56e2","name":"Olari","ru":"Olari","country":"d57ad926-7223-4358-af4b-9d5618032a6f","countryCode":"RO","state":"86e22273-7bab-4318-8c87-31bf146a4017","stateCode":"AR","latitude":"46.38333000","longitude":"21.55000000"},{"id":"bb508791-772d-4000-abb3-5bc03213b07c","name":"Oraş Chişineu-Criş","ru":"Oraş Chişineu-Criş","country":"d57ad926-7223-4358-af4b-9d5618032a6f","countryCode":"RO","state":"86e22273-7bab-4318-8c87-31bf146a4017","stateCode":"AR","latitude":"46.52178000","longitude":"21.51295000"},{"id":"ec12a7df-3e35-4535-be14-91dfd67fa2fb","name":"Oraş Curtici","ru":"Oraş Curtici","country":"d57ad926-7223-4358-af4b-9d5618032a6f","countryCode":"RO","state":"86e22273-7bab-4318-8c87-31bf146a4017","stateCode":"AR","latitude":"46.34358000","longitude":"21.31051000"},{"id":"f36101dd-2d9e-4107-8d29-c836dc21599a","name":"Oraş Ineu","ru":"Oraş Ineu","country":"d57ad926-7223-4358-af4b-9d5618032a6f","countryCode":"RO","state":"86e22273-7bab-4318-8c87-31bf146a4017","stateCode":"AR","latitude":"46.42709000","longitude":"21.84185000"},{"id":"27543a24-d92a-4ecd-b13c-4727ab4d6390","name":"Oraş Lipova","ru":"Oraş Lipova","country":"d57ad926-7223-4358-af4b-9d5618032a6f","countryCode":"RO","state":"86e22273-7bab-4318-8c87-31bf146a4017","stateCode":"AR","latitude":"46.09061000","longitude":"21.69465000"},{"id":"f4cf5981-ce49-48b4-8958-a9d923f1f8f2","name":"Oraş Nãdlac","ru":"Oraş Nãdlac","country":"d57ad926-7223-4358-af4b-9d5618032a6f","countryCode":"RO","state":"86e22273-7bab-4318-8c87-31bf146a4017","stateCode":"AR","latitude":"46.16664000","longitude":"20.74871000"},{"id":"9e83a110-ec36-4f24-9c05-840258d349ca","name":"Oraş Pâncota","ru":"Oraş Pâncota","country":"d57ad926-7223-4358-af4b-9d5618032a6f","countryCode":"RO","state":"86e22273-7bab-4318-8c87-31bf146a4017","stateCode":"AR","latitude":"46.31205000","longitude":"21.70163000"},{"id":"4e2a2066-d42e-4233-b1ad-d6815ae0ec3d","name":"Oraş Sântana","ru":"Oraş Sântana","country":"d57ad926-7223-4358-af4b-9d5618032a6f","countryCode":"RO","state":"86e22273-7bab-4318-8c87-31bf146a4017","stateCode":"AR","latitude":"46.34622000","longitude":"21.50402000"},{"id":"8d64aaf6-46af-453c-bad1-7280868bf1c2","name":"Oraş Sebiş","ru":"Oraş Sebiş","country":"d57ad926-7223-4358-af4b-9d5618032a6f","countryCode":"RO","state":"86e22273-7bab-4318-8c87-31bf146a4017","stateCode":"AR","latitude":"46.38771000","longitude":"22.15480000"},{"id":"ced43dd3-2511-4d67-8660-7d0a426f97a0","name":"Pâncota","ru":"Pâncota","country":"d57ad926-7223-4358-af4b-9d5618032a6f","countryCode":"RO","state":"86e22273-7bab-4318-8c87-31bf146a4017","stateCode":"AR","latitude":"46.33333000","longitude":"21.70000000"},{"id":"8612d996-f843-45e8-873c-c35d12c1abc4","name":"Păuliş","ru":"Păuliş","country":"d57ad926-7223-4358-af4b-9d5618032a6f","countryCode":"RO","state":"86e22273-7bab-4318-8c87-31bf146a4017","stateCode":"AR","latitude":"46.11667000","longitude":"21.58333000"},{"id":"4077de8b-7afa-4934-a0d1-3e5083441e7a","name":"Pecica","ru":"Pecica","country":"d57ad926-7223-4358-af4b-9d5618032a6f","countryCode":"RO","state":"86e22273-7bab-4318-8c87-31bf146a4017","stateCode":"AR","latitude":"46.16667000","longitude":"21.06667000"},{"id":"14512319-0cf0-48b5-a207-b4a8877e29fb","name":"Peregu Mare","ru":"Peregu Mare","country":"d57ad926-7223-4358-af4b-9d5618032a6f","countryCode":"RO","state":"86e22273-7bab-4318-8c87-31bf146a4017","stateCode":"AR","latitude":"46.23333000","longitude":"20.90000000"},{"id":"43befd19-47b7-41cb-8fff-5f1302bcaa90","name":"Peregu Mic","ru":"Peregu Mic","country":"d57ad926-7223-4358-af4b-9d5618032a6f","countryCode":"RO","state":"86e22273-7bab-4318-8c87-31bf146a4017","stateCode":"AR","latitude":"46.25021000","longitude":"20.94885000"},{"id":"99b7779e-50ed-45f2-8ed5-f955feecf335","name":"Petriş","ru":"Petriş","country":"d57ad926-7223-4358-af4b-9d5618032a6f","countryCode":"RO","state":"86e22273-7bab-4318-8c87-31bf146a4017","stateCode":"AR","latitude":"46.05000000","longitude":"22.38333000"},{"id":"0e5ef6d1-6058-4f81-adc6-c42c6bdcdce5","name":"Pilu","ru":"Pilu","country":"d57ad926-7223-4358-af4b-9d5618032a6f","countryCode":"RO","state":"86e22273-7bab-4318-8c87-31bf146a4017","stateCode":"AR","latitude":"46.56667000","longitude":"21.35000000"},{"id":"a3e512a7-794e-4aa1-b2d8-9d0c5baf32b5","name":"Pleşcuţa","ru":"Pleşcuţa","country":"d57ad926-7223-4358-af4b-9d5618032a6f","countryCode":"RO","state":"86e22273-7bab-4318-8c87-31bf146a4017","stateCode":"AR","latitude":"46.30000000","longitude":"22.43333000"},{"id":"5b0ddf2a-a1f2-4476-a11a-02f31f4c3337","name":"Radna","ru":"Radna","country":"d57ad926-7223-4358-af4b-9d5618032a6f","countryCode":"RO","state":"86e22273-7bab-4318-8c87-31bf146a4017","stateCode":"AR","latitude":"46.09444000","longitude":"21.68732000"},{"id":"6f6a9198-447a-4841-b3cc-f08420088e8e","name":"Satu Mare","ru":"Satu Mare","country":"d57ad926-7223-4358-af4b-9d5618032a6f","countryCode":"RO","state":"86e22273-7bab-4318-8c87-31bf146a4017","stateCode":"AR","latitude":"46.06628000","longitude":"20.95826000"},{"id":"cdee05a8-6a31-4642-b2a3-b492e1697ce4","name":"Sâmbăteni","ru":"Sâmbăteni","country":"d57ad926-7223-4358-af4b-9d5618032a6f","countryCode":"RO","state":"86e22273-7bab-4318-8c87-31bf146a4017","stateCode":"AR","latitude":"46.14110000","longitude":"21.52689000"},{"id":"57d4434d-4b8a-47ac-bf57-06d68737722b","name":"Sânmartin","ru":"Sânmartin","country":"d57ad926-7223-4358-af4b-9d5618032a6f","countryCode":"RO","state":"86e22273-7bab-4318-8c87-31bf146a4017","stateCode":"AR","latitude":"46.41653000","longitude":"21.34821000"},{"id":"efe2dd23-f076-4ddb-bcfe-862f7cb92efe","name":"Sânpetru German","ru":"Sânpetru German","country":"d57ad926-7223-4358-af4b-9d5618032a6f","countryCode":"RO","state":"86e22273-7bab-4318-8c87-31bf146a4017","stateCode":"AR","latitude":"46.11327000","longitude":"21.04932000"},{"id":"e1cb3633-cd6b-4436-9cbd-3855c5835280","name":"Sântana","ru":"Sântana","country":"d57ad926-7223-4358-af4b-9d5618032a6f","countryCode":"RO","state":"86e22273-7bab-4318-8c87-31bf146a4017","stateCode":"AR","latitude":"46.35000000","longitude":"21.50000000"},{"id":"37897033-4d16-4c4c-a709-15a7abf8482c","name":"Săvârşin","ru":"Săvârşin","country":"d57ad926-7223-4358-af4b-9d5618032a6f","countryCode":"RO","state":"86e22273-7bab-4318-8c87-31bf146a4017","stateCode":"AR","latitude":"46.01667000","longitude":"22.23333000"},{"id":"7fa7d158-7302-4b3f-8c15-3211cdd1f645","name":"Sebiş","ru":"Sebiş","country":"d57ad926-7223-4358-af4b-9d5618032a6f","countryCode":"RO","state":"86e22273-7bab-4318-8c87-31bf146a4017","stateCode":"AR","latitude":"46.36667000","longitude":"22.11667000"},{"id":"d3df0157-8302-4450-9739-5341c5201b3b","name":"Secusigiu","ru":"Secusigiu","country":"d57ad926-7223-4358-af4b-9d5618032a6f","countryCode":"RO","state":"86e22273-7bab-4318-8c87-31bf146a4017","stateCode":"AR","latitude":"46.08333000","longitude":"20.98333000"},{"id":"98cf7df1-5a6d-404c-940c-7d54e930d808","name":"Seleuş","ru":"Seleuş","country":"d57ad926-7223-4358-af4b-9d5618032a6f","countryCode":"RO","state":"86e22273-7bab-4318-8c87-31bf146a4017","stateCode":"AR","latitude":"46.38333000","longitude":"21.71667000"},{"id":"f600de17-70ad-4a41-bbda-930d5922c8da","name":"Semlac","ru":"Semlac","country":"d57ad926-7223-4358-af4b-9d5618032a6f","countryCode":"RO","state":"86e22273-7bab-4318-8c87-31bf146a4017","stateCode":"AR","latitude":"46.11667000","longitude":"20.93333000"},{"id":"23a48e8f-b2a9-46e9-97de-6179ac22caa7","name":"Sintea Mare","ru":"Sintea Mare","country":"d57ad926-7223-4358-af4b-9d5618032a6f","countryCode":"RO","state":"86e22273-7bab-4318-8c87-31bf146a4017","stateCode":"AR","latitude":"46.51667000","longitude":"21.60000000"},{"id":"34ab3413-598e-4b38-b332-153c5c53cfca","name":"Socodor","ru":"Socodor","country":"d57ad926-7223-4358-af4b-9d5618032a6f","countryCode":"RO","state":"86e22273-7bab-4318-8c87-31bf146a4017","stateCode":"AR","latitude":"46.51667000","longitude":"21.43333000"},{"id":"f51dc327-bc2c-4e82-ae90-58c1c99617d5","name":"Tauţ","ru":"Tauţ","country":"d57ad926-7223-4358-af4b-9d5618032a6f","countryCode":"RO","state":"86e22273-7bab-4318-8c87-31bf146a4017","stateCode":"AR","latitude":"46.28333000","longitude":"21.91667000"},{"id":"1e7eb87b-7bb5-4f83-b334-59b1bf5fb989","name":"Târnova","ru":"Târnova","country":"d57ad926-7223-4358-af4b-9d5618032a6f","countryCode":"RO","state":"86e22273-7bab-4318-8c87-31bf146a4017","stateCode":"AR","latitude":"46.31667000","longitude":"21.80000000"},{"id":"baa8d62f-5fc2-46ba-bc03-05564ad9abbb","name":"Turnu","ru":"Turnu","country":"d57ad926-7223-4358-af4b-9d5618032a6f","countryCode":"RO","state":"86e22273-7bab-4318-8c87-31bf146a4017","stateCode":"AR","latitude":"46.25764000","longitude":"21.12657000"},{"id":"1e437eec-6e90-41a4-ab86-b0411eb5f7f4","name":"Ususău","ru":"Ususău","country":"d57ad926-7223-4358-af4b-9d5618032a6f","countryCode":"RO","state":"86e22273-7bab-4318-8c87-31bf146a4017","stateCode":"AR","latitude":"46.07063000","longitude":"21.81371000"},{"id":"e1a8656b-2cda-4e73-aa11-3763d4eaa028","name":"Vânători","ru":"Vânători","country":"d57ad926-7223-4358-af4b-9d5618032a6f","countryCode":"RO","state":"86e22273-7bab-4318-8c87-31bf146a4017","stateCode":"AR","latitude":"46.62456000","longitude":"21.67332000"},{"id":"d7ce40c1-6833-4234-a8dd-d76cfbd7eab4","name":"Vârfurile","ru":"Vârfurile","country":"d57ad926-7223-4358-af4b-9d5618032a6f","countryCode":"RO","state":"86e22273-7bab-4318-8c87-31bf146a4017","stateCode":"AR","latitude":"46.31667000","longitude":"22.51667000"},{"id":"3771343d-167c-49c9-aac5-a2c6bc5060ea","name":"Vărădia de Mureş","ru":"Vărădia de Mureş","country":"d57ad926-7223-4358-af4b-9d5618032a6f","countryCode":"RO","state":"86e22273-7bab-4318-8c87-31bf146a4017","stateCode":"AR","latitude":"46.01667000","longitude":"22.15000000"},{"id":"b3d32fe6-7a1a-4914-aac2-6e2870005681","name":"Vinga","ru":"Vinga","country":"d57ad926-7223-4358-af4b-9d5618032a6f","countryCode":"RO","state":"86e22273-7bab-4318-8c87-31bf146a4017","stateCode":"AR","latitude":"46.01667000","longitude":"21.20000000"},{"id":"be10c14e-5863-4d9a-9d9b-7a9781f40f71","name":"Vladimirescu","ru":"Vladimirescu","country":"d57ad926-7223-4358-af4b-9d5618032a6f","countryCode":"RO","state":"86e22273-7bab-4318-8c87-31bf146a4017","stateCode":"AR","latitude":"46.16628000","longitude":"21.40102000"},{"id":"8a8d01c5-f6dd-4f29-8742-1208c8854c30","name":"Zăbrani","ru":"Zăbrani","country":"d57ad926-7223-4358-af4b-9d5618032a6f","countryCode":"RO","state":"86e22273-7bab-4318-8c87-31bf146a4017","stateCode":"AR","latitude":"46.06667000","longitude":"21.55000000"},{"id":"67c62274-48e5-49ae-ab8f-907cdd7e8f6d","name":"Zădăreni","ru":"Zădăreni","country":"d57ad926-7223-4358-af4b-9d5618032a6f","countryCode":"RO","state":"86e22273-7bab-4318-8c87-31bf146a4017","stateCode":"AR","latitude":"46.13274000","longitude":"21.21821000"},{"id":"63a4fca2-f0a6-49bd-8a47-58ad48cf0830","name":"Zărand","ru":"Zărand","country":"d57ad926-7223-4358-af4b-9d5618032a6f","countryCode":"RO","state":"86e22273-7bab-4318-8c87-31bf146a4017","stateCode":"AR","latitude":"46.40000000","longitude":"21.65000000"},{"id":"a97d800d-4f09-4114-be98-0ea46958f0f6","name":"Zerind","ru":"Zerind","country":"d57ad926-7223-4358-af4b-9d5618032a6f","countryCode":"RO","state":"86e22273-7bab-4318-8c87-31bf146a4017","stateCode":"AR","latitude":"46.61667000","longitude":"21.51667000"},{"id":"e8303d3c-48cc-4af4-a3b8-40ee9f5443a8","name":"Zimandu Nou","ru":"Zimandu Nou","country":"d57ad926-7223-4358-af4b-9d5618032a6f","countryCode":"RO","state":"86e22273-7bab-4318-8c87-31bf146a4017","stateCode":"AR","latitude":"46.28333000","longitude":"21.40000000"},