[{"id":"4ccfd1d1-70fa-4fef-8714-0010602b2900","name":"Bulawayo","ru":"Bulawayo","country":"078eadfb-c212-4636-8aac-2c5a8b7c12f6","countryCode":"ZW","state":"1a84275e-98d2-41a6-9e38-8791477b6c5a","stateCode":"BU","latitude":"-20.15000000","longitude":"28.58333000"},{"id":"768015ea-bc18-463e-b5ff-bf557a95e575","name":"Chitungwiza","ru":"Chitungwiza","country":"078eadfb-c212-4636-8aac-2c5a8b7c12f6","countryCode":"ZW","state":"f3480bc3-c478-4507-897d-7847bad59e01","stateCode":"HA","latitude":"-18.01274000","longitude":"31.07555000"},{"id":"60b45deb-09da-44c3-8fbf-e8a821fba00c","name":"Epworth","ru":"Epworth","country":"078eadfb-c212-4636-8aac-2c5a8b7c12f6","countryCode":"ZW","state":"f3480bc3-c478-4507-897d-7847bad59e01","stateCode":"HA","latitude":"-17.89000000","longitude":"31.14750000"},{"id":"37fec821-e6a5-4507-8dec-50bfc892a609","name":"Harare","ru":"Harare","country":"078eadfb-c212-4636-8aac-2c5a8b7c12f6","countryCode":"ZW","state":"f3480bc3-c478-4507-897d-7847bad59e01","stateCode":"HA","latitude":"-17.82772000","longitude":"31.05337000"},{"id":"bddde173-0431-46f5-9fe2-a6a84a0a4279","name":"Buhera District","ru":"Buhera District","country":"078eadfb-c212-4636-8aac-2c5a8b7c12f6","countryCode":"ZW","state":"d6453785-5836-47db-8afb-7fa5984c9a45","stateCode":"MA","latitude":"-19.45658000","longitude":"31.93156000"},{"id":"71f9dcad-b13d-47a6-a2e9-4545f8958a3e","name":"Chimanimani","ru":"Chimanimani","country":"078eadfb-c212-4636-8aac-2c5a8b7c12f6","countryCode":"ZW","state":"d6453785-5836-47db-8afb-7fa5984c9a45","stateCode":"MA","latitude":"-19.80000000","longitude":"32.86667000"},{"id":"6c3f3a67-1e55-4948-9761-c7508f57d634","name":"Chimanimani District","ru":"Chimanimani District","country":"078eadfb-c212-4636-8aac-2c5a8b7c12f6","countryCode":"ZW","state":"d6453785-5836-47db-8afb-7fa5984c9a45","stateCode":"MA","latitude":"-19.78295000","longitude":"32.73338000"},{"id":"2e258fd9-0d0b-4c60-b5a2-704b5dcd5198","name":"Chipinge","ru":"Chipinge","country":"078eadfb-c212-4636-8aac-2c5a8b7c12f6","countryCode":"ZW","state":"d6453785-5836-47db-8afb-7fa5984c9a45","stateCode":"MA","latitude":"-20.18833000","longitude":"32.62365000"},{"id":"c98901b5-94ab-4573-94c1-850383e2f74f","name":"Chipinge District","ru":"Chipinge District","country":"078eadfb-c212-4636-8aac-2c5a8b7c12f6","countryCode":"ZW","state":"d6453785-5836-47db-8afb-7fa5984c9a45","stateCode":"MA","latitude":"-20.54959000","longitude":"32.43110000"},{"id":"1c5ccbe0-4a95-4603-9e90-68bc2e8f77e5","name":"Dorowa Mining Lease","ru":"Dorowa Mining Lease","country":"078eadfb-c212-4636-8aac-2c5a8b7c12f6","countryCode":"ZW","state":"d6453785-5836-47db-8afb-7fa5984c9a45","stateCode":"MA","latitude":"-19.06667000","longitude":"31.75000000"},{"id":"fcb27c1c-5ad9-44de-a8b4-a75124a9abe2","name":"Headlands","ru":"Headlands","country":"078eadfb-c212-4636-8aac-2c5a8b7c12f6","countryCode":"ZW","state":"d6453785-5836-47db-8afb-7fa5984c9a45","stateCode":"MA","latitude":"-18.27733000","longitude":"32.05150000"},{"id":"2b48bb5e-b6a2-4ffe-8309-7ec5878c4a52","name":"Makoni District","ru":"Makoni District","country":"078eadfb-c212-4636-8aac-2c5a8b7c12f6","countryCode":"ZW","state":"d6453785-5836-47db-8afb-7fa5984c9a45","stateCode":"MA","latitude":"-18.33550000","longitude":"32.14650000"},{"id":"5f9c5c88-f364-4cf8-8dbe-e281b4fc9fe0","name":"Mutare","ru":"Mutare","country":"078eadfb-c212-4636-8aac-2c5a8b7c12f6","countryCode":"ZW","state":"d6453785-5836-47db-8afb-7fa5984c9a45","stateCode":"MA","latitude":"-18.97070000","longitude":"32.67086000"},{"id":"194140b7-40fa-4733-87ab-a1b37eaf6e4b","name":"Mutare District","ru":"Mutare District","country":"078eadfb-c212-4636-8aac-2c5a8b7c12f6","countryCode":"ZW","state":"d6453785-5836-47db-8afb-7fa5984c9a45","stateCode":"MA","latitude":"-19.25512000","longitude":"32.44327000"},{"id":"8f6fc66e-5ae1-4a44-9ba5-97fe575e6c53","name":"Mutasa District","ru":"Mutasa District","country":"078eadfb-c212-4636-8aac-2c5a8b7c12f6","countryCode":"ZW","state":"d6453785-5836-47db-8afb-7fa5984c9a45","stateCode":"MA","latitude":"-18.66283000","longitude":"32.74547000"},{"id":"dfedcf97-b8d8-4c08-b91a-751b7ad57b3e","name":"Nyanga","ru":"Nyanga","country":"078eadfb-c212-4636-8aac-2c5a8b7c12f6","countryCode":"ZW","state":"d6453785-5836-47db-8afb-7fa5984c9a45","stateCode":"MA","latitude":"-18.21667000","longitude":"32.75000000"},{"id":"571d03cb-be6d-4d60-8fdb-54912ee3f277","name":"Nyanga District","ru":"Nyanga District","country":"078eadfb-c212-4636-8aac-2c5a8b7c12f6","countryCode":"ZW","state":"d6453785-5836-47db-8afb-7fa5984c9a45","stateCode":"MA","latitude":"-17.92951000","longitude":"32.76561000"},{"id":"f500d316-fed5-4408-93ce-b07128459c83","name":"Nyazura","ru":"Nyazura","country":"078eadfb-c212-4636-8aac-2c5a8b7c12f6","countryCode":"ZW","state":"d6453785-5836-47db-8afb-7fa5984c9a45","stateCode":"MA","latitude":"-18.70587000","longitude":"32.16796000"},{"id":"56e35116-a208-488c-89ba-b58215ec2863","name":"Odzi","ru":"Odzi","country":"078eadfb-c212-4636-8aac-2c5a8b7c12f6","countryCode":"ZW","state":"d6453785-5836-47db-8afb-7fa5984c9a45","stateCode":"MA","latitude":"-18.96167000","longitude":"32.40557000"},{"id":"4a895f99-f7a5-43f8-84d2-8837769444ea","name":"Penhalonga","ru":"Penhalonga","country":"078eadfb-c212-4636-8aac-2c5a8b7c12f6","countryCode":"ZW","state":"d6453785-5836-47db-8afb-7fa5984c9a45","stateCode":"MA","latitude":"-18.89112000","longitude":"32.69781000"},{"id":"0f146ea2-53e7-4f21-bbaa-f3f5008bf1aa","name":"Rusape","ru":"Rusape","country":"078eadfb-c212-4636-8aac-2c5a8b7c12f6","countryCode":"ZW","state":"d6453785-5836-47db-8afb-7fa5984c9a45","stateCode":"MA","latitude":"-18.52785000","longitude":"32.12843000"},{"id":"f166d78d-4448-4c91-b830-2a35a7e2f71f","name":"Bindura","ru":"Bindura","country":"078eadfb-c212-4636-8aac-2c5a8b7c12f6","countryCode":"ZW","state":"0d23b370-703d-4a93-ad72-1e2da4aac1f0","stateCode":"MC","latitude":"-17.30192000","longitude":"31.33056000"},{"id":"1fdb2dec-4e7b-4aa9-bc8e-f7b14f103aac","name":"Bindura District","ru":"Bindura District","country":"078eadfb-c212-4636-8aac-2c5a8b7c12f6","countryCode":"ZW","state":"0d23b370-703d-4a93-ad72-1e2da4aac1f0","stateCode":"MC","latitude":"-17.21230000","longitude":"31.30300000"},{"id":"7022bc8c-5b94-44c1-b41f-d994db624241","name":"Centenary","ru":"Centenary","country":"078eadfb-c212-4636-8aac-2c5a8b7c12f6","countryCode":"ZW","state":"0d23b370-703d-4a93-ad72-1e2da4aac1f0","stateCode":"MC","latitude":"-16.72289000","longitude":"31.11462000"},{"id":"5da71438-97f2-413f-bc26-6e7224cebb9d","name":"Centenary District","ru":"Centenary District","country":"078eadfb-c212-4636-8aac-2c5a8b7c12f6","countryCode":"ZW","state":"0d23b370-703d-4a93-ad72-1e2da4aac1f0","stateCode":"MC","latitude":"-16.41667000","longitude":"31.16667000"},{"id":"755e9b15-d50e-4f09-a470-40770784ba11","name":"Concession","ru":"Concession","country":"078eadfb-c212-4636-8aac-2c5a8b7c12f6","countryCode":"ZW","state":"0d23b370-703d-4a93-ad72-1e2da4aac1f0","stateCode":"MC","latitude":"-17.38333000","longitude":"30.95000000"},{"id":"6a81bcc3-cb2f-45e6-851a-c9c42c2b3ab4","name":"Glendale","ru":"Glendale","country":"078eadfb-c212-4636-8aac-2c5a8b7c12f6","countryCode":"ZW","state":"0d23b370-703d-4a93-ad72-1e2da4aac1f0","stateCode":"MC","latitude":"-17.35514000","longitude":"31.06718000"},{"id":"a2acc348-d6ec-41ce-aa9a-506bc714da57","name":"Guruve District","ru":"Guruve District","country":"078eadfb-c212-4636-8aac-2c5a8b7c12f6","countryCode":"ZW","state":"0d23b370-703d-4a93-ad72-1e2da4aac1f0","stateCode":"MC","latitude":"-16.37206000","longitude":"30.60607000"},{"id":"ac52c121-135e-4348-9dbb-a715c676ca61","name":"Mazowe","ru":"Mazowe","country":"078eadfb-c212-4636-8aac-2c5a8b7c12f6","countryCode":"ZW","state":"0d23b370-703d-4a93-ad72-1e2da4aac1f0","stateCode":"MC","latitude":"-17.50404000","longitude":"30.97388000"},{"id":"4de540a0-ff1c-4df5-a0bf-93bb7b4078bd","name":"Mazowe District","ru":"Mazowe District","country":"078eadfb-c212-4636-8aac-2c5a8b7c12f6","countryCode":"ZW","state":"0d23b370-703d-4a93-ad72-1e2da4aac1f0","stateCode":"MC","latitude":"-17.28080000","longitude":"30.93231000"},{"id":"6dea213c-610e-4837-b496-c523e26181c8","name":"Mount Darwin","ru":"Mount Darwin","country":"078eadfb-c212-4636-8aac-2c5a8b7c12f6","countryCode":"ZW","state":"0d23b370-703d-4a93-ad72-1e2da4aac1f0","stateCode":"MC","latitude":"-16.77251000","longitude":"31.58381000"},{"id":"e284ed42-2e96-404f-9ca9-b1407f473db4","name":"Mvurwi","ru":"Mvurwi","country":"078eadfb-c212-4636-8aac-2c5a8b7c12f6","countryCode":"ZW","state":"0d23b370-703d-4a93-ad72-1e2da4aac1f0","stateCode":"MC","latitude":"-17.03333000","longitude":"30.85000000"},{"id":"e065aba6-e7e6-4477-9f9b-298721d714f3","name":"Rushinga District","ru":"Rushinga District","country":"078eadfb-c212-4636-8aac-2c5a8b7c12f6","countryCode":"ZW","state":"0d23b370-703d-4a93-ad72-1e2da4aac1f0","stateCode":"MC","latitude":"-16.60792000","longitude":"32.31434000"},{"id":"7992a2a9-60d0-40d7-89a6-9b83f9f25480","name":"Shamva","ru":"Shamva","country":"078eadfb-c212-4636-8aac-2c5a8b7c12f6","countryCode":"ZW","state":"0d23b370-703d-4a93-ad72-1e2da4aac1f0","stateCode":"MC","latitude":"-17.31159000","longitude":"31.57561000"},{"id":"8557fbc4-2617-48bc-9af5-a90f3d8314d3","name":"Shamva District","ru":"Shamva District","country":"078eadfb-c212-4636-8aac-2c5a8b7c12f6","countryCode":"ZW","state":"0d23b370-703d-4a93-ad72-1e2da4aac1f0","stateCode":"MC","latitude":"-17.12366000","longitude":"31.64146000"},{"id":"584f1566-5bc7-46f6-b1ea-9364d4976c1d","name":"Beatrice","ru":"Beatrice","country":"078eadfb-c212-4636-8aac-2c5a8b7c12f6","countryCode":"ZW","state":"bdbd9c1a-f360-4633-8752-48c73379ca69","stateCode":"ME","latitude":"-18.25283000","longitude":"30.84730000"},{"id":"0f094c42-e8c8-453d-abeb-c9cabb9078ae","name":"Chivhu","ru":"Chivhu","country":"078eadfb-c212-4636-8aac-2c5a8b7c12f6","countryCode":"ZW","state":"bdbd9c1a-f360-4633-8752-48c73379ca69","stateCode":"ME","latitude":"-19.02112000","longitude":"30.89218000"},{"id":"8bcc9345-b3d0-483e-abfa-51b74fa3a266","name":"Goromonzi District","ru":"Goromonzi District","country":"078eadfb-c212-4636-8aac-2c5a8b7c12f6","countryCode":"ZW","state":"bdbd9c1a-f360-4633-8752-48c73379ca69","stateCode":"ME","latitude":"-17.80695000","longitude":"31.36372000"},{"id":"36cdbaea-8492-4189-abf5-807d9a0ca706","name":"Macheke","ru":"Macheke","country":"078eadfb-c212-4636-8aac-2c5a8b7c12f6","countryCode":"ZW","state":"bdbd9c1a-f360-4633-8752-48c73379ca69","stateCode":"ME","latitude":"-18.13901000","longitude":"31.84933000"},{"id":"07ec7b7f-7fe6-4b1b-98c4-88a1bb79e583","name":"Marondera","ru":"Marondera","country":"078eadfb-c212-4636-8aac-2c5a8b7c12f6","countryCode":"ZW","state":"bdbd9c1a-f360-4633-8752-48c73379ca69","stateCode":"ME","latitude":"-18.18527000","longitude":"31.55193000"},{"id":"877f1a11-753c-403e-b51c-6a277dd0c249","name":"Marondera District","ru":"Marondera District","country":"078eadfb-c212-4636-8aac-2c5a8b7c12f6","countryCode":"ZW","state":"bdbd9c1a-f360-4633-8752-48c73379ca69","stateCode":"ME","latitude":"-18.29214000","longitude":"31.51252000"},{"id":"96691169-262d-467e-a031-f6affbb2e2ef","name":"Mudzi District","ru":"Mudzi District","country":"078eadfb-c212-4636-8aac-2c5a8b7c12f6","countryCode":"ZW","state":"bdbd9c1a-f360-4633-8752-48c73379ca69","stateCode":"ME","latitude":"-17.04711000","longitude":"32.65279000"},{"id":"78b8dc52-87af-4544-ab8a-9d0177c01722","name":"Murehwa","ru":"Murehwa","country":"078eadfb-c212-4636-8aac-2c5a8b7c12f6","countryCode":"ZW","state":"bdbd9c1a-f360-4633-8752-48c73379ca69","stateCode":"ME","latitude":"-17.64322000","longitude":"31.78400000"},{"id":"0a1a47d1-247d-4e3f-b6ed-203dfa68aeef","name":"Murehwa District","ru":"Murehwa District","country":"078eadfb-c212-4636-8aac-2c5a8b7c12f6","countryCode":"ZW","state":"bdbd9c1a-f360-4633-8752-48c73379ca69","stateCode":"ME","latitude":"-17.80057000","longitude":"31.83083000"},{"id":"c6f835a3-ec13-43fa-94be-9200b66b7748","name":"Mutoko","ru":"Mutoko","country":"078eadfb-c212-4636-8aac-2c5a8b7c12f6","countryCode":"ZW","state":"bdbd9c1a-f360-4633-8752-48c73379ca69","stateCode":"ME","latitude":"-17.39699000","longitude":"32.22677000"},{"id":"1e4b8960-bc36-43fe-9aa1-00107252d684","name":"Ruwa","ru":"Ruwa","country":"078eadfb-c212-4636-8aac-2c5a8b7c12f6","countryCode":"ZW","state":"bdbd9c1a-f360-4633-8752-48c73379ca69","stateCode":"ME","latitude":"-17.88972000","longitude":"31.24472000"},{"id":"4e3268e8-6579-4188-b708-1cda89a77e30","name":"Banket","ru":"Banket","country":"078eadfb-c212-4636-8aac-2c5a8b7c12f6","countryCode":"ZW","state":"89eaddbc-44b4-4771-b3f4-afe81ca57d55","stateCode":"MW","latitude":"-17.38333000","longitude":"30.40000000"},{"id":"5e91c50a-15ed-45c3-a7ab-2436041ebebc","name":"Chakari","ru":"Chakari","country":"078eadfb-c212-4636-8aac-2c5a8b7c12f6","countryCode":"ZW","state":"89eaddbc-44b4-4771-b3f4-afe81ca57d55","stateCode":"MW","latitude":"-18.06294000","longitude":"29.89246000"},{"id":"d4e0b413-68e9-4f86-90a7-3e0f0f1a8ada","name":"Chegutu","ru":"Chegutu","country":"078eadfb-c212-4636-8aac-2c5a8b7c12f6","countryCode":"ZW","state":"89eaddbc-44b4-4771-b3f4-afe81ca57d55","stateCode":"MW","latitude":"-18.13021000","longitude":"30.14074000"},{"id":"f27184a5-f18c-4f33-ac2e-39aaa5c82ecf","name":"Chegutu District","ru":"Chegutu District","country":"078eadfb-c212-4636-8aac-2c5a8b7c12f6","countryCode":"ZW","state":"89eaddbc-44b4-4771-b3f4-afe81ca57d55","stateCode":"MW","latitude":"-18.13097000","longitude":"30.40046000"},{"id":"f65938e7-981c-4875-bddd-4f74517e89e6","name":"Chinhoyi","ru":"Chinhoyi","country":"078eadfb-c212-4636-8aac-2c5a8b7c12f6","countryCode":"ZW","state":"89eaddbc-44b4-4771-b3f4-afe81ca57d55","stateCode":"MW","latitude":"-17.36667000","longitude":"30.20000000"},{"id":"0cb5b751-efa4-45a7-bd71-f13cea42ce3e","name":"Chirundu","ru":"Chirundu","country":"078eadfb-c212-4636-8aac-2c5a8b7c12f6","countryCode":"ZW","state":"89eaddbc-44b4-4771-b3f4-afe81ca57d55","stateCode":"MW","latitude":"-16.03333000","longitude":"28.85000000"},{"id":"8ce28bb0-1b6f-4eac-a869-48575a2f6200","name":"Hurungwe District","ru":"Hurungwe District","country":"078eadfb-c212-4636-8aac-2c5a8b7c12f6","countryCode":"ZW","state":"89eaddbc-44b4-4771-b3f4-afe81ca57d55","stateCode":"MW","latitude":"-16.41301000","longitude":"29.58580000"},{"id":"60cff5c6-dbc9-47b7-bf4c-b351c8b56a67","name":"Kadoma","ru":"Kadoma","country":"078eadfb-c212-4636-8aac-2c5a8b7c12f6","countryCode":"ZW","state":"89eaddbc-44b4-4771-b3f4-afe81ca57d55","stateCode":"MW","latitude":"-18.33328000","longitude":"29.91534000"},{"id":"2a20d8e7-4aac-4346-9bbd-5e3df8a3dcbc","name":"Kadoma District","ru":"Kadoma District","country":"078eadfb-c212-4636-8aac-2c5a8b7c12f6","countryCode":"ZW","state":"89eaddbc-44b4-4771-b3f4-afe81ca57d55","stateCode":"MW","latitude":"-18.34049000","longitude":"29.82831000"},{"id":"87a31343-a76c-49f8-ab24-ede073f1b164","name":"Kariba","ru":"Kariba","country":"078eadfb-c212-4636-8aac-2c5a8b7c12f6","countryCode":"ZW","state":"89eaddbc-44b4-4771-b3f4-afe81ca57d55","stateCode":"MW","latitude":"-16.51667000","longitude":"28.80000000"},{"id":"0d40adc7-e2d7-4a99-b9cd-97015cd6a212","name":"Kariba District","ru":"Kariba District","country":"078eadfb-c212-4636-8aac-2c5a8b7c12f6","countryCode":"ZW","state":"89eaddbc-44b4-4771-b3f4-afe81ca57d55","stateCode":"MW","latitude":"-16.91011000","longitude":"28.65983000"},{"id":"ab0404a1-3856-4d24-9f93-12b0d158b9e6","name":"Karoi","ru":"Karoi","country":"078eadfb-c212-4636-8aac-2c5a8b7c12f6","countryCode":"ZW","state":"89eaddbc-44b4-4771-b3f4-afe81ca57d55","stateCode":"MW","latitude":"-16.80993000","longitude":"29.69247000"},{"id":"196f459f-3f4e-488e-8d50-b5c7303aa4e9","name":"Makonde District","ru":"Makonde District","country":"078eadfb-c212-4636-8aac-2c5a8b7c12f6","countryCode":"ZW","state":"89eaddbc-44b4-4771-b3f4-afe81ca57d55","stateCode":"MW","latitude":"-17.16667000","longitude":"30.08333000"},{"id":"75fa874d-899b-4798-9421-eb6fcc17979f","name":"Mhangura","ru":"Mhangura","country":"078eadfb-c212-4636-8aac-2c5a8b7c12f6","countryCode":"ZW","state":"89eaddbc-44b4-4771-b3f4-afe81ca57d55","stateCode":"MW","latitude":"-16.89387000","longitude":"30.16828000"},{"id":"e256aad8-b1df-41dd-b925-00e5104edcfb","name":"Norton","ru":"Norton","country":"078eadfb-c212-4636-8aac-2c5a8b7c12f6","countryCode":"ZW","state":"89eaddbc-44b4-4771-b3f4-afe81ca57d55","stateCode":"MW","latitude":"-17.88333000","longitude":"30.70000000"},{"id":"6d4d7120-3f99-4624-a5a2-b5fc8286d5f0","name":"Raffingora","ru":"Raffingora","country":"078eadfb-c212-4636-8aac-2c5a8b7c12f6","countryCode":"ZW","state":"89eaddbc-44b4-4771-b3f4-afe81ca57d55","stateCode":"MW","latitude":"-17.03333000","longitude":"30.43333000"},{"id":"bc9ed948-e206-4c00-9672-06f1a1b423ca","name":"Bikita District","ru":"Bikita District","country":"078eadfb-c212-4636-8aac-2c5a8b7c12f6","countryCode":"ZW","state":"b99d539f-4a3b-43ef-bfb9-e8c476ea8ade","stateCode":"MV","latitude":"-20.13752000","longitude":"31.93156000"},{"id":"f7772c3f-759f-4191-b94c-aca0ba408643","name":"Chiredzi","ru":"Chiredzi","country":"078eadfb-c212-4636-8aac-2c5a8b7c12f6","countryCode":"ZW","state":"b99d539f-4a3b-43ef-bfb9-e8c476ea8ade","stateCode":"MV","latitude":"-21.05000000","longitude":"31.66667000"},{"id":"40838a45-3bc3-41c6-8fe4-476d2164ab37","name":"Chiredzi District","ru":"Chiredzi District","country":"078eadfb-c212-4636-8aac-2c5a8b7c12f6","countryCode":"ZW","state":"b99d539f-4a3b-43ef-bfb9-e8c476ea8ade","stateCode":"MV","latitude":"-21.28585000","longitude":"31.77039000"},{"id":"66faa5c7-197f-4e61-ab5b-0b0777f4ba65","name":"Chivi District","ru":"Chivi District","country":"078eadfb-c212-4636-8aac-2c5a8b7c12f6","countryCode":"ZW","state":"b99d539f-4a3b-43ef-bfb9-e8c476ea8ade","stateCode":"MV","latitude":"-20.50000000","longitude":"30.58333000"},{"id":"716903e9-eb35-43cb-a50b-a87e590594ae","name":"Gutu District","ru":"Gutu District","country":"078eadfb-c212-4636-8aac-2c5a8b7c12f6","countryCode":"ZW","state":"b99d539f-4a3b-43ef-bfb9-e8c476ea8ade","stateCode":"MV","latitude":"-19.60884000","longitude":"31.25059000"},{"id":"444fc0e2-d8fd-429b-95df-4dfdc5eba5d9","name":"Mashava","ru":"Mashava","country":"078eadfb-c212-4636-8aac-2c5a8b7c12f6","countryCode":"ZW","state":"b99d539f-4a3b-43ef-bfb9-e8c476ea8ade","stateCode":"MV","latitude":"-20.03665000","longitude":"30.48225000"},{"id":"a2aa99f0-ff60-4a7e-a351-31cc2549616a","name":"Masvingo","ru":"Masvingo","country":"078eadfb-c212-4636-8aac-2c5a8b7c12f6","countryCode":"ZW","state":"b99d539f-4a3b-43ef-bfb9-e8c476ea8ade","stateCode":"MV","latitude":"-20.06373000","longitude":"30.82766000"},{"id":"4a9a09cc-2eb6-4f31-91f1-ff1e6be16510","name":"Masvingo District","ru":"Masvingo District","country":"078eadfb-c212-4636-8aac-2c5a8b7c12f6","countryCode":"ZW","state":"b99d539f-4a3b-43ef-bfb9-e8c476ea8ade","stateCode":"MV","latitude":"-20.31481000","longitude":"30.90008000"},{"id":"d56bfd0a-1f5f-4f05-a612-6302f3383f3f","name":"Mwenezi District","ru":"Mwenezi District","country":"078eadfb-c212-4636-8aac-2c5a8b7c12f6","countryCode":"ZW","state":"b99d539f-4a3b-43ef-bfb9-e8c476ea8ade","stateCode":"MV","latitude":"-21.35838000","longitude":"30.70668000"},{"id":"67fad3a3-df8b-493c-99c7-48627ea3b114","name":"Zvishavane","ru":"Zvishavane","country":"078eadfb-c212-4636-8aac-2c5a8b7c12f6","countryCode":"ZW","state":"b99d539f-4a3b-43ef-bfb9-e8c476ea8ade","stateCode":"MV","latitude":"-20.32674000","longitude":"30.06648000"},{"id":"ab1fd6eb-7ea3-4154-96af-ff3f97aa5713","name":"Binga","ru":"Binga","country":"078eadfb-c212-4636-8aac-2c5a8b7c12f6","countryCode":"ZW","state":"96606b4b-ec3b-4fe7-983c-0583567a7320","stateCode":"MN","latitude":"-17.62027000","longitude":"27.34139000"},{"id":"6a6b43c5-5f23-402b-a87b-2938f2272e04","name":"Binga District","ru":"Binga District","country":"078eadfb-c212-4636-8aac-2c5a8b7c12f6","countryCode":"ZW","state":"96606b4b-ec3b-4fe7-983c-0583567a7320","stateCode":"MN","latitude":"-17.80460000","longitude":"27.70088000"},{"id":"1f5f8549-dcb2-4702-a1db-d81489b89973","name":"Bubi District","ru":"Bubi District","country":"078eadfb-c212-4636-8aac-2c5a8b7c12f6","countryCode":"ZW","state":"96606b4b-ec3b-4fe7-983c-0583567a7320","stateCode":"MN","latitude":"-19.52508000","longitude":"28.67998000"},{"id":"56ee19dc-4ec1-4558-bcaa-6cb2e5cb1c22","name":"Dete","ru":"Dete","country":"078eadfb-c212-4636-8aac-2c5a8b7c12f6","countryCode":"ZW","state":"96606b4b-ec3b-4fe7-983c-0583567a7320","stateCode":"MN","latitude":"-18.61667000","longitude":"26.86667000"},{"id":"f2fc321a-ca45-4a5c-a675-deb903e3c78e","name":"Hwange","ru":"Hwange","country":"078eadfb-c212-4636-8aac-2c5a8b7c12f6","countryCode":"ZW","state":"96606b4b-ec3b-4fe7-983c-0583567a7320","stateCode":"MN","latitude":"-18.36446000","longitude":"26.49877000"},{"id":"8cd5f618-bbb8-47a3-ab24-231117947b9b","name":"Hwange District","ru":"Hwange District","country":"078eadfb-c212-4636-8aac-2c5a8b7c12f6","countryCode":"ZW","state":"96606b4b-ec3b-4fe7-983c-0583567a7320","stateCode":"MN","latitude":"-18.75000000","longitude":"26.50000000"},{"id":"0d3fcdb0-2870-423a-9b89-4a27f1eb6289","name":"Inyati","ru":"Inyati","country":"078eadfb-c212-4636-8aac-2c5a8b7c12f6","countryCode":"ZW","state":"96606b4b-ec3b-4fe7-983c-0583567a7320","stateCode":"MN","latitude":"-19.67563000","longitude":"28.84687000"},{"id":"2c886af3-3637-4083-a785-f7a7fd3809b0","name":"Kamativi Mine","ru":"Kamativi Mine","country":"078eadfb-c212-4636-8aac-2c5a8b7c12f6","countryCode":"ZW","state":"96606b4b-ec3b-4fe7-983c-0583567a7320","stateCode":"MN","latitude":"-18.31563000","longitude":"27.05729000"},{"id":"e7fcb229-2e11-4e7d-a990-a5f20a8be3b1","name":"Lupane","ru":"Lupane","country":"078eadfb-c212-4636-8aac-2c5a8b7c12f6","countryCode":"ZW","state":"96606b4b-ec3b-4fe7-983c-0583567a7320","stateCode":"MN","latitude":"-18.93149000","longitude":"27.80696000"},{"id":"5c8cb85d-faae-4107-b826-d958e85c6857","name":"Lupane District","ru":"Lupane District","country":"078eadfb-c212-4636-8aac-2c5a8b7c12f6","countryCode":"ZW","state":"96606b4b-ec3b-4fe7-983c-0583567a7320","stateCode":"MN","latitude":"-18.83608000","longitude":"27.99098000"},{"id":"903af111-b9fa-418d-ab88-6ace9fac0a88","name":"Nkayi District","ru":"Nkayi District","country":"078eadfb-c212-4636-8aac-2c5a8b7c12f6","countryCode":"ZW","state":"96606b4b-ec3b-4fe7-983c-0583567a7320","stateCode":"MN","latitude":"-18.92472000","longitude":"28.71221000"},{"id":"24ce070f-0272-47ba-b419-8abb99f2c70f","name":"Victoria Falls","ru":"Victoria Falls","country":"078eadfb-c212-4636-8aac-2c5a8b7c12f6","countryCode":"ZW","state":"96606b4b-ec3b-4fe7-983c-0583567a7320","stateCode":"MN","latitude":"-17.93285000","longitude":"25.83066000"},{"id":"533171e5-7a04-43a0-a03a-9ba52b40059d","name":"Beitbridge","ru":"Beitbridge","country":"078eadfb-c212-4636-8aac-2c5a8b7c12f6","countryCode":"ZW","state":"cfa4b480-62d9-4f68-a87d-32a719663b62","stateCode":"MS","latitude":"-22.21667000","longitude":"30.00000000"},{"id":"148740b6-715e-4df1-bc9a-2ef81531c6a8","name":"Beitbridge District","ru":"Beitbridge District","country":"078eadfb-c212-4636-8aac-2c5a8b7c12f6","countryCode":"ZW","state":"cfa4b480-62d9-4f68-a87d-32a719663b62","stateCode":"MS","latitude":"-21.89829000","longitude":"30.07409000"},{"id":"da1bbe8b-42c8-468c-8cd6-d74785d4c176","name":"Esigodini","ru":"Esigodini","country":"078eadfb-c212-4636-8aac-2c5a8b7c12f6","countryCode":"ZW","state":"cfa4b480-62d9-4f68-a87d-32a719663b62","stateCode":"MS","latitude":"-20.28979000","longitude":"28.92261000"},{"id":"9757376c-42e4-415a-9f42-fb6970208b9c","name":"Filabusi","ru":"Filabusi","country":"078eadfb-c212-4636-8aac-2c5a8b7c12f6","countryCode":"ZW","state":"cfa4b480-62d9-4f68-a87d-32a719663b62","stateCode":"MS","latitude":"-20.53333000","longitude":"29.28502000"},{"id":"f32a232c-7f70-4298-aa64-21d54e9f4409","name":"Gwanda","ru":"Gwanda","country":"078eadfb-c212-4636-8aac-2c5a8b7c12f6","countryCode":"ZW","state":"cfa4b480-62d9-4f68-a87d-32a719663b62","stateCode":"MS","latitude":"-20.93622000","longitude":"29.00698000"},{"id":"5b908097-2fee-4226-b559-92cfe8b8a2f1","name":"Gwanda District","ru":"Gwanda District","country":"078eadfb-c212-4636-8aac-2c5a8b7c12f6","countryCode":"ZW","state":"cfa4b480-62d9-4f68-a87d-32a719663b62","stateCode":"MS","latitude":"-21.20929000","longitude":"29.17557000"},{"id":"6920bc1f-0fb1-46f2-af22-016eff5bdd88","name":"Insiza","ru":"Insiza","country":"078eadfb-c212-4636-8aac-2c5a8b7c12f6","countryCode":"ZW","state":"cfa4b480-62d9-4f68-a87d-32a719663b62","stateCode":"MS","latitude":"-19.78333000","longitude":"29.20000000"},{"id":"1c69d65d-2805-4311-9f83-1ed8b3858799","name":"Insiza District","ru":"Insiza District","country":"078eadfb-c212-4636-8aac-2c5a8b7c12f6","countryCode":"ZW","state":"cfa4b480-62d9-4f68-a87d-32a719663b62","stateCode":"MS","latitude":"-20.26431000","longitude":"29.47392000"},{"id":"95e99e4d-7917-4d46-9b69-d5cd11e8739d","name":"Mangwe District","ru":"Mangwe District","country":"078eadfb-c212-4636-8aac-2c5a8b7c12f6","countryCode":"ZW","state":"cfa4b480-62d9-4f68-a87d-32a719663b62","stateCode":"MS","latitude":"-20.95545000","longitude":"27.98292000"},{"id":"b9909f51-1254-497a-a8cd-91a0833ccf47","name":"Matobo","ru":"Matobo","country":"078eadfb-c212-4636-8aac-2c5a8b7c12f6","countryCode":"ZW","state":"cfa4b480-62d9-4f68-a87d-32a719663b62","stateCode":"MS","latitude":"-20.95545000","longitude":"28.49463000"},{"id":"daf590b8-2330-4796-a875-81531b246344","name":"Plumtree","ru":"Plumtree","country":"078eadfb-c212-4636-8aac-2c5a8b7c12f6","countryCode":"ZW","state":"cfa4b480-62d9-4f68-a87d-32a719663b62","stateCode":"MS","latitude":"-20.48333000","longitude":"27.81667000"},{"id":"deabf39b-9663-4bf1-9383-6bd6797ab34e","name":"Umzingwane District","ru":"Umzingwane District","country":"078eadfb-c212-4636-8aac-2c5a8b7c12f6","countryCode":"ZW","state":"cfa4b480-62d9-4f68-a87d-32a719663b62","stateCode":"MS","latitude":"-20.34704000","longitude":"28.94994000"},{"id":"cb119d17-64f9-460f-a3ce-f3214b11eaae","name":"Gokwe","ru":"Gokwe","country":"078eadfb-c212-4636-8aac-2c5a8b7c12f6","countryCode":"ZW","state":"2f1cd027-2a4e-4a27-bdb3-b70428b90af2","stateCode":"MI","latitude":"-18.20476000","longitude":"28.93490000"},{"id":"c1ae5843-208a-442c-8857-f953ed288fc2","name":"Gweru","ru":"Gweru","country":"078eadfb-c212-4636-8aac-2c5a8b7c12f6","countryCode":"ZW","state":"2f1cd027-2a4e-4a27-bdb3-b70428b90af2","stateCode":"MI","latitude":"-19.45000000","longitude":"29.81667000"},{"id":"6e1b6246-f006-4d8b-a31d-30e275a6728f","name":"Gweru District","ru":"Gweru District","country":"078eadfb-c212-4636-8aac-2c5a8b7c12f6","countryCode":"ZW","state":"2f1cd027-2a4e-4a27-bdb3-b70428b90af2","stateCode":"MI","latitude":"-19.45665000","longitude":"29.64495000"},{"id":"51a868c0-52fb-41e6-b512-fd88999e2f18","name":"Kwekwe","ru":"Kwekwe","country":"078eadfb-c212-4636-8aac-2c5a8b7c12f6","countryCode":"ZW","state":"2f1cd027-2a4e-4a27-bdb3-b70428b90af2","stateCode":"MI","latitude":"-18.92809000","longitude":"29.81486000"},{"id":"2e7329b7-d2dc-41a1-a11e-304fabbd99f9","name":"Kwekwe District","ru":"Kwekwe District","country":"078eadfb-c212-4636-8aac-2c5a8b7c12f6","countryCode":"ZW","state":"2f1cd027-2a4e-4a27-bdb3-b70428b90af2","stateCode":"MI","latitude":"-18.75000000","longitude":"29.50000000"},{"id":"1e75f333-b178-421c-9aef-488ae97c92eb","name":"Lalapanzi","ru":"Lalapanzi","country":"078eadfb-c212-4636-8aac-2c5a8b7c12f6","countryCode":"ZW","state":"2f1cd027-2a4e-4a27-bdb3-b70428b90af2","stateCode":"MI","latitude":"-19.33225000","longitude":"30.17768000"},{"id":"e8f4fca0-b538-429e-9b2f-071aa94af456","name":"Mberengwa District","ru":"Mberengwa District","country":"078eadfb-c212-4636-8aac-2c5a8b7c12f6","countryCode":"ZW","state":"2f1cd027-2a4e-4a27-bdb3-b70428b90af2","stateCode":"MI","latitude":"-20.72579000","longitude":"30.00962000"},{"id":"46fa1f7f-775f-43e5-b40e-ac62224c8024","name":"Mvuma","ru":"Mvuma","country":"078eadfb-c212-4636-8aac-2c5a8b7c12f6","countryCode":"ZW","state":"2f1cd027-2a4e-4a27-bdb3-b70428b90af2","stateCode":"MI","latitude":"-19.27924000","longitude":"30.52828000"},{"id":"51dec367-c360-4225-a2a3-d9208b9dd78d","name":"Redcliff","ru":"Redcliff","country":"078eadfb-c212-4636-8aac-2c5a8b7c12f6","countryCode":"ZW","state":"2f1cd027-2a4e-4a27-bdb3-b70428b90af2","stateCode":"MI","latitude":"-19.03333000","longitude":"29.78333000"},{"id":"0635424b-fc7d-46ad-bd7e-2407b6797a59","name":"Shangani","ru":"Shangani","country":"078eadfb-c212-4636-8aac-2c5a8b7c12f6","countryCode":"ZW","state":"2f1cd027-2a4e-4a27-bdb3-b70428b90af2","stateCode":"MI","latitude":"-19.78333000","longitude":"29.36667000"},{"id":"110f7321-4fa2-4ec5-905f-382d938a748c","name":"Shurugwi","ru":"Shurugwi","country":"078eadfb-c212-4636-8aac-2c5a8b7c12f6","countryCode":"ZW","state":"2f1cd027-2a4e-4a27-bdb3-b70428b90af2","stateCode":"MI","latitude":"-19.67016000","longitude":"30.00589000"},{"id":"dc4d2363-d441-4c4d-8518-710c2871bbcd","name":"Shurugwi District","ru":"Shurugwi District","country":"078eadfb-c212-4636-8aac-2c5a8b7c12f6","countryCode":"ZW","state":"2f1cd027-2a4e-4a27-bdb3-b70428b90af2","stateCode":"MI","latitude":"-19.75000000","longitude":"30.16667000"},{"id":"c17479e5-dd59-40ed-8df9-440e69fa3445","name":"Zvishavane District","ru":"Zvishavane District","country":"078eadfb-c212-4636-8aac-2c5a8b7c12f6","countryCode":"ZW","state":"2f1cd027-2a4e-4a27-bdb3-b70428b90af2","stateCode":"MI","latitude":"-20.30345000","longitude":"30.07514000"}]