[{"id":"575743d1-2a9f-429a-ae3e-210c811ac9f8","name":"Bansko","ru":"Bansko","country":"c4931ccd-1c68-4407-95e9-eab52e277c7e","countryCode":"BG","state":"a90668ce-0eed-42de-bfdd-dc97977be784","stateCode":"01","latitude":"41.83830000","longitude":"23.48851000"},{"id":"40f3b5fe-0cd4-4395-95da-7453ba0f00be","name":"Belitsa","ru":"Belitsa","country":"c4931ccd-1c68-4407-95e9-eab52e277c7e","countryCode":"BG","state":"a90668ce-0eed-42de-bfdd-dc97977be784","stateCode":"01","latitude":"41.95694000","longitude":"23.57250000"},{"id":"03bcaf45-ee83-4c39-a0ea-bfbc049d5047","name":"Blagoevgrad","ru":"Blagoevgrad","country":"c4931ccd-1c68-4407-95e9-eab52e277c7e","countryCode":"BG","state":"a90668ce-0eed-42de-bfdd-dc97977be784","stateCode":"01","latitude":"42.01667000","longitude":"23.10000000"},{"id":"4371e613-f5c2-43ce-8173-9afee05c5f5e","name":"Garmen","ru":"Garmen","country":"c4931ccd-1c68-4407-95e9-eab52e277c7e","countryCode":"BG","state":"a90668ce-0eed-42de-bfdd-dc97977be784","stateCode":"01","latitude":"41.60000000","longitude":"23.81667000"},{"id":"626f0f28-7082-43fe-bbee-d2fe0cfedc6d","name":"Gotse Delchev","ru":"Gotse Delchev","country":"c4931ccd-1c68-4407-95e9-eab52e277c7e","countryCode":"BG","state":"a90668ce-0eed-42de-bfdd-dc97977be784","stateCode":"01","latitude":"41.56667000","longitude":"23.73333000"},{"id":"28dcc932-8602-42b4-834f-855fa108669a","name":"Hadzhidimovo","ru":"Hadzhidimovo","country":"c4931ccd-1c68-4407-95e9-eab52e277c7e","countryCode":"BG","state":"a90668ce-0eed-42de-bfdd-dc97977be784","stateCode":"01","latitude":"41.52222000","longitude":"23.86861000"},{"id":"fd50b761-8939-4d19-a6ca-5611f175a53c","name":"Kolarovo","ru":"Kolarovo","country":"c4931ccd-1c68-4407-95e9-eab52e277c7e","countryCode":"BG","state":"a90668ce-0eed-42de-bfdd-dc97977be784","stateCode":"01","latitude":"41.36385000","longitude":"23.10669000"},{"id":"ee5a8b61-0966-423f-b39c-7d10aacf3635","name":"Kresna","ru":"Kresna","country":"c4931ccd-1c68-4407-95e9-eab52e277c7e","countryCode":"BG","state":"a90668ce-0eed-42de-bfdd-dc97977be784","stateCode":"01","latitude":"41.73333000","longitude":"23.15000000"},{"id":"c3b92578-8a7c-44cb-a0ce-8eee452a1db0","name":"Obshtina Bansko","ru":"Obshtina Bansko","country":"c4931ccd-1c68-4407-95e9-eab52e277c7e","countryCode":"BG","state":"a90668ce-0eed-42de-bfdd-dc97977be784","stateCode":"01","latitude":"41.80000000","longitude":"23.60000000"},{"id":"f2636380-38af-4970-88b0-bfbd573fab0e","name":"Obshtina Belitsa","ru":"Obshtina Belitsa","country":"c4931ccd-1c68-4407-95e9-eab52e277c7e","countryCode":"BG","state":"a90668ce-0eed-42de-bfdd-dc97977be784","stateCode":"01","latitude":"42.01667000","longitude":"23.58333000"},{"id":"5af6a19b-f5da-44c4-a24c-59a338be411d","name":"Obshtina Blagoevgrad","ru":"Obshtina Blagoevgrad","country":"c4931ccd-1c68-4407-95e9-eab52e277c7e","countryCode":"BG","state":"a90668ce-0eed-42de-bfdd-dc97977be784","stateCode":"01","latitude":"42.01667000","longitude":"23.16667000"},{"id":"56337d05-dfe8-4e93-925b-f2d0880233b1","name":"Obshtina Garmen","ru":"Obshtina Garmen","country":"c4931ccd-1c68-4407-95e9-eab52e277c7e","countryCode":"BG","state":"a90668ce-0eed-42de-bfdd-dc97977be784","stateCode":"01","latitude":"41.70000000","longitude":"23.85000000"},{"id":"809c06cb-fa83-4aef-9e76-ad617ba7c338","name":"Obshtina Gotse Delchev","ru":"Obshtina Gotse Delchev","country":"c4931ccd-1c68-4407-95e9-eab52e277c7e","countryCode":"BG","state":"a90668ce-0eed-42de-bfdd-dc97977be784","stateCode":"01","latitude":"41.63333000","longitude":"23.68333000"},{"id":"4fb52cce-0c96-4c64-a9cc-eafbd6038b13","name":"Obshtina Kresna","ru":"Obshtina Kresna","country":"c4931ccd-1c68-4407-95e9-eab52e277c7e","countryCode":"BG","state":"a90668ce-0eed-42de-bfdd-dc97977be784","stateCode":"01","latitude":"41.76667000","longitude":"23.23333000"},{"id":"c3c28499-579b-41b5-9105-100595b89cc8","name":"Obshtina Petrich","ru":"Obshtina Petrich","country":"c4931ccd-1c68-4407-95e9-eab52e277c7e","countryCode":"BG","state":"a90668ce-0eed-42de-bfdd-dc97977be784","stateCode":"01","latitude":"41.45000000","longitude":"23.16667000"},{"id":"85500313-fbe8-4be7-b239-32ce79df9e70","name":"Obshtina Razlog","ru":"Obshtina Razlog","country":"c4931ccd-1c68-4407-95e9-eab52e277c7e","countryCode":"BG","state":"a90668ce-0eed-42de-bfdd-dc97977be784","stateCode":"01","latitude":"41.95000000","longitude":"23.46667000"},{"id":"4b73bf2f-77c2-42e2-9751-0807fc23a7ab","name":"Obshtina Sandanski","ru":"Obshtina Sandanski","country":"c4931ccd-1c68-4407-95e9-eab52e277c7e","countryCode":"BG","state":"a90668ce-0eed-42de-bfdd-dc97977be784","stateCode":"01","latitude":"41.56667000","longitude":"23.45000000"},{"id":"9c370812-029b-4a6c-8282-9a81d0ae5879","name":"Obshtina Satovcha","ru":"Obshtina Satovcha","country":"c4931ccd-1c68-4407-95e9-eab52e277c7e","countryCode":"BG","state":"a90668ce-0eed-42de-bfdd-dc97977be784","stateCode":"01","latitude":"41.59848000","longitude":"24.00781000"},{"id":"a2d074bf-a206-454f-8c0f-c1f86b1d3433","name":"Obshtina Simitli","ru":"Obshtina Simitli","country":"c4931ccd-1c68-4407-95e9-eab52e277c7e","countryCode":"BG","state":"a90668ce-0eed-42de-bfdd-dc97977be784","stateCode":"01","latitude":"41.88333000","longitude":"23.16667000"},{"id":"143f9a58-2fef-4e7b-a318-981239e76b79","name":"Obshtina Strumyani","ru":"Obshtina Strumyani","country":"c4931ccd-1c68-4407-95e9-eab52e277c7e","countryCode":"BG","state":"a90668ce-0eed-42de-bfdd-dc97977be784","stateCode":"01","latitude":"41.63333000","longitude":"23.20000000"},{"id":"0057af47-9b86-42cf-a22f-85e4b0beafae","name":"Obshtina Yakoruda","ru":"Obshtina Yakoruda","country":"c4931ccd-1c68-4407-95e9-eab52e277c7e","countryCode":"BG","state":"a90668ce-0eed-42de-bfdd-dc97977be784","stateCode":"01","latitude":"42.08333000","longitude":"23.70000000"},{"id":"a5ccdf59-cf8c-470b-924b-c430426217c9","name":"Petrich","ru":"Petrich","country":"c4931ccd-1c68-4407-95e9-eab52e277c7e","countryCode":"BG","state":"a90668ce-0eed-42de-bfdd-dc97977be784","stateCode":"01","latitude":"41.39846000","longitude":"23.20702000"},{"id":"ade424cc-1fe4-4873-a46e-2e6063b6f20e","name":"Razlog","ru":"Razlog","country":"c4931ccd-1c68-4407-95e9-eab52e277c7e","countryCode":"BG","state":"a90668ce-0eed-42de-bfdd-dc97977be784","stateCode":"01","latitude":"41.88630000","longitude":"23.46714000"},{"id":"9d92f31e-0673-43b6-9f64-d4176fbc607c","name":"Sandanski","ru":"Sandanski","country":"c4931ccd-1c68-4407-95e9-eab52e277c7e","countryCode":"BG","state":"a90668ce-0eed-42de-bfdd-dc97977be784","stateCode":"01","latitude":"41.56667000","longitude":"23.28333000"},{"id":"4dd821a9-f8b2-4f62-abc9-6e8233a4dcc3","name":"Satovcha","ru":"Satovcha","country":"c4931ccd-1c68-4407-95e9-eab52e277c7e","countryCode":"BG","state":"a90668ce-0eed-42de-bfdd-dc97977be784","stateCode":"01","latitude":"41.61667000","longitude":"23.98333000"},{"id":"be308047-b08f-4bbe-9f93-b29c4b813fde","name":"Simitli","ru":"Simitli","country":"c4931ccd-1c68-4407-95e9-eab52e277c7e","countryCode":"BG","state":"a90668ce-0eed-42de-bfdd-dc97977be784","stateCode":"01","latitude":"41.88333000","longitude":"23.11667000"},{"id":"1693afdd-9f9e-45d5-adc5-741efd7714f2","name":"Stara Kresna","ru":"Stara Kresna","country":"c4931ccd-1c68-4407-95e9-eab52e277c7e","countryCode":"BG","state":"a90668ce-0eed-42de-bfdd-dc97977be784","stateCode":"01","latitude":"41.80000000","longitude":"23.18333000"},{"id":"820e5a2d-38be-47bd-bd99-5c435fb74054","name":"Strumyani","ru":"Strumyani","country":"c4931ccd-1c68-4407-95e9-eab52e277c7e","countryCode":"BG","state":"a90668ce-0eed-42de-bfdd-dc97977be784","stateCode":"01","latitude":"41.63333000","longitude":"23.20000000"},{"id":"4664a248-263b-49ed-a3a1-c09470ff877c","name":"Yakoruda","ru":"Yakoruda","country":"c4931ccd-1c68-4407-95e9-eab52e277c7e","countryCode":"BG","state":"a90668ce-0eed-42de-bfdd-dc97977be784","stateCode":"01","latitude":"42.02528000","longitude":"23.68417000"},{"id":"a31c649f-cc95-4798-98e3-dd65f0ddaab2","name":"Aheloy","ru":"Aheloy","country":"c4931ccd-1c68-4407-95e9-eab52e277c7e","countryCode":"BG","state":"60ea3b9c-a627-40d9-b8ed-a56f295d0990","stateCode":"02","latitude":"42.64987000","longitude":"27.64838000"},{"id":"89912408-6ffc-4304-859e-53aefdbd8f40","name":"Ahtopol","ru":"Ahtopol","country":"c4931ccd-1c68-4407-95e9-eab52e277c7e","countryCode":"BG","state":"60ea3b9c-a627-40d9-b8ed-a56f295d0990","stateCode":"02","latitude":"42.09768000","longitude":"27.93961000"},{"id":"be9513df-940a-4e16-b5e7-569dc75d509e","name":"Aytos","ru":"Aytos","country":"c4931ccd-1c68-4407-95e9-eab52e277c7e","countryCode":"BG","state":"60ea3b9c-a627-40d9-b8ed-a56f295d0990","stateCode":"02","latitude":"42.70000000","longitude":"27.25000000"},{"id":"6bb8fbd7-b87d-45c4-b312-5265abc21fb8","name":"Bata","ru":"Bata","country":"c4931ccd-1c68-4407-95e9-eab52e277c7e","countryCode":"BG","state":"60ea3b9c-a627-40d9-b8ed-a56f295d0990","stateCode":"02","latitude":"42.73802000","longitude":"27.49643000"},{"id":"f9ffae4a-6abf-4e86-b02f-5553244d8b4c","name":"Burgas","ru":"Burgas","country":"c4931ccd-1c68-4407-95e9-eab52e277c7e","countryCode":"BG","state":"60ea3b9c-a627-40d9-b8ed-a56f295d0990","stateCode":"02","latitude":"42.50606000","longitude":"27.46781000"},{"id":"e8fcb2d9-5ef1-4c34-9425-c2bb184b2b53","name":"Chernomorets","ru":"Chernomorets","country":"c4931ccd-1c68-4407-95e9-eab52e277c7e","countryCode":"BG","state":"60ea3b9c-a627-40d9-b8ed-a56f295d0990","stateCode":"02","latitude":"42.44408000","longitude":"27.63902000"},{"id":"f4ce1727-7438-4c82-98ce-5b15e72dc1a0","name":"Kameno","ru":"Kameno","country":"c4931ccd-1c68-4407-95e9-eab52e277c7e","countryCode":"BG","state":"60ea3b9c-a627-40d9-b8ed-a56f295d0990","stateCode":"02","latitude":"42.57084000","longitude":"27.29875000"},{"id":"8539bbd1-d7c5-4bd1-94bf-abcdd430cc5c","name":"Karnobat","ru":"Karnobat","country":"c4931ccd-1c68-4407-95e9-eab52e277c7e","countryCode":"BG","state":"60ea3b9c-a627-40d9-b8ed-a56f295d0990","stateCode":"02","latitude":"42.65000000","longitude":"26.98333000"},{"id":"776afe48-f7fb-4021-a8ef-5e5ad8818b52","name":"Kiten","ru":"Kiten","country":"c4931ccd-1c68-4407-95e9-eab52e277c7e","countryCode":"BG","state":"60ea3b9c-a627-40d9-b8ed-a56f295d0990","stateCode":"02","latitude":"42.23424000","longitude":"27.77490000"},{"id":"073cdede-65d3-43e6-977e-4a854d47d4d7","name":"Malko Tarnovo","ru":"Malko Tarnovo","country":"c4931ccd-1c68-4407-95e9-eab52e277c7e","countryCode":"BG","state":"60ea3b9c-a627-40d9-b8ed-a56f295d0990","stateCode":"02","latitude":"41.97958000","longitude":"27.52477000"},{"id":"106876a3-5f90-4cdc-95c2-188ba7d18b18","name":"Nesebar","ru":"Nesebar","country":"c4931ccd-1c68-4407-95e9-eab52e277c7e","countryCode":"BG","state":"60ea3b9c-a627-40d9-b8ed-a56f295d0990","stateCode":"02","latitude":"42.65921000","longitude":"27.73602000"},{"id":"07bd3738-8e5b-4c74-ad81-c5c34278f6cb","name":"Obshtina Aytos","ru":"Obshtina Aytos","country":"c4931ccd-1c68-4407-95e9-eab52e277c7e","countryCode":"BG","state":"60ea3b9c-a627-40d9-b8ed-a56f295d0990","stateCode":"02","latitude":"42.70000000","longitude":"27.25000000"},{"id":"e618bcd9-c027-4515-939e-d602442ca955","name":"Obshtina Burgas","ru":"Obshtina Burgas","country":"c4931ccd-1c68-4407-95e9-eab52e277c7e","countryCode":"BG","state":"60ea3b9c-a627-40d9-b8ed-a56f295d0990","stateCode":"02","latitude":"42.50000000","longitude":"27.46667000"},{"id":"5fda8162-4900-40c6-b18d-817fa7dfe7a1","name":"Obshtina Kameno","ru":"Obshtina Kameno","country":"c4931ccd-1c68-4407-95e9-eab52e277c7e","countryCode":"BG","state":"60ea3b9c-a627-40d9-b8ed-a56f295d0990","stateCode":"02","latitude":"42.51667000","longitude":"27.18333000"},{"id":"611dc8c9-e733-4bda-9e62-f418f6cc502a","name":"Obshtina Karnobat","ru":"Obshtina Karnobat","country":"c4931ccd-1c68-4407-95e9-eab52e277c7e","countryCode":"BG","state":"60ea3b9c-a627-40d9-b8ed-a56f295d0990","stateCode":"02","latitude":"42.65000000","longitude":"26.98333000"},{"id":"202a9c8d-83bc-41ee-8074-66b591a2d7b9","name":"Obshtina Malko Tarnovo","ru":"Obshtina Malko Tarnovo","country":"c4931ccd-1c68-4407-95e9-eab52e277c7e","countryCode":"BG","state":"60ea3b9c-a627-40d9-b8ed-a56f295d0990","stateCode":"02","latitude":"42.08333000","longitude":"27.53333000"},{"id":"15d5c7d7-d918-4e6c-a43f-8585acece297","name":"Obshtina Nesebar","ru":"Obshtina Nesebar","country":"c4931ccd-1c68-4407-95e9-eab52e277c7e","countryCode":"BG","state":"60ea3b9c-a627-40d9-b8ed-a56f295d0990","stateCode":"02","latitude":"42.78333000","longitude":"27.73333000"},{"id":"4eea7eae-ebeb-49a8-a1af-2b6939361583","name":"Obshtina Pomorie","ru":"Obshtina Pomorie","country":"c4931ccd-1c68-4407-95e9-eab52e277c7e","countryCode":"BG","state":"60ea3b9c-a627-40d9-b8ed-a56f295d0990","stateCode":"02","latitude":"42.73333000","longitude":"27.55000000"},{"id":"8f893cec-4053-4acf-8b95-1a9b94cc30a9","name":"Obshtina Primorsko","ru":"Obshtina Primorsko","country":"c4931ccd-1c68-4407-95e9-eab52e277c7e","countryCode":"BG","state":"60ea3b9c-a627-40d9-b8ed-a56f295d0990","stateCode":"02","latitude":"42.25000000","longitude":"27.63333000"},{"id":"d93aa5f0-9aba-408d-b7d2-ec651ae8fa13","name":"Obshtina Sozopol","ru":"Obshtina Sozopol","country":"c4931ccd-1c68-4407-95e9-eab52e277c7e","countryCode":"BG","state":"60ea3b9c-a627-40d9-b8ed-a56f295d0990","stateCode":"02","latitude":"42.31123000","longitude":"27.51733000"},{"id":"3d382b4e-5337-499d-8b72-9c25be445232","name":"Obshtina Sungurlare","ru":"Obshtina Sungurlare","country":"c4931ccd-1c68-4407-95e9-eab52e277c7e","countryCode":"BG","state":"60ea3b9c-a627-40d9-b8ed-a56f295d0990","stateCode":"02","latitude":"42.83333000","longitude":"26.83333000"},{"id":"e7f96a3b-cd60-4ca3-bfda-9d5f2b12321a","name":"Obzor","ru":"Obzor","country":"c4931ccd-1c68-4407-95e9-eab52e277c7e","countryCode":"BG","state":"60ea3b9c-a627-40d9-b8ed-a56f295d0990","stateCode":"02","latitude":"42.81998000","longitude":"27.88007000"},{"id":"8689f03f-3027-412e-a0d7-0fb2a1d25612","name":"Pomorie","ru":"Pomorie","country":"c4931ccd-1c68-4407-95e9-eab52e277c7e","countryCode":"BG","state":"60ea3b9c-a627-40d9-b8ed-a56f295d0990","stateCode":"02","latitude":"42.56326000","longitude":"27.62986000"},{"id":"399310eb-7d50-418a-bb8a-6709d2730776","name":"Primorsko","ru":"Primorsko","country":"c4931ccd-1c68-4407-95e9-eab52e277c7e","countryCode":"BG","state":"60ea3b9c-a627-40d9-b8ed-a56f295d0990","stateCode":"02","latitude":"42.26791000","longitude":"27.75611000"},{"id":"55349fe3-7654-47dd-9486-8f88fb1f1258","name":"Ravda","ru":"Ravda","country":"c4931ccd-1c68-4407-95e9-eab52e277c7e","countryCode":"BG","state":"60ea3b9c-a627-40d9-b8ed-a56f295d0990","stateCode":"02","latitude":"42.64185000","longitude":"27.67713000"},{"id":"b56987e2-1d7c-4edc-9b22-bb0a5f63ad39","name":"Ruen","ru":"Ruen","country":"c4931ccd-1c68-4407-95e9-eab52e277c7e","countryCode":"BG","state":"60ea3b9c-a627-40d9-b8ed-a56f295d0990","stateCode":"02","latitude":"42.80000000","longitude":"27.28333000"},{"id":"499d8a66-0461-4408-bb3e-68b44e5496ba","name":"Sarafovo","ru":"Sarafovo","country":"c4931ccd-1c68-4407-95e9-eab52e277c7e","countryCode":"BG","state":"60ea3b9c-a627-40d9-b8ed-a56f295d0990","stateCode":"02","latitude":"42.56079000","longitude":"27.52195000"},{"id":"e6ca06ba-924d-4a38-aa99-6c062a0e4a10","name":"Sozopol","ru":"Sozopol","country":"c4931ccd-1c68-4407-95e9-eab52e277c7e","countryCode":"BG","state":"60ea3b9c-a627-40d9-b8ed-a56f295d0990","stateCode":"02","latitude":"42.41801000","longitude":"27.69560000"},{"id":"b6c7f67a-951f-433c-84ac-9c5afd0788ea","name":"Sredets","ru":"Sredets","country":"c4931ccd-1c68-4407-95e9-eab52e277c7e","countryCode":"BG","state":"60ea3b9c-a627-40d9-b8ed-a56f295d0990","stateCode":"02","latitude":"42.34747000","longitude":"27.17898000"},{"id":"f22a5299-7047-4025-b261-40b172cd79e3","name":"Sungurlare","ru":"Sungurlare","country":"c4931ccd-1c68-4407-95e9-eab52e277c7e","countryCode":"BG","state":"60ea3b9c-a627-40d9-b8ed-a56f295d0990","stateCode":"02","latitude":"42.76667000","longitude":"26.78333000"},{"id":"e951ef19-d626-4ea6-a229-f581f366f3cc","name":"Sveti Vlas","ru":"Sveti Vlas","country":"c4931ccd-1c68-4407-95e9-eab52e277c7e","countryCode":"BG","state":"60ea3b9c-a627-40d9-b8ed-a56f295d0990","stateCode":"02","latitude":"42.71360000","longitude":"27.75867000"},{"id":"8c612f8a-9fc0-4024-bbdc-6069eee6463e","name":"Tsarevo","ru":"Tsarevo","country":"c4931ccd-1c68-4407-95e9-eab52e277c7e","countryCode":"BG","state":"60ea3b9c-a627-40d9-b8ed-a56f295d0990","stateCode":"02","latitude":"42.16955000","longitude":"27.84541000"},{"id":"df7fd5eb-f45c-45f1-af08-6e6b6a85ff7c","name":"Balchik","ru":"Balchik","country":"c4931ccd-1c68-4407-95e9-eab52e277c7e","countryCode":"BG","state":"e2706080-3552-4782-b37b-9bc225ba1271","stateCode":"08","latitude":"43.42166000","longitude":"28.15848000"},{"id":"5aaa68f2-abff-4391-bee2-c55b5b9125d0","name":"Dobrich","ru":"Dobrich","country":"c4931ccd-1c68-4407-95e9-eab52e277c7e","countryCode":"BG","state":"e2706080-3552-4782-b37b-9bc225ba1271","stateCode":"08","latitude":"43.56667000","longitude":"27.83333000"},{"id":"7f3a5a2b-bbf4-403d-b69f-975783da477f","name":"General Toshevo","ru":"General Toshevo","country":"c4931ccd-1c68-4407-95e9-eab52e277c7e","countryCode":"BG","state":"e2706080-3552-4782-b37b-9bc225ba1271","stateCode":"08","latitude":"43.70123000","longitude":"28.03787000"},{"id":"21583e63-99f0-4ca0-a60c-d5f1bd04c793","name":"Kavarna","ru":"Kavarna","country":"c4931ccd-1c68-4407-95e9-eab52e277c7e","countryCode":"BG","state":"e2706080-3552-4782-b37b-9bc225ba1271","stateCode":"08","latitude":"43.43601000","longitude":"28.33953000"},{"id":"3dfa5c27-bf38-47a1-acc2-95d6c0becdc1","name":"Krushari","ru":"Krushari","country":"c4931ccd-1c68-4407-95e9-eab52e277c7e","countryCode":"BG","state":"e2706080-3552-4782-b37b-9bc225ba1271","stateCode":"08","latitude":"43.81675000","longitude":"27.75552000"},{"id":"85dd4a8d-6754-419d-967a-fc164a4eb97f","name":"Obshtina Balchik","ru":"Obshtina Balchik","country":"c4931ccd-1c68-4407-95e9-eab52e277c7e","countryCode":"BG","state":"e2706080-3552-4782-b37b-9bc225ba1271","stateCode":"08","latitude":"43.50000000","longitude":"28.13333000"},{"id":"d08da706-e9d6-44b2-9fb8-1285423d8c59","name":"Obshtina Dobrich","ru":"Obshtina Dobrich","country":"c4931ccd-1c68-4407-95e9-eab52e277c7e","countryCode":"BG","state":"e2706080-3552-4782-b37b-9bc225ba1271","stateCode":"08","latitude":"43.57763000","longitude":"27.80628000"},{"id":"ed7ef741-6ef5-4d50-a2b6-438c37ce2147","name":"Obshtina Dobrich-Selska","ru":"Obshtina Dobrich-Selska","country":"c4931ccd-1c68-4407-95e9-eab52e277c7e","countryCode":"BG","state":"e2706080-3552-4782-b37b-9bc225ba1271","stateCode":"08","latitude":"43.63333000","longitude":"27.73333000"},{"id":"4189a578-f33d-478e-8572-e53ecdc6f349","name":"Obshtina General Toshevo","ru":"Obshtina General Toshevo","country":"c4931ccd-1c68-4407-95e9-eab52e277c7e","countryCode":"BG","state":"e2706080-3552-4782-b37b-9bc225ba1271","stateCode":"08","latitude":"43.73333000","longitude":"28.08333000"},{"id":"9e1b36cc-a812-4fe2-8dce-746baa69b6c6","name":"Obshtina Kavarna","ru":"Obshtina Kavarna","country":"c4931ccd-1c68-4407-95e9-eab52e277c7e","countryCode":"BG","state":"e2706080-3552-4782-b37b-9bc225ba1271","stateCode":"08","latitude":"43.50000000","longitude":"28.38333000"},{"id":"fc39bc6e-7dbb-4920-a6bb-11d4865c2c72","name":"Obshtina Krushari","ru":"Obshtina Krushari","country":"c4931ccd-1c68-4407-95e9-eab52e277c7e","countryCode":"BG","state":"e2706080-3552-4782-b37b-9bc225ba1271","stateCode":"08","latitude":"43.88333000","longitude":"27.75000000"},{"id":"7d3b4df0-ece1-4a64-88dc-0249c7079808","name":"Obshtina Shabla","ru":"Obshtina Shabla","country":"c4931ccd-1c68-4407-95e9-eab52e277c7e","countryCode":"BG","state":"e2706080-3552-4782-b37b-9bc225ba1271","stateCode":"08","latitude":"43.61667000","longitude":"28.51667000"},{"id":"5d45cd42-7b8c-43ff-ad1f-17b3f15ee49b","name":"Obshtina Tervel","ru":"Obshtina Tervel","country":"c4931ccd-1c68-4407-95e9-eab52e277c7e","countryCode":"BG","state":"e2706080-3552-4782-b37b-9bc225ba1271","stateCode":"08","latitude":"43.75000000","longitude":"27.40000000"},{"id":"e6421ee7-aef7-4ccb-a2d7-14ec2c1f8e3a","name":"Shabla","ru":"Shabla","country":"c4931ccd-1c68-4407-95e9-eab52e277c7e","countryCode":"BG","state":"e2706080-3552-4782-b37b-9bc225ba1271","stateCode":"08","latitude":"43.53983000","longitude":"28.53429000"},{"id":"e9ea4c64-8a49-45d2-9166-240de144603c","name":"Tervel","ru":"Tervel","country":"c4931ccd-1c68-4407-95e9-eab52e277c7e","countryCode":"BG","state":"e2706080-3552-4782-b37b-9bc225ba1271","stateCode":"08","latitude":"43.74789000","longitude":"27.40911000"},{"id":"ad07f814-9bcc-4181-890d-699b3ccad5e4","name":"Dryanovo","ru":"Dryanovo","country":"c4931ccd-1c68-4407-95e9-eab52e277c7e","countryCode":"BG","state":"e94c119f-906a-47f9-ac8e-e8674f3feff0","stateCode":"07","latitude":"42.97897000","longitude":"25.47850000"},{"id":"fbb45a64-9f57-4888-be63-c9a7fa59c38f","name":"Gabrovo","ru":"Gabrovo","country":"c4931ccd-1c68-4407-95e9-eab52e277c7e","countryCode":"BG","state":"e94c119f-906a-47f9-ac8e-e8674f3feff0","stateCode":"07","latitude":"42.87472000","longitude":"25.33417000"},{"id":"f5405a91-1f91-46e5-9c31-faf55be2839a","name":"Obshtina Dryanovo","ru":"Obshtina Dryanovo","country":"c4931ccd-1c68-4407-95e9-eab52e277c7e","countryCode":"BG","state":"e94c119f-906a-47f9-ac8e-e8674f3feff0","stateCode":"07","latitude":"43.00000000","longitude":"25.46667000"},{"id":"cbfbcda2-3dcc-4270-a432-fbfa1dfffd9d","name":"Obshtina Gabrovo","ru":"Obshtina Gabrovo","country":"c4931ccd-1c68-4407-95e9-eab52e277c7e","countryCode":"BG","state":"e94c119f-906a-47f9-ac8e-e8674f3feff0","stateCode":"07","latitude":"42.90000000","longitude":"25.30000000"},{"id":"3043ee67-9993-4c72-b543-bf57737bb650","name":"Obshtina Sevlievo","ru":"Obshtina Sevlievo","country":"c4931ccd-1c68-4407-95e9-eab52e277c7e","countryCode":"BG","state":"e94c119f-906a-47f9-ac8e-e8674f3feff0","stateCode":"07","latitude":"43.01667000","longitude":"25.10000000"},{"id":"9b3eda77-0f3a-4110-bce8-400b71f46b24","name":"Obshtina Tryavna","ru":"Obshtina Tryavna","country":"c4931ccd-1c68-4407-95e9-eab52e277c7e","countryCode":"BG","state":"e94c119f-906a-47f9-ac8e-e8674f3feff0","stateCode":"07","latitude":"42.85000000","longitude":"25.55000000"},{"id":"3d1495f0-1af8-404b-bd2c-c458a467dede","name":"Sevlievo","ru":"Sevlievo","country":"c4931ccd-1c68-4407-95e9-eab52e277c7e","countryCode":"BG","state":"e94c119f-906a-47f9-ac8e-e8674f3feff0","stateCode":"07","latitude":"43.02583000","longitude":"25.11361000"},{"id":"673b6784-0191-4a61-8c5b-ef81463e0c8b","name":"Tryavna","ru":"Tryavna","country":"c4931ccd-1c68-4407-95e9-eab52e277c7e","countryCode":"BG","state":"e94c119f-906a-47f9-ac8e-e8674f3feff0","stateCode":"07","latitude":"42.86667000","longitude":"25.50000000"},{"id":"5b3edf0c-5708-4afb-8170-210700b52342","name":"Dimitrovgrad","ru":"Dimitrovgrad","country":"c4931ccd-1c68-4407-95e9-eab52e277c7e","countryCode":"BG","state":"294152bb-101a-4c74-a3bf-5d93e92fe996","stateCode":"26","latitude":"42.05000000","longitude":"25.60000000"},{"id":"dd85c33c-8368-4770-bb19-c47d5dfc17ce","name":"Harmanli","ru":"Harmanli","country":"c4931ccd-1c68-4407-95e9-eab52e277c7e","countryCode":"BG","state":"294152bb-101a-4c74-a3bf-5d93e92fe996","stateCode":"26","latitude":"41.93333000","longitude":"25.90000000"},{"id":"1cabe4d1-8a70-4893-bd9c-a25c80db3655","name":"Haskovo","ru":"Haskovo","country":"c4931ccd-1c68-4407-95e9-eab52e277c7e","countryCode":"BG","state":"294152bb-101a-4c74-a3bf-5d93e92fe996","stateCode":"26","latitude":"41.93415000","longitude":"25.55557000"},{"id":"b9f5159d-ab1d-4601-a003-a6a2cf99b329","name":"Ivaylovgrad","ru":"Ivaylovgrad","country":"c4931ccd-1c68-4407-95e9-eab52e277c7e","countryCode":"BG","state":"294152bb-101a-4c74-a3bf-5d93e92fe996","stateCode":"26","latitude":"41.52672000","longitude":"26.12490000"},{"id":"4a7ab924-b8ce-4da0-8f97-073a07b8d09d","name":"Lyubimets","ru":"Lyubimets","country":"c4931ccd-1c68-4407-95e9-eab52e277c7e","countryCode":"BG","state":"294152bb-101a-4c74-a3bf-5d93e92fe996","stateCode":"26","latitude":"41.83333000","longitude":"26.08333000"},{"id":"fd2f77b3-e707-409b-9f2d-92a9b009decc","name":"Madzharovo","ru":"Madzharovo","country":"c4931ccd-1c68-4407-95e9-eab52e277c7e","countryCode":"BG","state":"294152bb-101a-4c74-a3bf-5d93e92fe996","stateCode":"26","latitude":"41.63461000","longitude":"25.86439000"},{"id":"4409af31-d5ec-4936-922b-e715688e6545","name":"Mineralni Bani","ru":"Mineralni Bani","country":"c4931ccd-1c68-4407-95e9-eab52e277c7e","countryCode":"BG","state":"294152bb-101a-4c74-a3bf-5d93e92fe996","stateCode":"26","latitude":"41.91667000","longitude":"25.35000000"},{"id":"cf0b103b-91f7-477e-af53-e5598ddfbea3","name":"Obshtina Dimitrovgrad","ru":"Obshtina Dimitrovgrad","country":"c4931ccd-1c68-4407-95e9-eab52e277c7e","countryCode":"BG","state":"294152bb-101a-4c74-a3bf-5d93e92fe996","stateCode":"26","latitude":"42.05000000","longitude":"25.60000000"},{"id":"69486b07-8b03-4c0c-a028-46bbd38cd625","name":"Obshtina Harmanli","ru":"Obshtina Harmanli","country":"c4931ccd-1c68-4407-95e9-eab52e277c7e","countryCode":"BG","state":"294152bb-101a-4c74-a3bf-5d93e92fe996","stateCode":"26","latitude":"41.93333000","longitude":"25.98333000"},{"id":"a784ec7b-2262-41cb-b2e9-93dc5ca9d350","name":"Obshtina Haskovo","ru":"Obshtina Haskovo","country":"c4931ccd-1c68-4407-95e9-eab52e277c7e","countryCode":"BG","state":"294152bb-101a-4c74-a3bf-5d93e92fe996","stateCode":"26","latitude":"41.88333000","longitude":"25.61667000"},{"id":"a0e58044-db2e-4833-9317-d1590b39e1a9","name":"Obshtina Ivaylovgrad","ru":"Obshtina Ivaylovgrad","country":"c4931ccd-1c68-4407-95e9-eab52e277c7e","countryCode":"BG","state":"294152bb-101a-4c74-a3bf-5d93e92fe996","stateCode":"26","latitude":"41.48333000","longitude":"26.00000000"},{"id":"53e5a892-d608-4d73-b0e6-4112e5136e78","name":"Obshtina Madzharovo","ru":"Obshtina Madzharovo","country":"c4931ccd-1c68-4407-95e9-eab52e277c7e","countryCode":"BG","state":"294152bb-101a-4c74-a3bf-5d93e92fe996","stateCode":"26","latitude":"41.68333000","longitude":"25.90000000"},{"id":"797d4994-001b-42e1-9d9b-6660f4622072","name":"Obshtina Mineralni Bani","ru":"Obshtina Mineralni Bani","country":"c4931ccd-1c68-4407-95e9-eab52e277c7e","countryCode":"BG","state":"294152bb-101a-4c74-a3bf-5d93e92fe996","stateCode":"26","latitude":"41.90000000","longitude":"25.33333000"},{"id":"f524a2a2-5eff-42e8-8763-fad045a2869e","name":"Obshtina Stambolovo","ru":"Obshtina Stambolovo","country":"c4931ccd-1c68-4407-95e9-eab52e277c7e","countryCode":"BG","state":"294152bb-101a-4c74-a3bf-5d93e92fe996","stateCode":"26","latitude":"41.73333000","longitude":"25.70000000"},{"id":"67ffe70b-ca81-4a5d-9d29-d431ccc7bfd3","name":"Obshtina Svilengrad","ru":"Obshtina Svilengrad","country":"c4931ccd-1c68-4407-95e9-eab52e277c7e","countryCode":"BG","state":"294152bb-101a-4c74-a3bf-5d93e92fe996","stateCode":"26","latitude":"41.86667000","longitude":"26.31667000"},{"id":"201f3dfd-df6e-4ce3-946f-b600e948f714","name":"Obshtina Topolovgrad","ru":"Obshtina Topolovgrad","country":"c4931ccd-1c68-4407-95e9-eab52e277c7e","countryCode":"BG","state":"294152bb-101a-4c74-a3bf-5d93e92fe996","stateCode":"26","latitude":"42.08333000","longitude":"26.33333000"},{"id":"2b6a706d-6f0c-4e9b-a116-177d4d13ffdf","name":"Simeonovgrad","ru":"Simeonovgrad","country":"c4931ccd-1c68-4407-95e9-eab52e277c7e","countryCode":"BG","state":"294152bb-101a-4c74-a3bf-5d93e92fe996","stateCode":"26","latitude":"42.03333000","longitude":"25.83333000"},{"id":"2b0d53ed-156b-4f64-aaaa-783f6b34003c","name":"Svilengrad","ru":"Svilengrad","country":"c4931ccd-1c68-4407-95e9-eab52e277c7e","countryCode":"BG","state":"294152bb-101a-4c74-a3bf-5d93e92fe996","stateCode":"26","latitude":"41.76667000","longitude":"26.20000000"},{"id":"0f2ffd68-3065-4880-94c0-00f4c91fa803","name":"Topolovgrad","ru":"Topolovgrad","country":"c4931ccd-1c68-4407-95e9-eab52e277c7e","countryCode":"BG","state":"294152bb-101a-4c74-a3bf-5d93e92fe996","stateCode":"26","latitude":"42.08333000","longitude":"26.33333000"},{"id":"021f3739-e184-49db-a909-4521ac7df6a4","name":"Ardino","ru":"Ardino","country":"c4931ccd-1c68-4407-95e9-eab52e277c7e","countryCode":"BG","state":"02e35d1d-31aa-4abd-9578-8da46c0f2124","stateCode":"09","latitude":"41.58333000","longitude":"25.13333000"},{"id":"8cde6128-3640-4ae3-8c0f-e302346cf74f","name":"Dzhebel","ru":"Dzhebel","country":"c4931ccd-1c68-4407-95e9-eab52e277c7e","countryCode":"BG","state":"02e35d1d-31aa-4abd-9578-8da46c0f2124","stateCode":"09","latitude":"41.49566000","longitude":"25.30363000"},{"id":"a323c97d-a43a-403e-9294-0d4e8cc2a39d","name":"Kardzhali","ru":"Kardzhali","country":"c4931ccd-1c68-4407-95e9-eab52e277c7e","countryCode":"BG","state":"02e35d1d-31aa-4abd-9578-8da46c0f2124","stateCode":"09","latitude":"41.65000000","longitude":"25.36667000"},{"id":"368a9c46-e905-4966-a860-15b7f9da3874","name":"Kirkovo","ru":"Kirkovo","country":"c4931ccd-1c68-4407-95e9-eab52e277c7e","countryCode":"BG","state":"02e35d1d-31aa-4abd-9578-8da46c0f2124","stateCode":"09","latitude":"41.32715000","longitude":"25.36379000"},{"id":"47ba63e1-07e6-4b2e-87d8-c87b214e5cbd","name":"Krumovgrad","ru":"Krumovgrad","country":"c4931ccd-1c68-4407-95e9-eab52e277c7e","countryCode":"BG","state":"02e35d1d-31aa-4abd-9578-8da46c0f2124","stateCode":"09","latitude":"41.47127000","longitude":"25.65485000"},{"id":"dfa4a37d-f44c-4bcc-aa2e-0eedd195622f","name":"Obshtina Ardino","ru":"Obshtina Ardino","country":"c4931ccd-1c68-4407-95e9-eab52e277c7e","countryCode":"BG","state":"02e35d1d-31aa-4abd-9578-8da46c0f2124","stateCode":"09","latitude":"41.60000000","longitude":"25.15000000"},{"id":"1793e912-28c1-4d11-8729-9b72ccc6793f","name":"Obshtina Chernoochene","ru":"Obshtina Chernoochene","country":"c4931ccd-1c68-4407-95e9-eab52e277c7e","countryCode":"BG","state":"02e35d1d-31aa-4abd-9578-8da46c0f2124","stateCode":"09","latitude":"41.78333000","longitude":"25.25000000"},{"id":"9ea89c59-ef30-479a-8364-10ee838c6e1f","name":"Obshtina Dzhebel","ru":"Obshtina Dzhebel","country":"c4931ccd-1c68-4407-95e9-eab52e277c7e","countryCode":"BG","state":"02e35d1d-31aa-4abd-9578-8da46c0f2124","stateCode":"09","latitude":"41.50000000","longitude":"25.26667000"},{"id":"36a29451-24c9-4d67-80b5-6aa277803e41","name":"Obshtina Kardzhali","ru":"Obshtina Kardzhali","country":"c4931ccd-1c68-4407-95e9-eab52e277c7e","countryCode":"BG","state":"02e35d1d-31aa-4abd-9578-8da46c0f2124","stateCode":"09","latitude":"41.68333000","longitude":"25.43333000"},{"id":"7c29535f-6e04-4726-bc64-f83aa856bb02","name":"Obshtina Kirkovo","ru":"Obshtina Kirkovo","country":"c4931ccd-1c68-4407-95e9-eab52e277c7e","countryCode":"BG","state":"02e35d1d-31aa-4abd-9578-8da46c0f2124","stateCode":"09","latitude":"41.35816000","longitude":"25.33731000"},{"id":"c7cc9dec-6427-45d7-8d3c-3b95b26f6117","name":"Obshtina Momchilgrad","ru":"Obshtina Momchilgrad","country":"c4931ccd-1c68-4407-95e9-eab52e277c7e","countryCode":"BG","state":"02e35d1d-31aa-4abd-9578-8da46c0f2124","stateCode":"09","latitude":"41.53333000","longitude":"25.50000000"},{"id":"8289444c-91d7-4236-8eea-29abd56df9d7","name":"Boboshevo","ru":"Boboshevo","country":"c4931ccd-1c68-4407-95e9-eab52e277c7e","countryCode":"BG","state":"97dd42c0-d472-4a81-8096-1b8780349592","stateCode":"10","latitude":"42.15296000","longitude":"23.00146000"},{"id":"598573b1-a0f7-42ce-8d56-fb76ece29665","name":"Bobov Dol","ru":"Bobov Dol","country":"c4931ccd-1c68-4407-95e9-eab52e277c7e","countryCode":"BG","state":"97dd42c0-d472-4a81-8096-1b8780349592","stateCode":"10","latitude":"42.36256000","longitude":"23.00324000"},{"id":"b1f3b766-ab43-4b4d-accb-6dd5c1c62874","name":"Dupnitsa","ru":"Dupnitsa","country":"c4931ccd-1c68-4407-95e9-eab52e277c7e","countryCode":"BG","state":"97dd42c0-d472-4a81-8096-1b8780349592","stateCode":"10","latitude":"42.26667000","longitude":"23.11667000"},{"id":"b4d52c5c-2526-4225-ad46-f95875654de0","name":"Kocherinovo","ru":"Kocherinovo","country":"c4931ccd-1c68-4407-95e9-eab52e277c7e","countryCode":"BG","state":"97dd42c0-d472-4a81-8096-1b8780349592","stateCode":"10","latitude":"42.08439000","longitude":"23.05710000"},{"id":"46c7d6a2-a0d9-46af-9af2-f272a3331e51","name":"Kyustendil","ru":"Kyustendil","country":"c4931ccd-1c68-4407-95e9-eab52e277c7e","countryCode":"BG","state":"97dd42c0-d472-4a81-8096-1b8780349592","stateCode":"10","latitude":"42.28389000","longitude":"22.69111000"},{"id":"13747103-c888-4083-b5c7-68026158d3c8","name":"Nevestino","ru":"Nevestino","country":"c4931ccd-1c68-4407-95e9-eab52e277c7e","countryCode":"BG","state":"97dd42c0-d472-4a81-8096-1b8780349592","stateCode":"10","latitude":"42.25551000","longitude":"22.85175000"},{"id":"442a9195-ee72-480c-a9dd-250bdffd97af","name":"Obshtina Boboshevo","ru":"Obshtina Boboshevo","country":"c4931ccd-1c68-4407-95e9-eab52e277c7e","countryCode":"BG","state":"97dd42c0-d472-4a81-8096-1b8780349592","stateCode":"10","latitude":"42.18333000","longitude":"23.02731000"},{"id":"d7385ee1-23ce-4363-a431-1d52c55f1713","name":"Obshtina Bobov Dol","ru":"Obshtina Bobov Dol","country":"c4931ccd-1c68-4407-95e9-eab52e277c7e","countryCode":"BG","state":"97dd42c0-d472-4a81-8096-1b8780349592","stateCode":"10","latitude":"42.31667000","longitude":"22.98333000"},{"id":"01d4141e-71eb-471d-b4c3-cae191f5aad9","name":"Obshtina Dupnitsa","ru":"Obshtina Dupnitsa","country":"c4931ccd-1c68-4407-95e9-eab52e277c7e","countryCode":"BG","state":"97dd42c0-d472-4a81-8096-1b8780349592","stateCode":"10","latitude":"42.28333000","longitude":"23.15000000"},{"id":"564b6906-4638-457e-acb0-77bde442553b","name":"Obshtina Kocherinovo","ru":"Obshtina Kocherinovo","country":"c4931ccd-1c68-4407-95e9-eab52e277c7e","countryCode":"BG","state":"97dd42c0-d472-4a81-8096-1b8780349592","stateCode":"10","latitude":"42.09909000","longitude":"23.02942000"},{"id":"148e579a-dd21-4005-8e2c-6fc3763dbdcf","name":"Obshtina Kyustendil","ru":"Obshtina Kyustendil","country":"c4931ccd-1c68-4407-95e9-eab52e277c7e","countryCode":"BG","state":"97dd42c0-d472-4a81-8096-1b8780349592","stateCode":"10","latitude":"42.28333000","longitude":"22.68333000"},{"id":"35b8c4b0-7bbd-41fd-a361-e229d1f773c0","name":"Obshtina Nevestino","ru":"Obshtina Nevestino","country":"c4931ccd-1c68-4407-95e9-eab52e277c7e","countryCode":"BG","state":"97dd42c0-d472-4a81-8096-1b8780349592","stateCode":"10","latitude":"42.16667000","longitude":"22.83333000"},{"id":"ecbba8b5-dfc0-4ac8-a2c4-7201b1bbf2c7","name":"Obshtina Rila","ru":"Obshtina Rila","country":"c4931ccd-1c68-4407-95e9-eab52e277c7e","countryCode":"BG","state":"97dd42c0-d472-4a81-8096-1b8780349592","stateCode":"10","latitude":"42.15000000","longitude":"23.31667000"},{"id":"adc85256-38a3-44c3-8c2d-ed06db0a8139","name":"Obshtina Sapareva Banya","ru":"Obshtina Sapareva Banya","country":"c4931ccd-1c68-4407-95e9-eab52e277c7e","countryCode":"BG","state":"97dd42c0-d472-4a81-8096-1b8780349592","stateCode":"10","latitude":"42.28333000","longitude":"23.31667000"},{"id":"f306ccc4-7af7-479b-9a03-02c8ba9bc64e","name":"Obshtina Treklyano","ru":"Obshtina Treklyano","country":"c4931ccd-1c68-4407-95e9-eab52e277c7e","countryCode":"BG","state":"97dd42c0-d472-4a81-8096-1b8780349592","stateCode":"10","latitude":"42.55000000","longitude":"22.60000000"},{"id":"9d2ba431-0137-47a9-acf0-0ed9a916d7bd","name":"Rila","ru":"Rila","country":"c4931ccd-1c68-4407-95e9-eab52e277c7e","countryCode":"BG","state":"97dd42c0-d472-4a81-8096-1b8780349592","stateCode":"10","latitude":"42.13333000","longitude":"23.13333000"},{"id":"e120e301-45d2-46ff-b27b-35473a6decce","name":"Sapareva Banya","ru":"Sapareva Banya","country":"c4931ccd-1c68-4407-95e9-eab52e277c7e","countryCode":"BG","state":"97dd42c0-d472-4a81-8096-1b8780349592","stateCode":"10","latitude":"42.28333000","longitude":"23.26667000"},{"id":"373ceeae-1e17-46db-8bb5-cf0356bd7368","name":"Apriltsi","ru":"Apriltsi","country":"c4931ccd-1c68-4407-95e9-eab52e277c7e","countryCode":"BG","state":"db6454b4-53b1-48be-8901-9bb0af5fe691","stateCode":"11","latitude":"42.84142000","longitude":"24.91759000"},{"id":"5dc175c6-ab7d-4ba0-b122-fa5ec6d7b671","name":"Letnitsa","ru":"Letnitsa","country":"c4931ccd-1c68-4407-95e9-eab52e277c7e","countryCode":"BG","state":"db6454b4-53b1-48be-8901-9bb0af5fe691","stateCode":"11","latitude":"43.31167000","longitude":"25.07333000"},{"id":"1e1024fe-44c9-4de0-b708-5006edf2298b","name":"Lovech","ru":"Lovech","country":"c4931ccd-1c68-4407-95e9-eab52e277c7e","countryCode":"BG","state":"db6454b4-53b1-48be-8901-9bb0af5fe691","stateCode":"11","latitude":"43.13333000","longitude":"24.71667000"},{"id":"71b91b65-7264-4105-a6b4-a7e457af256e","name":"Lukovit","ru":"Lukovit","country":"c4931ccd-1c68-4407-95e9-eab52e277c7e","countryCode":"BG","state":"db6454b4-53b1-48be-8901-9bb0af5fe691","stateCode":"11","latitude":"43.20000000","longitude":"24.16667000"},{"id":"0f7b756c-080f-45ed-9ac0-1734f4fd3c2d","name":"Obshtina Lovech","ru":"Obshtina Lovech","country":"c4931ccd-1c68-4407-95e9-eab52e277c7e","countryCode":"BG","state":"db6454b4-53b1-48be-8901-9bb0af5fe691","stateCode":"11","latitude":"43.16667000","longitude":"24.80000000"},{"id":"555b805e-0335-4b67-a88c-d846642bd41d","name":"Obshtina Teteven","ru":"Obshtina Teteven","country":"c4931ccd-1c68-4407-95e9-eab52e277c7e","countryCode":"BG","state":"db6454b4-53b1-48be-8901-9bb0af5fe691","stateCode":"11","latitude":"42.91667000","longitude":"24.26667000"},{"id":"e07f2d04-5954-4840-b2af-b3d9ed738ec6","name":"Obshtina Ugarchin","ru":"Obshtina Ugarchin","country":"c4931ccd-1c68-4407-95e9-eab52e277c7e","countryCode":"BG","state":"db6454b4-53b1-48be-8901-9bb0af5fe691","stateCode":"11","latitude":"43.10000000","longitude":"24.41667000"},{"id":"7a5ddb53-7f24-4cdf-bb68-4b6a93ce7d05","name":"Teteven","ru":"Teteven","country":"c4931ccd-1c68-4407-95e9-eab52e277c7e","countryCode":"BG","state":"db6454b4-53b1-48be-8901-9bb0af5fe691","stateCode":"11","latitude":"42.91667000","longitude":"24.26667000"},{"id":"8d2d488d-bfad-4019-892f-7901bac50048","name":"Troyan","ru":"Troyan","country":"c4931ccd-1c68-4407-95e9-eab52e277c7e","countryCode":"BG","state":"db6454b4-53b1-48be-8901-9bb0af5fe691","stateCode":"11","latitude":"42.89427000","longitude":"24.71589000"},{"id":"46577099-c08c-43e2-9a8d-5faf4c2d1383","name":"Ugarchin","ru":"Ugarchin","country":"c4931ccd-1c68-4407-95e9-eab52e277c7e","countryCode":"BG","state":"db6454b4-53b1-48be-8901-9bb0af5fe691","stateCode":"11","latitude":"43.10000000","longitude":"24.41667000"},{"id":"08613e97-f756-4219-bc51-9a64c43c74af","name":"Yablanitsa","ru":"Yablanitsa","country":"c4931ccd-1c68-4407-95e9-eab52e277c7e","countryCode":"BG","state":"db6454b4-53b1-48be-8901-9bb0af5fe691","stateCode":"11","latitude":"43.03139000","longitude":"24.11278000"},{"id":"0280c056-e308-4f9b-8dc2-798cd330474b","name":"Berkovitsa","ru":"Berkovitsa","country":"c4931ccd-1c68-4407-95e9-eab52e277c7e","countryCode":"BG","state":"26dd1f67-76e5-4a22-b943-93128b82f900","stateCode":"12","latitude":"43.23581000","longitude":"23.12738000"},{"id":"a9520b36-849b-49a5-ad70-b74af08b9a30","name":"Boychinovtsi","ru":"Boychinovtsi","country":"c4931ccd-1c68-4407-95e9-eab52e277c7e","countryCode":"BG","state":"26dd1f67-76e5-4a22-b943-93128b82f900","stateCode":"12","latitude":"43.47222000","longitude":"23.33583000"},{"id":"e6a490ae-f91c-457a-93bd-a50c8d87b81f","name":"Brusartsi","ru":"Brusartsi","country":"c4931ccd-1c68-4407-95e9-eab52e277c7e","countryCode":"BG","state":"26dd1f67-76e5-4a22-b943-93128b82f900","stateCode":"12","latitude":"43.66075000","longitude":"23.06732000"},{"id":"a871a613-6ef8-47c2-a3f2-d8dbc76f1d5f","name":"Chiprovtsi","ru":"Chiprovtsi","country":"c4931ccd-1c68-4407-95e9-eab52e277c7e","countryCode":"BG","state":"26dd1f67-76e5-4a22-b943-93128b82f900","stateCode":"12","latitude":"43.38417000","longitude":"22.88083000"},{"id":"8d918ce3-9013-42e6-a886-74fd9388905b","name":"Lom","ru":"Lom","country":"c4931ccd-1c68-4407-95e9-eab52e277c7e","countryCode":"BG","state":"26dd1f67-76e5-4a22-b943-93128b82f900","stateCode":"12","latitude":"43.82106000","longitude":"23.23677000"},{"id":"d005885b-cb7b-4c67-8d53-2a4ee8cb6501","name":"Medkovets","ru":"Medkovets","country":"c4931ccd-1c68-4407-95e9-eab52e277c7e","countryCode":"BG","state":"26dd1f67-76e5-4a22-b943-93128b82f900","stateCode":"12","latitude":"43.62403000","longitude":"23.16876000"},{"id":"6cee7dda-1ed5-4842-97b1-d13cee5da21d","name":"Montana","ru":"Montana","country":"c4931ccd-1c68-4407-95e9-eab52e277c7e","countryCode":"BG","state":"26dd1f67-76e5-4a22-b943-93128b82f900","stateCode":"12","latitude":"43.41250000","longitude":"23.22500000"},{"id":"67794f7b-1a45-4103-ae11-9d0d8e701f5c","name":"Obshtina Boychinovtsi","ru":"Obshtina Boychinovtsi","country":"c4931ccd-1c68-4407-95e9-eab52e277c7e","countryCode":"BG","state":"26dd1f67-76e5-4a22-b943-93128b82f900","stateCode":"12","latitude":"43.53333000","longitude":"23.43333000"},{"id":"1e8c019d-4a64-4fc9-a92e-ef31b20b49d4","name":"Obshtina Chiprovtsi","ru":"Obshtina Chiprovtsi","country":"c4931ccd-1c68-4407-95e9-eab52e277c7e","countryCode":"BG","state":"26dd1f67-76e5-4a22-b943-93128b82f900","stateCode":"12","latitude":"43.41667000","longitude":"22.90000000"},{"id":"7f4dc1fa-22b7-4e96-b9e8-27a77ea951a5","name":"Obshtina Georgi Damyanovo","ru":"Obshtina Georgi Damyanovo","country":"c4931ccd-1c68-4407-95e9-eab52e277c7e","countryCode":"BG","state":"26dd1f67-76e5-4a22-b943-93128b82f900","stateCode":"12","latitude":"43.35000000","longitude":"23.00000000"},{"id":"0cef0f78-f99c-4ae7-afc9-143a5e530bbb","name":"Obshtina Lom","ru":"Obshtina Lom","country":"c4931ccd-1c68-4407-95e9-eab52e277c7e","countryCode":"BG","state":"26dd1f67-76e5-4a22-b943-93128b82f900","stateCode":"12","latitude":"43.81667000","longitude":"23.23333000"},{"id":"74aef510-ec03-4097-8bae-573b5315e203","name":"Obshtina Montana","ru":"Obshtina Montana","country":"c4931ccd-1c68-4407-95e9-eab52e277c7e","countryCode":"BG","state":"26dd1f67-76e5-4a22-b943-93128b82f900","stateCode":"12","latitude":"43.46667000","longitude":"23.20000000"},{"id":"a531a324-55ad-4f96-816d-66a4423e8ca8","name":"Obshtina Valchedram","ru":"Obshtina Valchedram","country":"c4931ccd-1c68-4407-95e9-eab52e277c7e","countryCode":"BG","state":"26dd1f67-76e5-4a22-b943-93128b82f900","stateCode":"12","latitude":"43.71667000","longitude":"23.51667000"},{"id":"a10d641b-a8a4-4593-a709-1ee2043a75ee","name":"Obshtina Varshets","ru":"Obshtina Varshets","country":"c4931ccd-1c68-4407-95e9-eab52e277c7e","countryCode":"BG","state":"26dd1f67-76e5-4a22-b943-93128b82f900","stateCode":"12","latitude":"43.21667000","longitude":"23.33333000"},{"id":"c1f4265a-53b5-4337-8c5f-ccf9826087c7","name":"Obshtina Yakimovo","ru":"Obshtina Yakimovo","country":"c4931ccd-1c68-4407-95e9-eab52e277c7e","countryCode":"BG","state":"26dd1f67-76e5-4a22-b943-93128b82f900","stateCode":"12","latitude":"43.63333000","longitude":"23.33333000"},{"id":"8996d40a-68d5-48f6-b205-d9cc2a722bfb","name":"Valchedram","ru":"Valchedram","country":"c4931ccd-1c68-4407-95e9-eab52e277c7e","countryCode":"BG","state":"26dd1f67-76e5-4a22-b943-93128b82f900","stateCode":"12","latitude":"43.69281000","longitude":"23.44518000"},{"id":"b0f2ccdc-2c49-4b12-8b67-6e8eae18b4f3","name":"Varshets","ru":"Varshets","country":"c4931ccd-1c68-4407-95e9-eab52e277c7e","countryCode":"BG","state":"26dd1f67-76e5-4a22-b943-93128b82f900","stateCode":"12","latitude":"43.19356000","longitude":"23.28680000"},{"id":"eb925a56-707e-4fc4-b9cf-7e86c8c65322","name":"Yakimovo","ru":"Yakimovo","country":"c4931ccd-1c68-4407-95e9-eab52e277c7e","countryCode":"BG","state":"26dd1f67-76e5-4a22-b943-93128b82f900","stateCode":"12","latitude":"43.63472000","longitude":"23.35350000"},{"id":"34d91b51-9f38-4521-98fe-b491e5e2619b","name":"Batak","ru":"Batak","country":"c4931ccd-1c68-4407-95e9-eab52e277c7e","countryCode":"BG","state":"d92c8993-a912-4923-9632-daab2ea1f48f","stateCode":"13","latitude":"41.94225000","longitude":"24.21843000"},{"id":"c0ab9834-d658-483d-8637-67d96a3a5735","name":"Belovo","ru":"Belovo","country":"c4931ccd-1c68-4407-95e9-eab52e277c7e","countryCode":"BG","state":"d92c8993-a912-4923-9632-daab2ea1f48f","stateCode":"13","latitude":"42.21239000","longitude":"24.02081000"},{"id":"f66d7c90-ed73-4cfd-b3c9-9aacf3f5c2a4","name":"Bratsigovo","ru":"Bratsigovo","country":"c4931ccd-1c68-4407-95e9-eab52e277c7e","countryCode":"BG","state":"d92c8993-a912-4923-9632-daab2ea1f48f","stateCode":"13","latitude":"42.01667000","longitude":"24.36667000"},{"id":"99199578-5355-433b-b558-3a6c9b56b3e1","name":"Lesichovo","ru":"Lesichovo","country":"c4931ccd-1c68-4407-95e9-eab52e277c7e","countryCode":"BG","state":"d92c8993-a912-4923-9632-daab2ea1f48f","stateCode":"13","latitude":"42.35626000","longitude":"24.11190000"},{"id":"bb3d2a6b-2ca5-4150-a89d-317f4551b128","name":"Obshtina Batak","ru":"Obshtina Batak","country":"c4931ccd-1c68-4407-95e9-eab52e277c7e","countryCode":"BG","state":"d92c8993-a912-4923-9632-daab2ea1f48f","stateCode":"13","latitude":"41.86667000","longitude":"24.21667000"},{"id":"c574d53b-f731-4b3c-9b57-3dc0630bbc35","name":"Obshtina Belovo","ru":"Obshtina Belovo","country":"c4931ccd-1c68-4407-95e9-eab52e277c7e","countryCode":"BG","state":"d92c8993-a912-4923-9632-daab2ea1f48f","stateCode":"13","latitude":"42.20000000","longitude":"23.93333000"},{"id":"b7377ddd-1b41-4a6f-9abc-81bc1af5563c","name":"Obshtina Bratsigovo","ru":"Obshtina Bratsigovo","country":"c4931ccd-1c68-4407-95e9-eab52e277c7e","countryCode":"BG","state":"d92c8993-a912-4923-9632-daab2ea1f48f","stateCode":"13","latitude":"42.00000000","longitude":"24.40000000"},{"id":"cda23b22-95f2-4a6e-bf1c-ea10c66115ef","name":"Obshtina Lesichovo","ru":"Obshtina Lesichovo","country":"c4931ccd-1c68-4407-95e9-eab52e277c7e","countryCode":"BG","state":"d92c8993-a912-4923-9632-daab2ea1f48f","stateCode":"13","latitude":"42.36667000","longitude":"24.15000000"},{"id":"e603a1f2-930a-4f96-b4a0-94cad8408da1","name":"Obshtina Panagyurishte","ru":"Obshtina Panagyurishte","country":"c4931ccd-1c68-4407-95e9-eab52e277c7e","countryCode":"BG","state":"d92c8993-a912-4923-9632-daab2ea1f48f","stateCode":"13","latitude":"42.50000000","longitude":"24.16667000"},{"id":"71029b06-2c96-40cc-8172-b72d346d4c59","name":"Obshtina Pazardzhik","ru":"Obshtina Pazardzhik","country":"c4931ccd-1c68-4407-95e9-eab52e277c7e","countryCode":"BG","state":"d92c8993-a912-4923-9632-daab2ea1f48f","stateCode":"13","latitude":"42.20000000","longitude":"24.33333000"},{"id":"02eee137-4c43-4cf3-ad30-9d823a2033c6","name":"Obshtina Peshtera","ru":"Obshtina Peshtera","country":"c4931ccd-1c68-4407-95e9-eab52e277c7e","countryCode":"BG","state":"d92c8993-a912-4923-9632-daab2ea1f48f","stateCode":"13","latitude":"42.03333000","longitude":"24.30000000"},{"id":"5fe24341-370b-42ba-8c04-410a6ac0c656","name":"Obshtina Rakitovo","ru":"Obshtina Rakitovo","country":"c4931ccd-1c68-4407-95e9-eab52e277c7e","countryCode":"BG","state":"d92c8993-a912-4923-9632-daab2ea1f48f","stateCode":"13","latitude":"41.99965000","longitude":"24.10877000"},{"id":"5142dede-bbd5-4a97-a98a-ff5aca6bc30b","name":"Obshtina Septemvri","ru":"Obshtina Septemvri","country":"c4931ccd-1c68-4407-95e9-eab52e277c7e","countryCode":"BG","state":"d92c8993-a912-4923-9632-daab2ea1f48f","stateCode":"13","latitude":"42.26667000","longitude":"24.13333000"},{"id":"242b7ce8-0028-4de7-a54b-3c219fce4c21","name":"Obshtina Strelcha","ru":"Obshtina Strelcha","country":"c4931ccd-1c68-4407-95e9-eab52e277c7e","countryCode":"BG","state":"d92c8993-a912-4923-9632-daab2ea1f48f","stateCode":"13","latitude":"42.46667000","longitude":"24.36667000"},{"id":"5f1d5951-8acc-4c45-9bf6-a53618a4ebfa","name":"Obshtina Velingrad","ru":"Obshtina Velingrad","country":"c4931ccd-1c68-4407-95e9-eab52e277c7e","countryCode":"BG","state":"d92c8993-a912-4923-9632-daab2ea1f48f","stateCode":"13","latitude":"41.96667000","longitude":"23.93333000"},{"id":"45950a8f-9f1e-4502-a1d1-11ec8a07d70b","name":"Panagyurishte","ru":"Panagyurishte","country":"c4931ccd-1c68-4407-95e9-eab52e277c7e","countryCode":"BG","state":"d92c8993-a912-4923-9632-daab2ea1f48f","stateCode":"13","latitude":"42.49518000","longitude":"24.19021000"},{"id":"88fa6da3-d5f6-4ca4-b317-b0971cdc19ec","name":"Pazardzhik","ru":"Pazardzhik","country":"c4931ccd-1c68-4407-95e9-eab52e277c7e","countryCode":"BG","state":"d92c8993-a912-4923-9632-daab2ea1f48f","stateCode":"13","latitude":"42.20000000","longitude":"24.33333000"},{"id":"ae60069f-3043-4bbb-bca7-67f78b6448d2","name":"Peshtera","ru":"Peshtera","country":"c4931ccd-1c68-4407-95e9-eab52e277c7e","countryCode":"BG","state":"d92c8993-a912-4923-9632-daab2ea1f48f","stateCode":"13","latitude":"42.03372000","longitude":"24.29995000"},{"id":"d58d1f9d-fcde-4024-a13a-ea0bda001710","name":"Rakitovo","ru":"Rakitovo","country":"c4931ccd-1c68-4407-95e9-eab52e277c7e","countryCode":"BG","state":"d92c8993-a912-4923-9632-daab2ea1f48f","stateCode":"13","latitude":"41.99012000","longitude":"24.08730000"},{"id":"aa8d2e84-4a86-4c32-b72f-cb76f85c0011","name":"Sarnitsa","ru":"Sarnitsa","country":"c4931ccd-1c68-4407-95e9-eab52e277c7e","countryCode":"BG","state":"d92c8993-a912-4923-9632-daab2ea1f48f","stateCode":"13","latitude":"41.73835000","longitude":"24.02435000"},{"id":"846cb24f-f4a7-4fcf-908a-4bc555541d76","name":"Sarnitsa Obshtina","ru":"Sarnitsa Obshtina","country":"c4931ccd-1c68-4407-95e9-eab52e277c7e","countryCode":"BG","state":"d92c8993-a912-4923-9632-daab2ea1f48f","stateCode":"13","latitude":"41.73333000","longitude":"24.03333000"},{"id":"d5cfe1ab-73ef-4948-a3a1-4da4057ebae5","name":"Septemvri","ru":"Septemvri","country":"c4931ccd-1c68-4407-95e9-eab52e277c7e","countryCode":"BG","state":"d92c8993-a912-4923-9632-daab2ea1f48f","stateCode":"13","latitude":"42.21138000","longitude":"24.12946000"},{"id":"bc1aa3f5-4b35-4b04-b9f9-c8cd973ee270","name":"Strelcha","ru":"Strelcha","country":"c4931ccd-1c68-4407-95e9-eab52e277c7e","countryCode":"BG","state":"d92c8993-a912-4923-9632-daab2ea1f48f","stateCode":"13","latitude":"42.50000000","longitude":"24.31667000"},{"id":"dda7c127-8c57-4838-9996-4b64730019f0","name":"Velingrad","ru":"Velingrad","country":"c4931ccd-1c68-4407-95e9-eab52e277c7e","countryCode":"BG","state":"d92c8993-a912-4923-9632-daab2ea1f48f","stateCode":"13","latitude":"42.02754000","longitude":"23.99155000"},{"id":"79314161-caba-40af-ae1a-8a06787937d5","name":"Batanovtsi","ru":"Batanovtsi","country":"c4931ccd-1c68-4407-95e9-eab52e277c7e","countryCode":"BG","state":"0deb8aae-088d-4879-b997-42d8f038bee7","stateCode":"14","latitude":"42.59692000","longitude":"22.95634000"},{"id":"e812632e-d858-4f1e-aefd-5fbba3b79219","name":"Breznik","ru":"Breznik","country":"c4931ccd-1c68-4407-95e9-eab52e277c7e","countryCode":"BG","state":"0deb8aae-088d-4879-b997-42d8f038bee7","stateCode":"14","latitude":"42.74085000","longitude":"22.90723000"},{"id":"46435e87-495e-42b1-82a4-3a53f5f177cb","name":"Obshtina Kovachevtsi","ru":"Obshtina Kovachevtsi","country":"c4931ccd-1c68-4407-95e9-eab52e277c7e","countryCode":"BG","state":"0deb8aae-088d-4879-b997-42d8f038bee7","stateCode":"14","latitude":"42.55000000","longitude":"22.83333000"},{"id":"bb088291-f8de-41de-8b83-31f0111b471f","name":"Obshtina Pernik","ru":"Obshtina Pernik","country":"c4931ccd-1c68-4407-95e9-eab52e277c7e","countryCode":"BG","state":"0deb8aae-088d-4879-b997-42d8f038bee7","stateCode":"14","latitude":"42.61667000","longitude":"23.08333000"},{"id":"b2be39bf-3155-41ba-90a1-8d3268ee27e0","name":"Obshtina Radomir","ru":"Obshtina Radomir","country":"c4931ccd-1c68-4407-95e9-eab52e277c7e","countryCode":"BG","state":"0deb8aae-088d-4879-b997-42d8f038bee7","stateCode":"14","latitude":"42.46667000","longitude":"23.01667000"},{"id":"89e6b01c-8ecb-4fb9-b4f2-b23325942995","name":"Obshtina Zemen","ru":"Obshtina Zemen","country":"c4931ccd-1c68-4407-95e9-eab52e277c7e","countryCode":"BG","state":"0deb8aae-088d-4879-b997-42d8f038bee7","stateCode":"14","latitude":"42.55067000","longitude":"22.71440000"},{"id":"a1c210b1-5ccd-42ec-99b1-4b595ef2c5ef","name":"Pernik","ru":"Pernik","country":"c4931ccd-1c68-4407-95e9-eab52e277c7e","countryCode":"BG","state":"0deb8aae-088d-4879-b997-42d8f038bee7","stateCode":"14","latitude":"42.60000000","longitude":"23.03333000"},{"id":"f782415f-cd12-4961-88fa-d4f2d22dd9a8","name":"Radomir","ru":"Radomir","country":"c4931ccd-1c68-4407-95e9-eab52e277c7e","countryCode":"BG","state":"0deb8aae-088d-4879-b997-42d8f038bee7","stateCode":"14","latitude":"42.54565000","longitude":"22.96553000"},{"id":"f7bb873f-9fc8-47b1-82a2-61e225fc20cb","name":"Tran","ru":"Tran","country":"c4931ccd-1c68-4407-95e9-eab52e277c7e","countryCode":"BG","state":"0deb8aae-088d-4879-b997-42d8f038bee7","stateCode":"14","latitude":"42.83528000","longitude":"22.65167000"},{"id":"a886476f-9272-4928-9a21-7777bfa82c5a","name":"Zemen","ru":"Zemen","country":"c4931ccd-1c68-4407-95e9-eab52e277c7e","countryCode":"BG","state":"0deb8aae-088d-4879-b997-42d8f038bee7","stateCode":"14","latitude":"42.47889000","longitude":"22.74917000"},{"id":"5b9ec9c5-c3ae-4819-90dd-7b713caeb033","name":"Belene","ru":"Belene","country":"c4931ccd-1c68-4407-95e9-eab52e277c7e","countryCode":"BG","state":"51207129-12ee-470e-8146-15e17df2ac43","stateCode":"15","latitude":"43.64594000","longitude":"25.12627000"},{"id":"4e936e56-749e-4a50-8aff-b545b9136a90","name":"Cherven Bryag","ru":"Cherven Bryag","country":"c4931ccd-1c68-4407-95e9-eab52e277c7e","countryCode":"BG","state":"51207129-12ee-470e-8146-15e17df2ac43","stateCode":"15","latitude":"43.26667000","longitude":"24.10000000"},{"id":"daea372c-62a8-4cef-a385-e3d909a20e53","name":"Dolna Mitropolia","ru":"Dolna Mitropolia","country":"c4931ccd-1c68-4407-95e9-eab52e277c7e","countryCode":"BG","state":"51207129-12ee-470e-8146-15e17df2ac43","stateCode":"15","latitude":"43.46667000","longitude":"24.53333000"},{"id":"0d0a333b-2135-4ec3-ae76-765fd70d1c42","name":"Dolni Dabnik","ru":"Dolni Dabnik","country":"c4931ccd-1c68-4407-95e9-eab52e277c7e","countryCode":"BG","state":"51207129-12ee-470e-8146-15e17df2ac43","stateCode":"15","latitude":"43.40000000","longitude":"24.43333000"},{"id":"92bfbcf1-8579-47f9-8273-32f984054fcc","name":"Gulyantsi","ru":"Gulyantsi","country":"c4931ccd-1c68-4407-95e9-eab52e277c7e","countryCode":"BG","state":"51207129-12ee-470e-8146-15e17df2ac43","stateCode":"15","latitude":"43.64109000","longitude":"24.69368000"},{"id":"5247f6a0-6c3a-40f5-8ccf-9cdff1ad332a","name":"Iskar","ru":"Iskar","country":"c4931ccd-1c68-4407-95e9-eab52e277c7e","countryCode":"BG","state":"51207129-12ee-470e-8146-15e17df2ac43","stateCode":"15","latitude":"43.45000000","longitude":"24.26667000"},{"id":"73bdc662-a19c-4ffa-b871-0b8a1384d0f3","name":"Knezha","ru":"Knezha","country":"c4931ccd-1c68-4407-95e9-eab52e277c7e","countryCode":"BG","state":"51207129-12ee-470e-8146-15e17df2ac43","stateCode":"15","latitude":"43.50000000","longitude":"24.08333000"},{"id":"0a100f1d-f7dd-4b9d-8df5-dd3c3bc7f1d8","name":"Koynare","ru":"Koynare","country":"c4931ccd-1c68-4407-95e9-eab52e277c7e","countryCode":"BG","state":"51207129-12ee-470e-8146-15e17df2ac43","stateCode":"15","latitude":"43.35000000","longitude":"24.13333000"},{"id":"139e7cfc-c3e5-49ed-b37d-e31a70bd252d","name":"Levski","ru":"Levski","country":"c4931ccd-1c68-4407-95e9-eab52e277c7e","countryCode":"BG","state":"51207129-12ee-470e-8146-15e17df2ac43","stateCode":"15","latitude":"43.36667000","longitude":"25.13333000"},{"id":"4e0e7f6c-d32d-406b-a470-3c5b8ef322d7","name":"Nikopol","ru":"Nikopol","country":"c4931ccd-1c68-4407-95e9-eab52e277c7e","countryCode":"BG","state":"51207129-12ee-470e-8146-15e17df2ac43","stateCode":"15","latitude":"43.70528000","longitude":"24.89521000"},{"id":"1456d616-4dc3-4cbe-82ee-b2629ac319ab","name":"Obshtina Belene","ru":"Obshtina Belene","country":"c4931ccd-1c68-4407-95e9-eab52e277c7e","countryCode":"BG","state":"51207129-12ee-470e-8146-15e17df2ac43","stateCode":"15","latitude":"43.63333000","longitude":"25.13333000"},{"id":"b95350d2-f9a1-413e-92d7-a63d5eda0824","name":"Obshtina Cherven Bryag","ru":"Obshtina Cherven Bryag","country":"c4931ccd-1c68-4407-95e9-eab52e277c7e","countryCode":"BG","state":"51207129-12ee-470e-8146-15e17df2ac43","stateCode":"15","latitude":"43.33333000","longitude":"24.13333000"},{"id":"2926f4ed-1c3a-4450-b9a8-bdc017a0f398","name":"Obshtina Dolna Mitropolia","ru":"Obshtina Dolna Mitropolia","country":"c4931ccd-1c68-4407-95e9-eab52e277c7e","countryCode":"BG","state":"51207129-12ee-470e-8146-15e17df2ac43","stateCode":"15","latitude":"43.58333000","longitude":"24.41667000"},{"id":"2ca28159-3500-4607-9bcf-16eef6b34b5b","name":"Obshtina Dolni Dabnik","ru":"Obshtina Dolni Dabnik","country":"c4931ccd-1c68-4407-95e9-eab52e277c7e","countryCode":"BG","state":"51207129-12ee-470e-8146-15e17df2ac43","stateCode":"15","latitude":"43.36667000","longitude":"24.41667000"},{"id":"2e85f9c1-fd97-41ee-a122-70c981032f57","name":"Obshtina Gulyantsi","ru":"Obshtina Gulyantsi","country":"c4931ccd-1c68-4407-95e9-eab52e277c7e","countryCode":"BG","state":"51207129-12ee-470e-8146-15e17df2ac43","stateCode":"15","latitude":"43.68333000","longitude":"24.65000000"},{"id":"7417e217-6d04-47b7-9808-a052ed3ae044","name":"Obshtina Iskar","ru":"Obshtina Iskar","country":"c4931ccd-1c68-4407-95e9-eab52e277c7e","countryCode":"BG","state":"51207129-12ee-470e-8146-15e17df2ac43","stateCode":"15","latitude":"43.50000000","longitude":"24.28333000"},{"id":"ea7a9e11-8386-43e9-b65d-1d58a28a1dea","name":"Obshtina Knezha","ru":"Obshtina Knezha","country":"c4931ccd-1c68-4407-95e9-eab52e277c7e","countryCode":"BG","state":"51207129-12ee-470e-8146-15e17df2ac43","stateCode":"15","latitude":"43.50000000","longitude":"24.11667000"},{"id":"4b5ea7b2-877d-421c-b3b3-69673ceff28d","name":"Obshtina Levski","ru":"Obshtina Levski","country":"c4931ccd-1c68-4407-95e9-eab52e277c7e","countryCode":"BG","state":"51207129-12ee-470e-8146-15e17df2ac43","stateCode":"15","latitude":"43.43333000","longitude":"25.10000000"},{"id":"c9ec20dc-daf6-480b-9020-112ac8fd9055","name":"Obshtina Nikopol","ru":"Obshtina Nikopol","country":"c4931ccd-1c68-4407-95e9-eab52e277c7e","countryCode":"BG","state":"51207129-12ee-470e-8146-15e17df2ac43","stateCode":"15","latitude":"43.60000000","longitude":"24.93333000"},{"id":"9485fe6e-a6f4-417f-8495-4ac46423ba62","name":"Obshtina Pleven","ru":"Obshtina Pleven","country":"c4931ccd-1c68-4407-95e9-eab52e277c7e","countryCode":"BG","state":"51207129-12ee-470e-8146-15e17df2ac43","stateCode":"15","latitude":"43.40000000","longitude":"24.70000000"},{"id":"ec16da0b-69e0-4c60-93f5-8c2b147347ee","name":"Obshtina Pordim","ru":"Obshtina Pordim","country":"c4931ccd-1c68-4407-95e9-eab52e277c7e","countryCode":"BG","state":"51207129-12ee-470e-8146-15e17df2ac43","stateCode":"15","latitude":"43.38333000","longitude":"24.90000000"},{"id":"cb1f102e-29f3-438a-a779-40c5be911f18","name":"Pleven","ru":"Pleven","country":"c4931ccd-1c68-4407-95e9-eab52e277c7e","countryCode":"BG","state":"51207129-12ee-470e-8146-15e17df2ac43","stateCode":"15","latitude":"43.41667000","longitude":"24.61667000"},{"id":"5b0d7f6f-9ebc-49f5-ac8b-6377908a9b5f","name":"Pordim","ru":"Pordim","country":"c4931ccd-1c68-4407-95e9-eab52e277c7e","countryCode":"BG","state":"51207129-12ee-470e-8146-15e17df2ac43","stateCode":"15","latitude":"43.38333000","longitude":"24.85000000"},{"id":"03fe88dc-7710-4d35-842d-68dd4a3b9fb7","name":"Slavyanovo","ru":"Slavyanovo","country":"c4931ccd-1c68-4407-95e9-eab52e277c7e","countryCode":"BG","state":"51207129-12ee-470e-8146-15e17df2ac43","stateCode":"15","latitude":"43.46667000","longitude":"24.86667000"},{"id":"8d3ed9df-a3aa-4397-a8c1-a28ee2e69e1f","name":"Asenovgrad","ru":"Asenovgrad","country":"c4931ccd-1c68-4407-95e9-eab52e277c7e","countryCode":"BG","state":"a2a9313d-a987-453f-824a-1542a908119f","stateCode":"16","latitude":"42.01667000","longitude":"24.86667000"},{"id":"56a4d03d-276b-4a5a-b078-72cf9cbef9b7","name":"Brezovo","ru":"Brezovo","country":"c4931ccd-1c68-4407-95e9-eab52e277c7e","countryCode":"BG","state":"a2a9313d-a987-453f-824a-1542a908119f","stateCode":"16","latitude":"42.35000000","longitude":"25.08333000"},{"id":"394f86ee-30cd-46b3-9325-ca238eb67d72","name":"Hisarya","ru":"Hisarya","country":"c4931ccd-1c68-4407-95e9-eab52e277c7e","countryCode":"BG","state":"a2a9313d-a987-453f-824a-1542a908119f","stateCode":"16","latitude":"42.50000000","longitude":"24.70000000"},{"id":"1e666309-f9a3-4501-bf2b-2f66bc96a2d2","name":"Kalofer","ru":"Kalofer","country":"c4931ccd-1c68-4407-95e9-eab52e277c7e","countryCode":"BG","state":"a2a9313d-a987-453f-824a-1542a908119f","stateCode":"16","latitude":"42.61667000","longitude":"24.98333000"},{"id":"8598c924-584f-4cb9-b8bb-044bdc67a3e9","name":"Kaloyanovo","ru":"Kaloyanovo","country":"c4931ccd-1c68-4407-95e9-eab52e277c7e","countryCode":"BG","state":"a2a9313d-a987-453f-824a-1542a908119f","stateCode":"16","latitude":"42.35000000","longitude":"24.73333000"},{"id":"356d5d50-d1f1-460c-8dd9-eddad2b2c34a","name":"Karlovo","ru":"Karlovo","country":"c4931ccd-1c68-4407-95e9-eab52e277c7e","countryCode":"BG","state":"a2a9313d-a987-453f-824a-1542a908119f","stateCode":"16","latitude":"42.63333000","longitude":"24.80000000"},{"id":"328f056d-eb90-4794-987e-9dfa91e3a102","name":"Klisura","ru":"Klisura","country":"c4931ccd-1c68-4407-95e9-eab52e277c7e","countryCode":"BG","state":"a2a9313d-a987-453f-824a-1542a908119f","stateCode":"16","latitude":"42.70000000","longitude":"24.45000000"},{"id":"b1556bbc-8d4a-4550-8f9f-67ab07cecae5","name":"Krichim","ru":"Krichim","country":"c4931ccd-1c68-4407-95e9-eab52e277c7e","countryCode":"BG","state":"a2a9313d-a987-453f-824a-1542a908119f","stateCode":"16","latitude":"42.05000000","longitude":"24.46667000"},{"id":"d38a1db7-a28d-48d9-9f24-8302e91fe38a","name":"Laki","ru":"Laki","country":"c4931ccd-1c68-4407-95e9-eab52e277c7e","countryCode":"BG","state":"a2a9313d-a987-453f-824a-1542a908119f","stateCode":"16","latitude":"41.85000000","longitude":"24.81667000"},{"id":"6d81231e-30c1-429a-a57e-418965902b3a","name":"Obshtina Asenovgrad","ru":"Obshtina Asenovgrad","country":"c4931ccd-1c68-4407-95e9-eab52e277c7e","countryCode":"BG","state":"a2a9313d-a987-453f-824a-1542a908119f","stateCode":"16","latitude":"41.95000000","longitude":"24.96667000"},{"id":"fbf7abbb-acb1-44dd-906b-b396dc72ad16","name":"Obshtina Hisarya","ru":"Obshtina Hisarya","country":"c4931ccd-1c68-4407-95e9-eab52e277c7e","countryCode":"BG","state":"a2a9313d-a987-453f-824a-1542a908119f","stateCode":"16","latitude":"42.50000000","longitude":"24.60000000"},{"id":"fc2ee599-b413-486e-88a6-80d9b5669982","name":"Obshtina Kaloyanovo","ru":"Obshtina Kaloyanovo","country":"c4931ccd-1c68-4407-95e9-eab52e277c7e","countryCode":"BG","state":"a2a9313d-a987-453f-824a-1542a908119f","stateCode":"16","latitude":"42.38333000","longitude":"24.81667000"},{"id":"3508cedd-441e-4d09-8292-9a7cb6d4a0fa","name":"Obshtina Karlovo","ru":"Obshtina Karlovo","country":"c4931ccd-1c68-4407-95e9-eab52e277c7e","countryCode":"BG","state":"a2a9313d-a987-453f-824a-1542a908119f","stateCode":"16","latitude":"42.68333000","longitude":"24.66667000"},{"id":"6fc8c892-3dea-49f9-88aa-ee3969f6e184","name":"Obshtina Krichim","ru":"Obshtina Krichim","country":"c4931ccd-1c68-4407-95e9-eab52e277c7e","countryCode":"BG","state":"a2a9313d-a987-453f-824a-1542a908119f","stateCode":"16","latitude":"42.00439000","longitude":"24.47235000"},{"id":"3f44d4b6-7a22-4a63-8f13-da9a2f769b89","name":"Obshtina Kuklen","ru":"Obshtina Kuklen","country":"c4931ccd-1c68-4407-95e9-eab52e277c7e","countryCode":"BG","state":"a2a9313d-a987-453f-824a-1542a908119f","stateCode":"16","latitude":"42.03725000","longitude":"24.77949000"},{"id":"2052ed84-8278-4746-89c7-f2e8ec639029","name":"Obshtina Laki","ru":"Obshtina Laki","country":"c4931ccd-1c68-4407-95e9-eab52e277c7e","countryCode":"BG","state":"a2a9313d-a987-453f-824a-1542a908119f","stateCode":"16","latitude":"41.81667000","longitude":"24.85000000"},{"id":"031a1871-648b-4f80-b504-81e74f8352f6","name":"Obshtina Maritsa","ru":"Obshtina Maritsa","country":"c4931ccd-1c68-4407-95e9-eab52e277c7e","countryCode":"BG","state":"a2a9313d-a987-453f-824a-1542a908119f","stateCode":"16","latitude":"42.23333000","longitude":"24.80000000"},{"id":"b524529c-ffcf-443b-9788-fc3926f4dc8c","name":"Obshtina Parvomay","ru":"Obshtina Parvomay","country":"c4931ccd-1c68-4407-95e9-eab52e277c7e","countryCode":"BG","state":"a2a9313d-a987-453f-824a-1542a908119f","stateCode":"16","latitude":"42.03333000","longitude":"25.20000000"},{"id":"6b9fe95f-8f91-4997-9f9f-139ec832f282","name":"Obshtina Perushtitsa","ru":"Obshtina Perushtitsa","country":"c4931ccd-1c68-4407-95e9-eab52e277c7e","countryCode":"BG","state":"a2a9313d-a987-453f-824a-1542a908119f","stateCode":"16","latitude":"42.06667000","longitude":"24.55000000"},{"id":"4d91b9d2-20ee-48bd-8566-dac2def028f6","name":"Obshtina Plovdiv","ru":"Obshtina Plovdiv","country":"c4931ccd-1c68-4407-95e9-eab52e277c7e","countryCode":"BG","state":"a2a9313d-a987-453f-824a-1542a908119f","stateCode":"16","latitude":"42.15000000","longitude":"24.75000000"},{"id":"2e8b5906-13e1-41ff-8cc4-1b8559bfe681","name":"Obshtina Rakovski","ru":"Obshtina Rakovski","country":"c4931ccd-1c68-4407-95e9-eab52e277c7e","countryCode":"BG","state":"a2a9313d-a987-453f-824a-1542a908119f","stateCode":"16","latitude":"42.26667000","longitude":"24.98333000"},{"id":"597d2d08-5fb0-4a54-a711-40fa54a654e1","name":"Obshtina Rodopi","ru":"Obshtina Rodopi","country":"c4931ccd-1c68-4407-95e9-eab52e277c7e","countryCode":"BG","state":"a2a9313d-a987-453f-824a-1542a908119f","stateCode":"16","latitude":"42.03333000","longitude":"24.68333000"},{"id":"03a57745-ca54-448c-8208-6e79196675fc","name":"Obshtina Sadovo","ru":"Obshtina Sadovo","country":"c4931ccd-1c68-4407-95e9-eab52e277c7e","countryCode":"BG","state":"a2a9313d-a987-453f-824a-1542a908119f","stateCode":"16","latitude":"42.13333000","longitude":"25.00000000"},{"id":"a099aff7-9d0a-40e4-bb54-44da70230dac","name":"Obshtina Saedinenie","ru":"Obshtina Saedinenie","country":"c4931ccd-1c68-4407-95e9-eab52e277c7e","countryCode":"BG","state":"a2a9313d-a987-453f-824a-1542a908119f","stateCode":"16","latitude":"42.31667000","longitude":"24.58333000"},{"id":"d6b2ef5d-2424-472c-9b65-c0db95c52d55","name":"Obshtina Sopot","ru":"Obshtina Sopot","country":"c4931ccd-1c68-4407-95e9-eab52e277c7e","countryCode":"BG","state":"a2a9313d-a987-453f-824a-1542a908119f","stateCode":"16","latitude":"42.65214000","longitude":"24.74310000"},{"id":"5bcf271d-791a-412e-838b-0a8b81a4e68f","name":"Obshtina Stamboliyski","ru":"Obshtina Stamboliyski","country":"c4931ccd-1c68-4407-95e9-eab52e277c7e","countryCode":"BG","state":"a2a9313d-a987-453f-824a-1542a908119f","stateCode":"16","latitude":"42.11667000","longitude":"24.51667000"},{"id":"8d6eb3ee-37cc-465e-aaa7-8a9de9f59362","name":"Parvomay","ru":"Parvomay","country":"c4931ccd-1c68-4407-95e9-eab52e277c7e","countryCode":"BG","state":"a2a9313d-a987-453f-824a-1542a908119f","stateCode":"16","latitude":"42.10000000","longitude":"25.21667000"},{"id":"b82aa7a9-bffb-4284-997f-1b9354847cf1","name":"Perushtitsa","ru":"Perushtitsa","country":"c4931ccd-1c68-4407-95e9-eab52e277c7e","countryCode":"BG","state":"a2a9313d-a987-453f-824a-1542a908119f","stateCode":"16","latitude":"42.05000000","longitude":"24.55000000"},{"id":"dfb1c313-f72e-4135-94c4-4a47e80a4535","name":"Plovdiv","ru":"Plovdiv","country":"c4931ccd-1c68-4407-95e9-eab52e277c7e","countryCode":"BG","state":"a2a9313d-a987-453f-824a-1542a908119f","stateCode":"16","latitude":"42.15000000","longitude":"24.75000000"},{"id":"5fa17c0d-a8a6-4d07-89fa-5fa68a049b52","name":"Rakovski","ru":"Rakovski","country":"c4931ccd-1c68-4407-95e9-eab52e277c7e","countryCode":"BG","state":"a2a9313d-a987-453f-824a-1542a908119f","stateCode":"16","latitude":"42.27408000","longitude":"24.94083000"},{"id":"d73590fd-d3bd-42d3-a17d-797d698aa46d","name":"Sadovo","ru":"Sadovo","country":"c4931ccd-1c68-4407-95e9-eab52e277c7e","countryCode":"BG","state":"a2a9313d-a987-453f-824a-1542a908119f","stateCode":"16","latitude":"42.13178000","longitude":"24.93999000"},{"id":"8f307608-bcc4-4c6d-bb1f-2c5a2baaacf5","name":"Saedinenie","ru":"Saedinenie","country":"c4931ccd-1c68-4407-95e9-eab52e277c7e","countryCode":"BG","state":"a2a9313d-a987-453f-824a-1542a908119f","stateCode":"16","latitude":"42.26667000","longitude":"24.55000000"},{"id":"335e68ac-befc-41c5-a3ba-9a491a935134","name":"Stamboliyski","ru":"Stamboliyski","country":"c4931ccd-1c68-4407-95e9-eab52e277c7e","countryCode":"BG","state":"a2a9313d-a987-453f-824a-1542a908119f","stateCode":"16","latitude":"42.13333000","longitude":"24.53333000"},{"id":"2d198933-9330-4b07-938c-f2069d69a84c","name":"Topolovo","ru":"Topolovo","country":"c4931ccd-1c68-4407-95e9-eab52e277c7e","countryCode":"BG","state":"a2a9313d-a987-453f-824a-1542a908119f","stateCode":"16","latitude":"41.90000000","longitude":"25.00000000"},{"id":"fb486b34-9d84-4132-bd88-b3afb4587dd3","name":"Isperih","ru":"Isperih","country":"c4931ccd-1c68-4407-95e9-eab52e277c7e","countryCode":"BG","state":"e4dd1a1c-c7e6-423f-87d3-fed209f11f34","stateCode":"17","latitude":"43.71667000","longitude":"26.83333000"},{"id":"22b5883f-89a7-46a5-85f4-0bde085c2f17","name":"Kubrat","ru":"Kubrat","country":"c4931ccd-1c68-4407-95e9-eab52e277c7e","countryCode":"BG","state":"e4dd1a1c-c7e6-423f-87d3-fed209f11f34","stateCode":"17","latitude":"43.79658000","longitude":"26.50063000"},{"id":"d568a68f-93f9-41f1-8af2-d293299bc8da","name":"Loznitsa","ru":"Loznitsa","country":"c4931ccd-1c68-4407-95e9-eab52e277c7e","countryCode":"BG","state":"e4dd1a1c-c7e6-423f-87d3-fed209f11f34","stateCode":"17","latitude":"43.36667000","longitude":"26.60000000"},{"id":"bf4ee66e-fcb8-4e0d-9931-999d1154bce0","name":"Medovene","ru":"Medovene","country":"c4931ccd-1c68-4407-95e9-eab52e277c7e","countryCode":"BG","state":"e4dd1a1c-c7e6-423f-87d3-fed209f11f34","stateCode":"17","latitude":"43.76667000","longitude":"26.51667000"},{"id":"3595abb3-acd2-46cf-ac85-05351960bb25","name":"Obshtina Isperih","ru":"Obshtina Isperih","country":"c4931ccd-1c68-4407-95e9-eab52e277c7e","countryCode":"BG","state":"e4dd1a1c-c7e6-423f-87d3-fed209f11f34","stateCode":"17","latitude":"43.71667000","longitude":"26.83333000"},{"id":"acb111e3-07cc-412f-9fbd-3463eaeec2e8","name":"Obshtina Kubrat","ru":"Obshtina Kubrat","country":"c4931ccd-1c68-4407-95e9-eab52e277c7e","countryCode":"BG","state":"e4dd1a1c-c7e6-423f-87d3-fed209f11f34","stateCode":"17","latitude":"43.86667000","longitude":"26.48333000"},{"id":"01ecda03-e202-4837-9cb9-ca1bc6741102","name":"Obshtina Loznitsa","ru":"Obshtina Loznitsa","country":"c4931ccd-1c68-4407-95e9-eab52e277c7e","countryCode":"BG","state":"e4dd1a1c-c7e6-423f-87d3-fed209f11f34","stateCode":"17","latitude":"43.41667000","longitude":"26.58333000"},{"id":"511320d8-9bb3-4d26-bcc7-483ad58845b3","name":"Obshtina Razgrad","ru":"Obshtina Razgrad","country":"c4931ccd-1c68-4407-95e9-eab52e277c7e","countryCode":"BG","state":"e4dd1a1c-c7e6-423f-87d3-fed209f11f34","stateCode":"17","latitude":"43.53333000","longitude":"26.51667000"},{"id":"b2185010-8a22-4a89-9b5d-653bd714a816","name":"Obshtina Samuil","ru":"Obshtina Samuil","country":"c4931ccd-1c68-4407-95e9-eab52e277c7e","countryCode":"BG","state":"e4dd1a1c-c7e6-423f-87d3-fed209f11f34","stateCode":"17","latitude":"43.60000000","longitude":"26.80000000"},{"id":"a398ea2a-489e-4ee9-a634-faf2e1bb960c","name":"Obshtina Tsar Kaloyan","ru":"Obshtina Tsar Kaloyan","country":"c4931ccd-1c68-4407-95e9-eab52e277c7e","countryCode":"BG","state":"e4dd1a1c-c7e6-423f-87d3-fed209f11f34","stateCode":"17","latitude":"43.60000000","longitude":"26.21667000"},{"id":"4c7313c0-6fdc-43fe-91d5-4bd43cc1ebcf","name":"Obshtina Zavet","ru":"Obshtina Zavet","country":"c4931ccd-1c68-4407-95e9-eab52e277c7e","countryCode":"BG","state":"e4dd1a1c-c7e6-423f-87d3-fed209f11f34","stateCode":"17","latitude":"43.76667000","longitude":"26.68333000"},{"id":"2881ee46-3ff6-4551-842c-edd5de82fa84","name":"Razgrad","ru":"Razgrad","country":"c4931ccd-1c68-4407-95e9-eab52e277c7e","countryCode":"BG","state":"e4dd1a1c-c7e6-423f-87d3-fed209f11f34","stateCode":"17","latitude":"43.53333000","longitude":"26.51667000"},{"id":"76f183cc-3c5f-422c-b0bd-923100dd78b3","name":"Samuil","ru":"Samuil","country":"c4931ccd-1c68-4407-95e9-eab52e277c7e","countryCode":"BG","state":"e4dd1a1c-c7e6-423f-87d3-fed209f11f34","stateCode":"17","latitude":"43.51667000","longitude":"26.75000000"},{"id":"bd569ae6-7b3c-467d-b843-f470012a1702","name":"Tsar Kaloyan","ru":"Tsar Kaloyan","country":"c4931ccd-1c68-4407-95e9-eab52e277c7e","countryCode":"BG","state":"e4dd1a1c-c7e6-423f-87d3-fed209f11f34","stateCode":"17","latitude":"43.61667000","longitude":"26.25000000"},{"id":"b099e5dd-af58-41e2-9777-1cc375d60a17","name":"Zavet","ru":"Zavet","country":"c4931ccd-1c68-4407-95e9-eab52e277c7e","countryCode":"BG","state":"e4dd1a1c-c7e6-423f-87d3-fed209f11f34","stateCode":"17","latitude":"43.76036000","longitude":"26.68063000"},{"id":"0b0ad512-c7eb-4784-9a00-53cfd05ad942","name":"Borovo","ru":"Borovo","country":"c4931ccd-1c68-4407-95e9-eab52e277c7e","countryCode":"BG","state":"6b714c32-6ff3-4cb2-a99b-af4d7d46975d","stateCode":"18","latitude":"43.50086000","longitude":"25.80992000"},{"id":"764915c1-c452-4b5a-bb59-9ce3885797ca","name":"Dve Mogili","ru":"Dve Mogili","country":"c4931ccd-1c68-4407-95e9-eab52e277c7e","countryCode":"BG","state":"6b714c32-6ff3-4cb2-a99b-af4d7d46975d","stateCode":"18","latitude":"43.59258000","longitude":"25.87486000"},{"id":"2c4b7082-be85-4434-847c-be28b8f9f178","name":"Ivanovo","ru":"Ivanovo","country":"c4931ccd-1c68-4407-95e9-eab52e277c7e","countryCode":"BG","state":"6b714c32-6ff3-4cb2-a99b-af4d7d46975d","stateCode":"18","latitude":"43.68568000","longitude":"25.95565000"},{"id":"af0dad1d-5e75-4104-bb36-ba2d22b2accd","name":"Obshtina Borovo","ru":"Obshtina Borovo","country":"c4931ccd-1c68-4407-95e9-eab52e277c7e","countryCode":"BG","state":"6b714c32-6ff3-4cb2-a99b-af4d7d46975d","stateCode":"18","latitude":"43.60000000","longitude":"25.80000000"},{"id":"dea96cfb-d3b1-46ec-a2a9-421c359ebe59","name":"Obshtina Byala","ru":"Obshtina Byala","country":"c4931ccd-1c68-4407-95e9-eab52e277c7e","countryCode":"BG","state":"6b714c32-6ff3-4cb2-a99b-af4d7d46975d","stateCode":"18","latitude":"43.41667000","longitude":"25.83333000"},{"id":"c85c7867-2972-4b0c-b171-5723809fd406","name":"Obshtina Dve Mogili","ru":"Obshtina Dve Mogili","country":"c4931ccd-1c68-4407-95e9-eab52e277c7e","countryCode":"BG","state":"6b714c32-6ff3-4cb2-a99b-af4d7d46975d","stateCode":"18","latitude":"43.51667000","longitude":"25.96667000"},{"id":"b21078fa-4411-4256-afb0-b3ec94dfe45c","name":"Obshtina Ivanovo","ru":"Obshtina Ivanovo","country":"c4931ccd-1c68-4407-95e9-eab52e277c7e","countryCode":"BG","state":"6b714c32-6ff3-4cb2-a99b-af4d7d46975d","stateCode":"18","latitude":"43.70000000","longitude":"25.98333000"},{"id":"545fc3ec-81c8-42de-9996-c81e1397872d","name":"Obshtina Ruse","ru":"Obshtina Ruse","country":"c4931ccd-1c68-4407-95e9-eab52e277c7e","countryCode":"BG","state":"6b714c32-6ff3-4cb2-a99b-af4d7d46975d","stateCode":"18","latitude":"43.85000000","longitude":"26.08333000"},{"id":"89609137-fd50-40b6-a475-30ef4d35d544","name":"Obshtina Slivo Pole","ru":"Obshtina Slivo Pole","country":"c4931ccd-1c68-4407-95e9-eab52e277c7e","countryCode":"BG","state":"6b714c32-6ff3-4cb2-a99b-af4d7d46975d","stateCode":"18","latitude":"43.96667000","longitude":"26.30000000"},{"id":"3d14b37c-269e-4c07-b8d5-fd8d5f536e93","name":"Obshtina Tsenovo","ru":"Obshtina Tsenovo","country":"c4931ccd-1c68-4407-95e9-eab52e277c7e","countryCode":"BG","state":"6b714c32-6ff3-4cb2-a99b-af4d7d46975d","stateCode":"18","latitude":"43.58333000","longitude":"25.61667000"},{"id":"0b5df6e1-79ee-45c4-a1f8-404a1952c934","name":"Obshtina Vetovo","ru":"Obshtina Vetovo","country":"c4931ccd-1c68-4407-95e9-eab52e277c7e","countryCode":"BG","state":"6b714c32-6ff3-4cb2-a99b-af4d7d46975d","stateCode":"18","latitude":"43.71667000","longitude":"26.33333000"},{"id":"75ae53f7-7fd8-410c-abab-22d0403e9dc6","name":"Ruse","ru":"Ruse","country":"c4931ccd-1c68-4407-95e9-eab52e277c7e","countryCode":"BG","state":"6b714c32-6ff3-4cb2-a99b-af4d7d46975d","stateCode":"18","latitude":"43.84872000","longitude":"25.95340000"},{"id":"3f5241dc-8ca6-4b9f-8422-5bd7ef8a3b36","name":"Senovo","ru":"Senovo","country":"c4931ccd-1c68-4407-95e9-eab52e277c7e","countryCode":"BG","state":"6b714c32-6ff3-4cb2-a99b-af4d7d46975d","stateCode":"18","latitude":"43.65000000","longitude":"26.36667000"},{"id":"0984ce08-8bb8-4fb3-8064-26d82d7596ff","name":"Slivo Pole","ru":"Slivo Pole","country":"c4931ccd-1c68-4407-95e9-eab52e277c7e","countryCode":"BG","state":"6b714c32-6ff3-4cb2-a99b-af4d7d46975d","stateCode":"18","latitude":"43.94248000","longitude":"26.20464000"},{"id":"d5da3a57-15ca-4478-a6bb-16fd60229d6f","name":"Tsenovo","ru":"Tsenovo","country":"c4931ccd-1c68-4407-95e9-eab52e277c7e","countryCode":"BG","state":"6b714c32-6ff3-4cb2-a99b-af4d7d46975d","stateCode":"18","latitude":"43.53588000","longitude":"25.65764000"},{"id":"68cb04df-c6ee-450b-a98a-6aee18d6de52","name":"Vetovo","ru":"Vetovo","country":"c4931ccd-1c68-4407-95e9-eab52e277c7e","countryCode":"BG","state":"6b714c32-6ff3-4cb2-a99b-af4d7d46975d","stateCode":"18","latitude":"43.70000000","longitude":"26.26667000"},{"id":"3899fe35-d57e-4d54-8a1e-f8f806029ee3","name":"Alfatar","ru":"Alfatar","country":"c4931ccd-1c68-4407-95e9-eab52e277c7e","countryCode":"BG","state":"d1c921ea-415f-4be1-85a0-a966e623346a","stateCode":"19","latitude":"43.94525000","longitude":"27.28751000"},{"id":"4b39af89-fddd-41a7-902d-d2c93c36b706","name":"Dulovo","ru":"Dulovo","country":"c4931ccd-1c68-4407-95e9-eab52e277c7e","countryCode":"BG","state":"d1c921ea-415f-4be1-85a0-a966e623346a","stateCode":"19","latitude":"43.81667000","longitude":"27.15000000"},{"id":"a215f7c1-370d-4345-bf70-e0406d99513a","name":"Glavinitsa","ru":"Glavinitsa","country":"c4931ccd-1c68-4407-95e9-eab52e277c7e","countryCode":"BG","state":"d1c921ea-415f-4be1-85a0-a966e623346a","stateCode":"19","latitude":"43.91667000","longitude":"26.83333000"},{"id":"c9e3e267-f50a-486d-8ebc-bdff46de4d34","name":"Kaynardzha","ru":"Kaynardzha","country":"c4931ccd-1c68-4407-95e9-eab52e277c7e","countryCode":"BG","state":"d1c921ea-415f-4be1-85a0-a966e623346a","stateCode":"19","latitude":"43.99278000","longitude":"27.50713000"},{"id":"107eeef5-5bcd-4049-83a5-d04546019e0e","name":"Obshtina Alfatar","ru":"Obshtina Alfatar","country":"c4931ccd-1c68-4407-95e9-eab52e277c7e","countryCode":"BG","state":"d1c921ea-415f-4be1-85a0-a966e623346a","stateCode":"19","latitude":"43.90000000","longitude":"27.33333000"},{"id":"890ee4f9-f5f7-431f-a4fc-8e03011abe09","name":"Obshtina Dulovo","ru":"Obshtina Dulovo","country":"c4931ccd-1c68-4407-95e9-eab52e277c7e","countryCode":"BG","state":"d1c921ea-415f-4be1-85a0-a966e623346a","stateCode":"19","latitude":"43.81667000","longitude":"27.08333000"},{"id":"28f48838-097e-48d9-9ae2-848142cad38f","name":"Obshtina Glavinitsa","ru":"Obshtina Glavinitsa","country":"c4931ccd-1c68-4407-95e9-eab52e277c7e","countryCode":"BG","state":"d1c921ea-415f-4be1-85a0-a966e623346a","stateCode":"19","latitude":"43.95000000","longitude":"26.85000000"},{"id":"7d7ba800-9d5c-4339-8c5c-857d81f4b9dd","name":"Obshtina Kaynardzha","ru":"Obshtina Kaynardzha","country":"c4931ccd-1c68-4407-95e9-eab52e277c7e","countryCode":"BG","state":"d1c921ea-415f-4be1-85a0-a966e623346a","stateCode":"19","latitude":"43.95000000","longitude":"27.53333000"},{"id":"71eb76c8-2637-4cb8-9b9c-403bb55da825","name":"Obshtina Silistra","ru":"Obshtina Silistra","country":"c4931ccd-1c68-4407-95e9-eab52e277c7e","countryCode":"BG","state":"d1c921ea-415f-4be1-85a0-a966e623346a","stateCode":"19","latitude":"44.03333000","longitude":"27.20000000"},{"id":"71670294-7e72-4be7-8060-58ac9ea15e33","name":"Obshtina Sitovo","ru":"Obshtina Sitovo","country":"c4931ccd-1c68-4407-95e9-eab52e277c7e","countryCode":"BG","state":"d1c921ea-415f-4be1-85a0-a966e623346a","stateCode":"19","latitude":"44.01667000","longitude":"27.00000000"},{"id":"bde26dc6-7c73-43be-86ab-2ebfcc2c9a3f","name":"Obshtina Tutrakan","ru":"Obshtina Tutrakan","country":"c4931ccd-1c68-4407-95e9-eab52e277c7e","countryCode":"BG","state":"d1c921ea-415f-4be1-85a0-a966e623346a","stateCode":"19","latitude":"44.00000000","longitude":"26.60000000"},{"id":"4a44e962-9280-4822-b537-50bf9e2576c5","name":"Silistra","ru":"Silistra","country":"c4931ccd-1c68-4407-95e9-eab52e277c7e","countryCode":"BG","state":"d1c921ea-415f-4be1-85a0-a966e623346a","stateCode":"19","latitude":"44.11710000","longitude":"27.26056000"},{"id":"5b3f89e2-88da-4a5a-ae1c-a2b412a32890","name":"Sitovo","ru":"Sitovo","country":"c4931ccd-1c68-4407-95e9-eab52e277c7e","countryCode":"BG","state":"d1c921ea-415f-4be1-85a0-a966e623346a","stateCode":"19","latitude":"44.02730000","longitude":"27.01982000"},{"id":"fc60a7b8-6a88-49e1-abfe-50d9e16a2dc7","name":"Tutrakan","ru":"Tutrakan","country":"c4931ccd-1c68-4407-95e9-eab52e277c7e","countryCode":"BG","state":"d1c921ea-415f-4be1-85a0-a966e623346a","stateCode":"19","latitude":"44.04906000","longitude":"26.61206000"},{"id":"736aa9fe-6476-4ab3-aa1e-19d0e5363dae","name":"Kermen","ru":"Kermen","country":"c4931ccd-1c68-4407-95e9-eab52e277c7e","countryCode":"BG","state":"2c278163-cd07-4662-943a-29ce415ec753","stateCode":"20","latitude":"42.50000000","longitude":"26.25000000"},{"id":"0432ba47-5b0e-4f93-8004-3a2bfc99d199","name":"Kotel","ru":"Kotel","country":"c4931ccd-1c68-4407-95e9-eab52e277c7e","countryCode":"BG","state":"2c278163-cd07-4662-943a-29ce415ec753","stateCode":"20","latitude":"42.88333000","longitude":"26.45000000"},{"id":"a4720404-decd-469c-b1ac-3fa72121add9","name":"Nova Zagora","ru":"Nova Zagora","country":"c4931ccd-1c68-4407-95e9-eab52e277c7e","countryCode":"BG","state":"2c278163-cd07-4662-943a-29ce415ec753","stateCode":"20","latitude":"42.48333000","longitude":"26.01667000"},{"id":"bc83da57-55c1-4ef0-bf03-52ba162605fc","name":"Obshtina Kotel","ru":"Obshtina Kotel","country":"c4931ccd-1c68-4407-95e9-eab52e277c7e","countryCode":"BG","state":"2c278163-cd07-4662-943a-29ce415ec753","stateCode":"20","latitude":"42.88333000","longitude":"26.45000000"},{"id":"9b2c032c-b7c1-45a1-ad82-f43f0541f450","name":"Obshtina Nova Zagora","ru":"Obshtina Nova Zagora","country":"c4931ccd-1c68-4407-95e9-eab52e277c7e","countryCode":"BG","state":"2c278163-cd07-4662-943a-29ce415ec753","stateCode":"20","latitude":"42.45000000","longitude":"26.05000000"},{"id":"fedfd0d5-d164-4029-98c9-d1ef146bf301","name":"Obshtina Sliven","ru":"Obshtina Sliven","country":"c4931ccd-1c68-4407-95e9-eab52e277c7e","countryCode":"BG","state":"2c278163-cd07-4662-943a-29ce415ec753","stateCode":"20","latitude":"42.66667000","longitude":"26.31667000"},{"id":"07e0ff91-d73d-4ef9-80fc-aad80f6c1d4f","name":"Obshtina Tvarditsa","ru":"Obshtina Tvarditsa","country":"c4931ccd-1c68-4407-95e9-eab52e277c7e","countryCode":"BG","state":"2c278163-cd07-4662-943a-29ce415ec753","stateCode":"20","latitude":"42.73333000","longitude":"26.00000000"},{"id":"67b89f4d-19f3-40e3-83b2-41e05b66e0d9","name":"Sliven","ru":"Sliven","country":"c4931ccd-1c68-4407-95e9-eab52e277c7e","countryCode":"BG","state":"2c278163-cd07-4662-943a-29ce415ec753","stateCode":"20","latitude":"42.68583000","longitude":"26.32917000"},{"id":"90784391-f19e-4052-97b6-230a7e893495","name":"Tvarditsa","ru":"Tvarditsa","country":"c4931ccd-1c68-4407-95e9-eab52e277c7e","countryCode":"BG","state":"2c278163-cd07-4662-943a-29ce415ec753","stateCode":"20","latitude":"42.70000000","longitude":"25.90000000"},{"id":"0e546727-233f-471d-816e-9e5ed96c327d","name":"Banite","ru":"Banite","country":"c4931ccd-1c68-4407-95e9-eab52e277c7e","countryCode":"BG","state":"b5194b9f-96b4-4661-a08b-8353562f829e","stateCode":"21","latitude":"41.61667000","longitude":"25.01667000"},{"id":"dc7443c2-3f9d-49b5-92af-f496485524cf","name":"Borino","ru":"Borino","country":"c4931ccd-1c68-4407-95e9-eab52e277c7e","countryCode":"BG","state":"b5194b9f-96b4-4661-a08b-8353562f829e","stateCode":"21","latitude":"41.68408000","longitude":"24.29300000"},{"id":"82bb946a-7560-4d24-865b-66a9413c7c79","name":"Chepelare","ru":"Chepelare","country":"c4931ccd-1c68-4407-95e9-eab52e277c7e","countryCode":"BG","state":"b5194b9f-96b4-4661-a08b-8353562f829e","stateCode":"21","latitude":"41.73333000","longitude":"24.68333000"},{"id":"bf679ab4-b9bd-48d8-a1c6-72019b3b1043","name":"Devin","ru":"Devin","country":"c4931ccd-1c68-4407-95e9-eab52e277c7e","countryCode":"BG","state":"b5194b9f-96b4-4661-a08b-8353562f829e","stateCode":"21","latitude":"41.74327000","longitude":"24.40003000"},{"id":"086a1e91-5749-4336-82a8-52e61f06dc97","name":"Dospat","ru":"Dospat","country":"c4931ccd-1c68-4407-95e9-eab52e277c7e","countryCode":"BG","state":"b5194b9f-96b4-4661-a08b-8353562f829e","stateCode":"21","latitude":"41.64462000","longitude":"24.15857000"},{"id":"1cb3efb4-5ae4-46fc-8b37-3859133bc31e","name":"Gyovren","ru":"Gyovren","country":"c4931ccd-1c68-4407-95e9-eab52e277c7e","countryCode":"BG","state":"b5194b9f-96b4-4661-a08b-8353562f829e","stateCode":"21","latitude":"41.66326000","longitude":"24.37557000"},{"id":"752f3fa9-614c-49e3-b648-77a0b5101f71","name":"Madan","ru":"Madan","country":"c4931ccd-1c68-4407-95e9-eab52e277c7e","countryCode":"BG","state":"b5194b9f-96b4-4661-a08b-8353562f829e","stateCode":"21","latitude":"41.49869000","longitude":"24.93973000"},{"id":"debc8492-83c5-464c-b9eb-87dbdd6b0166","name":"Nedelino","ru":"Nedelino","country":"c4931ccd-1c68-4407-95e9-eab52e277c7e","countryCode":"BG","state":"b5194b9f-96b4-4661-a08b-8353562f829e","stateCode":"21","latitude":"41.45602000","longitude":"25.08008000"},{"id":"4216915d-47fb-46a1-bd7a-40ae4a72f4c7","name":"Obshtina Banite","ru":"Obshtina Banite","country":"c4931ccd-1c68-4407-95e9-eab52e277c7e","countryCode":"BG","state":"b5194b9f-96b4-4661-a08b-8353562f829e","stateCode":"21","latitude":"41.70000000","longitude":"25.00000000"},{"id":"92995837-d9d5-48cb-8efb-644e1bde9541","name":"Obshtina Borino","ru":"Obshtina Borino","country":"c4931ccd-1c68-4407-95e9-eab52e277c7e","countryCode":"BG","state":"b5194b9f-96b4-4661-a08b-8353562f829e","stateCode":"21","latitude":"41.64834000","longitude":"24.31694000"},{"id":"3308b9f6-e82d-4da4-9689-e70e399ae924","name":"Obshtina Chepelare","ru":"Obshtina Chepelare","country":"c4931ccd-1c68-4407-95e9-eab52e277c7e","countryCode":"BG","state":"b5194b9f-96b4-4661-a08b-8353562f829e","stateCode":"21","latitude":"41.80000000","longitude":"24.68333000"},{"id":"4b52c880-798f-4546-b766-275f182bf9b4","name":"Obshtina Devin","ru":"Obshtina Devin","country":"c4931ccd-1c68-4407-95e9-eab52e277c7e","countryCode":"BG","state":"b5194b9f-96b4-4661-a08b-8353562f829e","stateCode":"21","latitude":"41.74346000","longitude":"24.40192000"},{"id":"c4910094-75d7-47a8-ae3a-324cec8c9bac","name":"Obshtina Dospat","ru":"Obshtina Dospat","country":"c4931ccd-1c68-4407-95e9-eab52e277c7e","countryCode":"BG","state":"b5194b9f-96b4-4661-a08b-8353562f829e","stateCode":"21","latitude":"41.63228000","longitude":"24.18765000"},{"id":"9fd88254-7fc1-4e56-abed-b02092ee6f4c","name":"Obshtina Madan","ru":"Obshtina Madan","country":"c4931ccd-1c68-4407-95e9-eab52e277c7e","countryCode":"BG","state":"b5194b9f-96b4-4661-a08b-8353562f829e","stateCode":"21","latitude":"41.53333000","longitude":"24.96667000"},{"id":"1709e9ef-d867-4821-a07f-7549b0cb248b","name":"Obshtina Nedelino","ru":"Obshtina Nedelino","country":"c4931ccd-1c68-4407-95e9-eab52e277c7e","countryCode":"BG","state":"b5194b9f-96b4-4661-a08b-8353562f829e","stateCode":"21","latitude":"41.46894000","longitude":"25.09481000"},{"id":"27298629-6df2-4906-b12d-7e3fe1f1344b","name":"Obshtina Rudozem","ru":"Obshtina Rudozem","country":"c4931ccd-1c68-4407-95e9-eab52e277c7e","countryCode":"BG","state":"b5194b9f-96b4-4661-a08b-8353562f829e","stateCode":"21","latitude":"41.45439000","longitude":"24.83690000"},{"id":"a55d3a2a-8f01-4325-b274-dd6d62f83931","name":"Obshtina Smolyan","ru":"Obshtina Smolyan","country":"c4931ccd-1c68-4407-95e9-eab52e277c7e","countryCode":"BG","state":"b5194b9f-96b4-4661-a08b-8353562f829e","stateCode":"21","latitude":"41.57516000","longitude":"24.71302000"},{"id":"02de4272-60d9-412f-afa0-05621c0e1e75","name":"Obshtina Zlatograd","ru":"Obshtina Zlatograd","country":"c4931ccd-1c68-4407-95e9-eab52e277c7e","countryCode":"BG","state":"b5194b9f-96b4-4661-a08b-8353562f829e","stateCode":"21","latitude":"41.40028000","longitude":"25.04591000"},{"id":"825698b3-823f-458a-bc47-67447d5d3b52","name":"Rudozem","ru":"Rudozem","country":"c4931ccd-1c68-4407-95e9-eab52e277c7e","countryCode":"BG","state":"b5194b9f-96b4-4661-a08b-8353562f829e","stateCode":"21","latitude":"41.48751000","longitude":"24.84945000"},{"id":"c643cba0-1d1b-4762-b34b-d1403a7ddbb8","name":"Smolyan","ru":"Smolyan","country":"c4931ccd-1c68-4407-95e9-eab52e277c7e","countryCode":"BG","state":"b5194b9f-96b4-4661-a08b-8353562f829e","stateCode":"21","latitude":"41.57439000","longitude":"24.71204000"},{"id":"22aca48a-b805-4e33-9ab8-c460ce54f79d","name":"Zlatograd","ru":"Zlatograd","country":"c4931ccd-1c68-4407-95e9-eab52e277c7e","countryCode":"BG","state":"b5194b9f-96b4-4661-a08b-8353562f829e","stateCode":"21","latitude":"41.37950000","longitude":"25.09605000"},{"id":"3dd9a6ad-20b7-4c7d-be15-fdf2234eaa3b","name":"Buhovo","ru":"Buhovo","country":"c4931ccd-1c68-4407-95e9-eab52e277c7e","countryCode":"BG","state":"1fc702a6-79cc-4f9a-9aed-ab4a2384fc66","stateCode":"22","latitude":"42.76667000","longitude":"23.56667000"},{"id":"07f4396b-41fd-4531-a39a-dc15b2f23b6e","name":"Sofia","ru":"Sofia","country":"c4931ccd-1c68-4407-95e9-eab52e277c7e","countryCode":"BG","state":"1fc702a6-79cc-4f9a-9aed-ab4a2384fc66","stateCode":"22","latitude":"42.69751000","longitude":"23.32415000"},{"id":"f29814b3-0d29-4bab-b1a5-8349e88d29da","name":"Stolichna Obshtina","ru":"Stolichna Obshtina","country":"c4931ccd-1c68-4407-95e9-eab52e277c7e","countryCode":"BG","state":"1fc702a6-79cc-4f9a-9aed-ab4a2384fc66","stateCode":"22","latitude":"42.68647000","longitude":"23.30561000"},{"id":"945e0e3b-a157-4eb8-8a30-06d4502b22da","name":"Anton","ru":"Anton","country":"c4931ccd-1c68-4407-95e9-eab52e277c7e","countryCode":"BG","state":"a985ba3f-903b-437d-83b4-c95857d080b8","stateCode":"23","latitude":"42.75000000","longitude":"24.28333000"},{"id":"06a3bf15-27f0-4a03-8f07-bb4bf764d3cf","name":"Botevgrad","ru":"Botevgrad","country":"c4931ccd-1c68-4407-95e9-eab52e277c7e","countryCode":"BG","state":"a985ba3f-903b-437d-83b4-c95857d080b8","stateCode":"23","latitude":"42.90000000","longitude":"23.78333000"},{"id":"f203c562-6b48-4d3a-99b9-1c7e84f32613","name":"Bozhurishte","ru":"Bozhurishte","country":"c4931ccd-1c68-4407-95e9-eab52e277c7e","countryCode":"BG","state":"a985ba3f-903b-437d-83b4-c95857d080b8","stateCode":"23","latitude":"42.75000000","longitude":"23.20000000"},{"id":"bae3e452-a80a-4cc7-b92f-e47041a99ff9","name":"Chavdar","ru":"Chavdar","country":"c4931ccd-1c68-4407-95e9-eab52e277c7e","countryCode":"BG","state":"a985ba3f-903b-437d-83b4-c95857d080b8","stateCode":"23","latitude":"42.65000000","longitude":"24.05000000"},{"id":"e77cb5e5-a468-465a-9647-f6b7be6379fd","name":"Chelopech","ru":"Chelopech","country":"c4931ccd-1c68-4407-95e9-eab52e277c7e","countryCode":"BG","state":"a985ba3f-903b-437d-83b4-c95857d080b8","stateCode":"23","latitude":"42.70000000","longitude":"24.08333000"},{"id":"df9da4e3-a720-45c8-9ca4-8cc9c99f9ffc","name":"Dolna Banya","ru":"Dolna Banya","country":"c4931ccd-1c68-4407-95e9-eab52e277c7e","countryCode":"BG","state":"a985ba3f-903b-437d-83b4-c95857d080b8","stateCode":"23","latitude":"42.30000000","longitude":"23.76667000"},{"id":"205f5b1b-29f7-4aef-aeeb-18998c15f927","name":"Dragoman","ru":"Dragoman","country":"c4931ccd-1c68-4407-95e9-eab52e277c7e","countryCode":"BG","state":"a985ba3f-903b-437d-83b4-c95857d080b8","stateCode":"23","latitude":"42.92191000","longitude":"22.93109000"},{"id":"78f880bc-4577-44a3-a5f8-4054d7da459e","name":"Elin Pelin","ru":"Elin Pelin","country":"c4931ccd-1c68-4407-95e9-eab52e277c7e","countryCode":"BG","state":"a985ba3f-903b-437d-83b4-c95857d080b8","stateCode":"23","latitude":"42.66667000","longitude":"23.60000000"},{"id":"d8a4a53f-f189-41e5-acc5-99c6c9b0d4fd","name":"Etropole","ru":"Etropole","country":"c4931ccd-1c68-4407-95e9-eab52e277c7e","countryCode":"BG","state":"a985ba3f-903b-437d-83b4-c95857d080b8","stateCode":"23","latitude":"42.83333000","longitude":"24.00000000"},{"id":"c9f5d706-9ade-4333-b838-935d8bd8d9b4","name":"Godech","ru":"Godech","country":"c4931ccd-1c68-4407-95e9-eab52e277c7e","countryCode":"BG","state":"a985ba3f-903b-437d-83b4-c95857d080b8","stateCode":"23","latitude":"43.01682000","longitude":"23.04852000"},{"id":"a758f2af-2e2d-40a8-9182-1164e47e97ba","name":"Gorna Malina","ru":"Gorna Malina","country":"c4931ccd-1c68-4407-95e9-eab52e277c7e","countryCode":"BG","state":"a985ba3f-903b-437d-83b4-c95857d080b8","stateCode":"23","latitude":"42.68333000","longitude":"23.70000000"},{"id":"e5f2e67c-bd01-482f-9c08-285983fb1ae4","name":"Ihtiman","ru":"Ihtiman","country":"c4931ccd-1c68-4407-95e9-eab52e277c7e","countryCode":"BG","state":"a985ba3f-903b-437d-83b4-c95857d080b8","stateCode":"23","latitude":"42.43333000","longitude":"23.81667000"},{"id":"e60715a3-aad7-41e7-81a7-e13480c05660","name":"Koprivshtitsa","ru":"Koprivshtitsa","country":"c4931ccd-1c68-4407-95e9-eab52e277c7e","countryCode":"BG","state":"a985ba3f-903b-437d-83b4-c95857d080b8","stateCode":"23","latitude":"42.63333000","longitude":"24.35000000"},{"id":"6912117a-7a6f-4193-b900-c602a7bb5d62","name":"Kostinbrod","ru":"Kostinbrod","country":"c4931ccd-1c68-4407-95e9-eab52e277c7e","countryCode":"BG","state":"a985ba3f-903b-437d-83b4-c95857d080b8","stateCode":"23","latitude":"42.81667000","longitude":"23.21667000"},{"id":"df54f7b5-a165-4843-846a-12f3fbfda25a","name":"Lakatnik","ru":"Lakatnik","country":"c4931ccd-1c68-4407-95e9-eab52e277c7e","countryCode":"BG","state":"a985ba3f-903b-437d-83b4-c95857d080b8","stateCode":"23","latitude":"43.05000000","longitude":"23.40000000"},{"id":"c5ea365f-8770-4173-8867-66b85acb7cd4","name":"Mirkovo","ru":"Mirkovo","country":"c4931ccd-1c68-4407-95e9-eab52e277c7e","countryCode":"BG","state":"a985ba3f-903b-437d-83b4-c95857d080b8","stateCode":"23","latitude":"42.70000000","longitude":"23.98333000"},{"id":"75f010c2-ebac-410d-910c-874e39ea7725","name":"Obshtina Anton","ru":"Obshtina Anton","country":"c4931ccd-1c68-4407-95e9-eab52e277c7e","countryCode":"BG","state":"a985ba3f-903b-437d-83b4-c95857d080b8","stateCode":"23","latitude":"42.76667000","longitude":"24.30000000"},{"id":"fcd7b9fa-8c5e-45a0-b3f4-5f0708e12eb8","name":"Obshtina Botevgrad","ru":"Obshtina Botevgrad","country":"c4931ccd-1c68-4407-95e9-eab52e277c7e","countryCode":"BG","state":"a985ba3f-903b-437d-83b4-c95857d080b8","stateCode":"23","latitude":"42.95000000","longitude":"23.75000000"},{"id":"d9cf3427-37ce-4f22-9c63-04ce33b957f6","name":"Obshtina Bozhurishte","ru":"Obshtina Bozhurishte","country":"c4931ccd-1c68-4407-95e9-eab52e277c7e","countryCode":"BG","state":"a985ba3f-903b-437d-83b4-c95857d080b8","stateCode":"23","latitude":"42.78333000","longitude":"23.11667000"},{"id":"9756df7e-b9a5-439a-98e2-446e520d09f6","name":"Obshtina Chavdar","ru":"Obshtina Chavdar","country":"c4931ccd-1c68-4407-95e9-eab52e277c7e","countryCode":"BG","state":"a985ba3f-903b-437d-83b4-c95857d080b8","stateCode":"23","latitude":"42.61667000","longitude":"24.08333000"},{"id":"e8d2788b-20dc-467c-b8c7-12a39159b3c8","name":"Obshtina Chelopech","ru":"Obshtina Chelopech","country":"c4931ccd-1c68-4407-95e9-eab52e277c7e","countryCode":"BG","state":"a985ba3f-903b-437d-83b4-c95857d080b8","stateCode":"23","latitude":"42.71667000","longitude":"24.06667000"},{"id":"c0a41158-53c4-4839-8dc9-d65483c1ad53","name":"Obshtina Dolna Banya","ru":"Obshtina Dolna Banya","country":"c4931ccd-1c68-4407-95e9-eab52e277c7e","countryCode":"BG","state":"a985ba3f-903b-437d-83b4-c95857d080b8","stateCode":"23","latitude":"42.30000000","longitude":"23.76667000"},{"id":"8b3a60c3-591b-4fb4-84ac-a8253bc2f3f5","name":"Obshtina Dragoman","ru":"Obshtina Dragoman","country":"c4931ccd-1c68-4407-95e9-eab52e277c7e","countryCode":"BG","state":"a985ba3f-903b-437d-83b4-c95857d080b8","stateCode":"23","latitude":"42.93333000","longitude":"22.93333000"},{"id":"09543297-d45f-494f-b8b4-226399ac42f2","name":"Obshtina Elin Pelin","ru":"Obshtina Elin Pelin","country":"c4931ccd-1c68-4407-95e9-eab52e277c7e","countryCode":"BG","state":"a985ba3f-903b-437d-83b4-c95857d080b8","stateCode":"23","latitude":"42.66667000","longitude":"23.60000000"},{"id":"47e15981-c7ba-4158-b851-f612e6c503fa","name":"Obshtina Etropole","ru":"Obshtina Etropole","country":"c4931ccd-1c68-4407-95e9-eab52e277c7e","countryCode":"BG","state":"a985ba3f-903b-437d-83b4-c95857d080b8","stateCode":"23","latitude":"42.85000000","longitude":"24.03333000"},{"id":"725329c7-7f2a-474a-9ccc-6330024188ac","name":"Obshtina Gorna Malina","ru":"Obshtina Gorna Malina","country":"c4931ccd-1c68-4407-95e9-eab52e277c7e","countryCode":"BG","state":"a985ba3f-903b-437d-83b4-c95857d080b8","stateCode":"23","latitude":"42.71667000","longitude":"23.80000000"},{"id":"e91e173a-2f09-45fb-b154-62eb0a087ebf","name":"Obshtina Koprivshtitsa","ru":"Obshtina Koprivshtitsa","country":"c4931ccd-1c68-4407-95e9-eab52e277c7e","countryCode":"BG","state":"a985ba3f-903b-437d-83b4-c95857d080b8","stateCode":"23","latitude":"42.61667000","longitude":"24.38333000"},{"id":"94c0b7d7-ca19-48b1-aa45-d05749e29297","name":"Obshtina Kostenets","ru":"Obshtina Kostenets","country":"c4931ccd-1c68-4407-95e9-eab52e277c7e","countryCode":"BG","state":"a985ba3f-903b-437d-83b4-c95857d080b8","stateCode":"23","latitude":"42.30000000","longitude":"23.86667000"},{"id":"a60aa26a-3deb-4d29-ad7b-439c886fda1a","name":"Obshtina Kostinbrod","ru":"Obshtina Kostinbrod","country":"c4931ccd-1c68-4407-95e9-eab52e277c7e","countryCode":"BG","state":"a985ba3f-903b-437d-83b4-c95857d080b8","stateCode":"23","latitude":"42.88333000","longitude":"23.20000000"},{"id":"aa843d3f-9af8-4f6d-831a-dd8c665d8706","name":"Obshtina Mirkovo","ru":"Obshtina Mirkovo","country":"c4931ccd-1c68-4407-95e9-eab52e277c7e","countryCode":"BG","state":"a985ba3f-903b-437d-83b4-c95857d080b8","stateCode":"23","latitude":"42.66667000","longitude":"23.96667000"},{"id":"f2f1972a-bb45-4888-b114-4e5fdbf81882","name":"Obshtina Pirdop","ru":"Obshtina Pirdop","country":"c4931ccd-1c68-4407-95e9-eab52e277c7e","countryCode":"BG","state":"a985ba3f-903b-437d-83b4-c95857d080b8","stateCode":"23","latitude":"42.70000000","longitude":"24.23333000"},{"id":"bc86ceae-887b-4793-83a3-f0a23452799f","name":"Obshtina Pravets","ru":"Obshtina Pravets","country":"c4931ccd-1c68-4407-95e9-eab52e277c7e","countryCode":"BG","state":"a985ba3f-903b-437d-83b4-c95857d080b8","stateCode":"23","latitude":"42.96667000","longitude":"23.98333000"},{"id":"c942a3fc-9330-453e-8318-8cf152e19f78","name":"Obshtina Samokov","ru":"Obshtina Samokov","country":"c4931ccd-1c68-4407-95e9-eab52e277c7e","countryCode":"BG","state":"a985ba3f-903b-437d-83b4-c95857d080b8","stateCode":"23","latitude":"42.33333000","longitude":"23.55000000"},{"id":"c9a0a596-5b15-4a30-b228-96d4610e05ab","name":"Obshtina Slivnitsa","ru":"Obshtina Slivnitsa","country":"c4931ccd-1c68-4407-95e9-eab52e277c7e","countryCode":"BG","state":"a985ba3f-903b-437d-83b4-c95857d080b8","stateCode":"23","latitude":"42.85000000","longitude":"22.98333000"},{"id":"a9e166f0-8f9a-4ae2-a9ad-b2f50b4e4619","name":"Obshtina Svoge","ru":"Obshtina Svoge","country":"c4931ccd-1c68-4407-95e9-eab52e277c7e","countryCode":"BG","state":"a985ba3f-903b-437d-83b4-c95857d080b8","stateCode":"23","latitude":"43.00000000","longitude":"23.40000000"},{"id":"aac53741-fe5f-4b31-9108-1c7d72652099","name":"Obshtina Zlatitsa","ru":"Obshtina Zlatitsa","country":"c4931ccd-1c68-4407-95e9-eab52e277c7e","countryCode":"BG","state":"a985ba3f-903b-437d-83b4-c95857d080b8","stateCode":"23","latitude":"42.70000000","longitude":"24.13333000"},{"id":"a41ce852-bc9f-4d8d-a120-8d2a0531d979","name":"Pirdop","ru":"Pirdop","country":"c4931ccd-1c68-4407-95e9-eab52e277c7e","countryCode":"BG","state":"a985ba3f-903b-437d-83b4-c95857d080b8","stateCode":"23","latitude":"42.70000000","longitude":"24.18333000"},{"id":"b3c86e81-23f9-4928-af60-c397d1af719a","name":"Pravets","ru":"Pravets","country":"c4931ccd-1c68-4407-95e9-eab52e277c7e","countryCode":"BG","state":"a985ba3f-903b-437d-83b4-c95857d080b8","stateCode":"23","latitude":"42.88333000","longitude":"23.91667000"},