[{"id":"34ffd8ef-f6a6-40ff-a5f7-8dd4684bd68b","name":"Abidjan","ru":"Abidjan","country":"323dc581-dce1-42c4-9e4a-14898c40f251","countryCode":"CI","state":"cd6d57cf-7a8b-4ce0-8323-921e025b9a65","stateCode":"AB","latitude":"5.30966000","longitude":"-4.01266000"},{"id":"cd3eef00-a401-4165-ab97-964cf378c1f9","name":"Abobo","ru":"Abobo","country":"323dc581-dce1-42c4-9e4a-14898c40f251","countryCode":"CI","state":"cd6d57cf-7a8b-4ce0-8323-921e025b9a65","stateCode":"AB","latitude":"5.41613000","longitude":"-4.01590000"},{"id":"6414c657-2c38-46e0-86b1-16e35c62a1cd","name":"Anyama","ru":"Anyama","country":"323dc581-dce1-42c4-9e4a-14898c40f251","countryCode":"CI","state":"cd6d57cf-7a8b-4ce0-8323-921e025b9a65","stateCode":"AB","latitude":"5.49462000","longitude":"-4.05183000"},{"id":"0900b0f6-d415-4aec-8037-a1dc1b51dc70","name":"Bingerville","ru":"Bingerville","country":"323dc581-dce1-42c4-9e4a-14898c40f251","countryCode":"CI","state":"cd6d57cf-7a8b-4ce0-8323-921e025b9a65","stateCode":"AB","latitude":"5.35581000","longitude":"-3.88537000"},{"id":"a8f881c8-735d-4632-afa1-4549763841c7","name":"Gbôklé","ru":"Gbôklé","country":"323dc581-dce1-42c4-9e4a-14898c40f251","countryCode":"CI","state":"50ab5f21-eb16-4bfd-8efb-412606cb8ec4","stateCode":"BS","latitude":"4.95712000","longitude":"-6.09372000"},{"id":"db6444a9-ff8c-492e-9903-840ad394a63b","name":"Nawa","ru":"Nawa","country":"323dc581-dce1-42c4-9e4a-14898c40f251","countryCode":"CI","state":"50ab5f21-eb16-4bfd-8efb-412606cb8ec4","stateCode":"BS","latitude":"5.80112000","longitude":"-6.60313000"},{"id":"9dedc75d-6c9d-41a5-80c6-044c121028ef","name":"San-Pédro","ru":"San-Pédro","country":"323dc581-dce1-42c4-9e4a-14898c40f251","countryCode":"CI","state":"50ab5f21-eb16-4bfd-8efb-412606cb8ec4","stateCode":"BS","latitude":"4.76768000","longitude":"-6.65033000"},{"id":"a80def9a-35dc-4fb8-80d3-34fc1ca227ba","name":"Sassandra","ru":"Sassandra","country":"323dc581-dce1-42c4-9e4a-14898c40f251","countryCode":"CI","state":"50ab5f21-eb16-4bfd-8efb-412606cb8ec4","stateCode":"BS","latitude":"4.95384000","longitude":"-6.08531000"},{"id":"03466c0a-b2fb-433b-b847-157dd4b14340","name":"Tabou","ru":"Tabou","country":"323dc581-dce1-42c4-9e4a-14898c40f251","countryCode":"CI","state":"50ab5f21-eb16-4bfd-8efb-412606cb8ec4","stateCode":"BS","latitude":"4.42295000","longitude":"-7.35280000"},{"id":"5e47c220-5ba9-43f0-98fc-ee4bcb20f9cd","name":"Abengourou","ru":"Abengourou","country":"323dc581-dce1-42c4-9e4a-14898c40f251","countryCode":"CI","state":"6bf20111-19a5-4a3d-bbd2-c2ad9f3ce4d6","stateCode":"CM","latitude":"6.72972000","longitude":"-3.49639000"},{"id":"7875a60d-e3ed-4211-8705-b942dccb1ddb","name":"Aboisso","ru":"Aboisso","country":"323dc581-dce1-42c4-9e4a-14898c40f251","countryCode":"CI","state":"6bf20111-19a5-4a3d-bbd2-c2ad9f3ce4d6","stateCode":"CM","latitude":"5.46779000","longitude":"-3.20711000"},{"id":"9b831bd9-3715-481f-8d9f-36c89fbe7f64","name":"Adiaké","ru":"Adiaké","country":"323dc581-dce1-42c4-9e4a-14898c40f251","countryCode":"CI","state":"6bf20111-19a5-4a3d-bbd2-c2ad9f3ce4d6","stateCode":"CM","latitude":"5.28634000","longitude":"-3.30403000"},{"id":"0229eced-4c5d-4652-9f69-b0b4b4022616","name":"Agnibilékrou","ru":"Agnibilékrou","country":"323dc581-dce1-42c4-9e4a-14898c40f251","countryCode":"CI","state":"6bf20111-19a5-4a3d-bbd2-c2ad9f3ce4d6","stateCode":"CM","latitude":"7.13113000","longitude":"-3.20415000"},{"id":"8f2186ae-f5d8-4c4d-994a-0fe53e3b523a","name":"Ayamé","ru":"Ayamé","country":"323dc581-dce1-42c4-9e4a-14898c40f251","countryCode":"CI","state":"6bf20111-19a5-4a3d-bbd2-c2ad9f3ce4d6","stateCode":"CM","latitude":"5.60520000","longitude":"-3.15709000"},{"id":"32100371-c6e9-4fac-8ba6-088cd9979cec","name":"Bonoua","ru":"Bonoua","country":"323dc581-dce1-42c4-9e4a-14898c40f251","countryCode":"CI","state":"6bf20111-19a5-4a3d-bbd2-c2ad9f3ce4d6","stateCode":"CM","latitude":"5.27247000","longitude":"-3.59625000"},{"id":"1a22b48a-1b33-4663-a7ba-164a395bbda9","name":"Grand-Bassam","ru":"Grand-Bassam","country":"323dc581-dce1-42c4-9e4a-14898c40f251","countryCode":"CI","state":"6bf20111-19a5-4a3d-bbd2-c2ad9f3ce4d6","stateCode":"CM","latitude":"5.21180000","longitude":"-3.73884000"},{"id":"02c224a7-6c4e-4aea-b454-4c805a82d00d","name":"Indénié-Djuablin","ru":"Indénié-Djuablin","country":"323dc581-dce1-42c4-9e4a-14898c40f251","countryCode":"CI","state":"6bf20111-19a5-4a3d-bbd2-c2ad9f3ce4d6","stateCode":"CM","latitude":"6.74434000","longitude":"-3.49400000"},{"id":"4378f889-9308-43c0-a1ef-850461af5f17","name":"Sud-Comoé","ru":"Sud-Comoé","country":"323dc581-dce1-42c4-9e4a-14898c40f251","countryCode":"CI","state":"6bf20111-19a5-4a3d-bbd2-c2ad9f3ce4d6","stateCode":"CM","latitude":"5.49961000","longitude":"-3.24080000"},{"id":"2c90d4a3-e994-423c-bd5d-9cc739fa37b7","name":"Folon","ru":"Folon","country":"323dc581-dce1-42c4-9e4a-14898c40f251","countryCode":"CI","state":"587dae5d-f5f3-4687-911d-00a18666bb72","stateCode":"DN","latitude":"9.81241000","longitude":"-7.51894000"},{"id":"e3ad5d56-f78c-49eb-b0d0-5a1352cb2a55","name":"Kabadougou","ru":"Kabadougou","country":"323dc581-dce1-42c4-9e4a-14898c40f251","countryCode":"CI","state":"587dae5d-f5f3-4687-911d-00a18666bb72","stateCode":"DN","latitude":"9.60571000","longitude":"-7.43774000"},{"id":"4fd80ccf-fd17-45cd-8dd0-6e467589466f","name":"Odienné","ru":"Odienné","country":"323dc581-dce1-42c4-9e4a-14898c40f251","countryCode":"CI","state":"587dae5d-f5f3-4687-911d-00a18666bb72","stateCode":"DN","latitude":"9.50511000","longitude":"-7.56433000"},{"id":"bf492dcf-7552-4dc3-bad8-b30a5178f7e9","name":"Bangolo","ru":"Bangolo","country":"323dc581-dce1-42c4-9e4a-14898c40f251","countryCode":"CI","state":"1724fa97-5f82-4680-b7bb-980e17218f74","stateCode":"06","latitude":"7.01232000","longitude":"-7.48639000"},{"id":"54ba7c69-b8ad-4ae4-9e6e-7a05f53e3367","name":"Biankouma","ru":"Biankouma","country":"323dc581-dce1-42c4-9e4a-14898c40f251","countryCode":"CI","state":"1724fa97-5f82-4680-b7bb-980e17218f74","stateCode":"06","latitude":"7.73909000","longitude":"-7.61377000"},{"id":"31e776a1-ed2e-438f-ac9f-951b852dc191","name":"Cavally","ru":"Cavally","country":"323dc581-dce1-42c4-9e4a-14898c40f251","countryCode":"CI","state":"1724fa97-5f82-4680-b7bb-980e17218f74","stateCode":"06","latitude":"6.56343000","longitude":"-7.92526000"},{"id":"8a2a4354-cfe1-4b8a-b2e7-bc109cd542ee","name":"Danané","ru":"Danané","country":"323dc581-dce1-42c4-9e4a-14898c40f251","countryCode":"CI","state":"1724fa97-5f82-4680-b7bb-980e17218f74","stateCode":"06","latitude":"7.25957000","longitude":"-8.15498000"},{"id":"70bda68b-2fbd-4f5b-8664-1d423ebac59f","name":"Duekoué","ru":"Duekoué","country":"323dc581-dce1-42c4-9e4a-14898c40f251","countryCode":"CI","state":"1724fa97-5f82-4680-b7bb-980e17218f74","stateCode":"06","latitude":"6.74202000","longitude":"-7.34918000"},{"id":"4ff3379f-bad2-4e6a-849f-613e78bfaf8d","name":"Guémon","ru":"Guémon","country":"323dc581-dce1-42c4-9e4a-14898c40f251","countryCode":"CI","state":"1724fa97-5f82-4680-b7bb-980e17218f74","stateCode":"06","latitude":"7.09300000","longitude":"-7.17785000"},{"id":"9bfff0b9-5830-471c-ad34-a2c7fda614ef","name":"Guiglo","ru":"Guiglo","country":"323dc581-dce1-42c4-9e4a-14898c40f251","countryCode":"CI","state":"1724fa97-5f82-4680-b7bb-980e17218f74","stateCode":"06","latitude":"6.54368000","longitude":"-7.49350000"},{"id":"f59d0f97-7006-40a4-9df4-f009fae7e871","name":"Man","ru":"Man","country":"323dc581-dce1-42c4-9e4a-14898c40f251","countryCode":"CI","state":"1724fa97-5f82-4680-b7bb-980e17218f74","stateCode":"06","latitude":"7.41251000","longitude":"-7.55383000"},{"id":"c7bf188d-97e7-4a03-b0fa-a3f432031b07","name":"Tonkpi","ru":"Tonkpi","country":"323dc581-dce1-42c4-9e4a-14898c40f251","countryCode":"CI","state":"1724fa97-5f82-4680-b7bb-980e17218f74","stateCode":"06","latitude":"7.56785000","longitude":"-7.60941000"},{"id":"b7d8b68d-7262-4295-80c9-dd0e2d8bd568","name":"Toulépleu Gueré","ru":"Toulépleu Gueré","country":"323dc581-dce1-42c4-9e4a-14898c40f251","countryCode":"CI","state":"1724fa97-5f82-4680-b7bb-980e17218f74","stateCode":"06","latitude":"6.57395000","longitude":"-8.42592000"},{"id":"94a57f28-2ed9-4773-816c-e6c54daf505b","name":"Divo","ru":"Divo","country":"323dc581-dce1-42c4-9e4a-14898c40f251","countryCode":"CI","state":"934f92e1-dc48-4911-a17b-f0242d766f2e","stateCode":"GD","latitude":"5.83739000","longitude":"-5.35723000"},{"id":"e4986baa-5e6c-4156-ac67-fb3f50e8fbb4","name":"Gagnoa","ru":"Gagnoa","country":"323dc581-dce1-42c4-9e4a-14898c40f251","countryCode":"CI","state":"934f92e1-dc48-4911-a17b-f0242d766f2e","stateCode":"GD","latitude":"6.13193000","longitude":"-5.95060000"},{"id":"26731a1b-74c3-456e-a125-5cb7d187221c","name":"Gôh","ru":"Gôh","country":"323dc581-dce1-42c4-9e4a-14898c40f251","countryCode":"CI","state":"934f92e1-dc48-4911-a17b-f0242d766f2e","stateCode":"GD","latitude":"6.14459000","longitude":"-5.92644000"},{"id":"d5e9dec5-11f3-4abc-aab7-a14391b44218","name":"Guibéroua","ru":"Guibéroua","country":"323dc581-dce1-42c4-9e4a-14898c40f251","countryCode":"CI","state":"934f92e1-dc48-4911-a17b-f0242d766f2e","stateCode":"GD","latitude":"6.23869000","longitude":"-6.17147000"},{"id":"8782811e-7e1a-4ec8-a91e-44ff1a492037","name":"Lakota","ru":"Lakota","country":"323dc581-dce1-42c4-9e4a-14898c40f251","countryCode":"CI","state":"934f92e1-dc48-4911-a17b-f0242d766f2e","stateCode":"GD","latitude":"5.84752000","longitude":"-5.68200000"},{"id":"96b1f6f5-1787-4124-91f1-89780de9ceff","name":"Lôh-Djiboua","ru":"Lôh-Djiboua","country":"323dc581-dce1-42c4-9e4a-14898c40f251","countryCode":"CI","state":"934f92e1-dc48-4911-a17b-f0242d766f2e","stateCode":"GD","latitude":"5.82483000","longitude":"-5.47668000"},{"id":"18f0e9a4-f0e3-4c57-846b-9c642c875894","name":"Oumé","ru":"Oumé","country":"323dc581-dce1-42c4-9e4a-14898c40f251","countryCode":"CI","state":"934f92e1-dc48-4911-a17b-f0242d766f2e","stateCode":"GD","latitude":"6.38309000","longitude":"-5.41759000"},{"id":"75abac22-8c86-4329-9368-7b78a8bc9fc3","name":"Arrah","ru":"Arrah","country":"323dc581-dce1-42c4-9e4a-14898c40f251","countryCode":"CI","state":"2bcee1f8-52cc-4ffc-981f-63192be68149","stateCode":"07","latitude":"6.67342000","longitude":"-3.96938000"},{"id":"b83823b4-b49e-4955-a44a-48ec34d2d21f","name":"Bélier","ru":"Bélier","country":"323dc581-dce1-42c4-9e4a-14898c40f251","countryCode":"CI","state":"2bcee1f8-52cc-4ffc-981f-63192be68149","stateCode":"07","latitude":"7.02582000","longitude":"-5.06744000"},{"id":"8024497e-2e4b-431c-8ff5-f8e1e3d141d4","name":"Bocanda","ru":"Bocanda","country":"323dc581-dce1-42c4-9e4a-14898c40f251","countryCode":"CI","state":"2bcee1f8-52cc-4ffc-981f-63192be68149","stateCode":"07","latitude":"7.06264000","longitude":"-4.49948000"},{"id":"7ca203b7-78ea-4980-9587-7f2d2ddb73e1","name":"Bongouanou","ru":"Bongouanou","country":"323dc581-dce1-42c4-9e4a-14898c40f251","countryCode":"CI","state":"2bcee1f8-52cc-4ffc-981f-63192be68149","stateCode":"07","latitude":"6.65175000","longitude":"-4.20406000"},{"id":"95345b41-5c82-4bc4-9eba-3b1dc13c6023","name":"Daoukro","ru":"Daoukro","country":"323dc581-dce1-42c4-9e4a-14898c40f251","countryCode":"CI","state":"2bcee1f8-52cc-4ffc-981f-63192be68149","stateCode":"07","latitude":"7.05910000","longitude":"-3.96310000"},{"id":"7286a840-afc1-4d74-9add-7988a023ff10","name":"Dimbokro","ru":"Dimbokro","country":"323dc581-dce1-42c4-9e4a-14898c40f251","countryCode":"CI","state":"2bcee1f8-52cc-4ffc-981f-63192be68149","stateCode":"07","latitude":"6.64678000","longitude":"-4.70519000"},{"id":"4fb7ba5f-ae40-4bc1-9580-3905edc92d88","name":"Iffou","ru":"Iffou","country":"323dc581-dce1-42c4-9e4a-14898c40f251","countryCode":"CI","state":"2bcee1f8-52cc-4ffc-981f-63192be68149","stateCode":"07","latitude":"7.11509000","longitude":"-3.95027000"},{"id":"d16aadc5-5755-413a-a8fa-fdfdd78b5a10","name":"Moronou","ru":"Moronou","country":"323dc581-dce1-42c4-9e4a-14898c40f251","countryCode":"CI","state":"2bcee1f8-52cc-4ffc-981f-63192be68149","stateCode":"07","latitude":"6.66830000","longitude":"-4.13155000"},{"id":"dcb7a9fd-a207-46b2-870b-4fba6b3edff9","name":"N'Zi","ru":"N'Zi","country":"323dc581-dce1-42c4-9e4a-14898c40f251","countryCode":"CI","state":"2bcee1f8-52cc-4ffc-981f-63192be68149","stateCode":"07","latitude":"6.82803000","longitude":"-4.58130000"},{"id":"bf8a3425-4ff3-4ab6-b6ff-60bbe7b3f2d7","name":"Toumodi","ru":"Toumodi","country":"323dc581-dce1-42c4-9e4a-14898c40f251","countryCode":"CI","state":"2bcee1f8-52cc-4ffc-981f-63192be68149","stateCode":"07","latitude":"6.55799000","longitude":"-5.01769000"},{"id":"8c3a716a-de10-4b28-9364-de4b212bf5cc","name":"Yamoussoukro","ru":"Yamoussoukro","country":"323dc581-dce1-42c4-9e4a-14898c40f251","countryCode":"CI","state":"2bcee1f8-52cc-4ffc-981f-63192be68149","stateCode":"07","latitude":"6.82055000","longitude":"-5.27674000"},{"id":"31b202ae-8da4-4e49-a771-a5831c32ad1f","name":"Adzopé","ru":"Adzopé","country":"323dc581-dce1-42c4-9e4a-14898c40f251","countryCode":"CI","state":"43d70c73-f843-40c1-a024-4f5201685d5e","stateCode":"01","latitude":"6.10694000","longitude":"-3.86194000"},{"id":"77313264-c58f-4309-961a-ed8ea21250fa","name":"Affery","ru":"Affery","country":"323dc581-dce1-42c4-9e4a-14898c40f251","countryCode":"CI","state":"43d70c73-f843-40c1-a024-4f5201685d5e","stateCode":"01","latitude":"6.32035000","longitude":"-3.95235000"},{"id":"38ee0b4b-8151-4a7d-b197-5d169e1b25c7","name":"Agboville","ru":"Agboville","country":"323dc581-dce1-42c4-9e4a-14898c40f251","countryCode":"CI","state":"43d70c73-f843-40c1-a024-4f5201685d5e","stateCode":"01","latitude":"5.92801000","longitude":"-4.21319000"},{"id":"56d5cabe-183e-4956-9390-493f6bd75a08","name":"Agnéby-Tiassa","ru":"Agnéby-Tiassa","country":"323dc581-dce1-42c4-9e4a-14898c40f251","countryCode":"CI","state":"43d70c73-f843-40c1-a024-4f5201685d5e","stateCode":"01","latitude":"5.79488000","longitude":"-4.37187000"},{"id":"540ba4c9-9bcf-4f1c-9531-d82c6a34a979","name":"Akoupé","ru":"Akoupé","country":"323dc581-dce1-42c4-9e4a-14898c40f251","countryCode":"CI","state":"43d70c73-f843-40c1-a024-4f5201685d5e","stateCode":"01","latitude":"6.38423000","longitude":"-3.88759000"},{"id":"194a2f16-e128-4796-b626-28f268243f88","name":"Dabou","ru":"Dabou","country":"323dc581-dce1-42c4-9e4a-14898c40f251","countryCode":"CI","state":"43d70c73-f843-40c1-a024-4f5201685d5e","stateCode":"01","latitude":"5.32556000","longitude":"-4.37685000"},{"id":"6bce4ccf-d85e-4b6f-a07a-f620bc8d6927","name":"Grand-Lahou","ru":"Grand-Lahou","country":"323dc581-dce1-42c4-9e4a-14898c40f251","countryCode":"CI","state":"43d70c73-f843-40c1-a024-4f5201685d5e","stateCode":"01","latitude":"5.25068000","longitude":"-5.00333000"},{"id":"860cca83-04d8-4f13-8d9d-97425229c0c5","name":"Grands-Ponts","ru":"Grands-Ponts","country":"323dc581-dce1-42c4-9e4a-14898c40f251","countryCode":"CI","state":"43d70c73-f843-40c1-a024-4f5201685d5e","stateCode":"01","latitude":"5.30487000","longitude":"-4.39247000"},{"id":"5c88fc00-11e7-45fd-b3b4-f754f5e81dc5","name":"Tiassalé","ru":"Tiassalé","country":"323dc581-dce1-42c4-9e4a-14898c40f251","countryCode":"CI","state":"43d70c73-f843-40c1-a024-4f5201685d5e","stateCode":"01","latitude":"5.89839000","longitude":"-4.82293000"},{"id":"f9511d5a-d26a-414a-84fa-97725df801f7","name":"Bouaflé","ru":"Bouaflé","country":"323dc581-dce1-42c4-9e4a-14898c40f251","countryCode":"CI","state":"95bb0ad6-5889-477e-b150-ba9fb5b74a17","stateCode":"SM","latitude":"6.99041000","longitude":"-5.74420000"},{"id":"c9312ee3-3e44-4c23-99e5-0bf87fb32bf7","name":"Daloa","ru":"Daloa","country":"323dc581-dce1-42c4-9e4a-14898c40f251","countryCode":"CI","state":"95bb0ad6-5889-477e-b150-ba9fb5b74a17","stateCode":"SM","latitude":"6.87735000","longitude":"-6.45022000"},{"id":"be9074ea-571f-4c55-b16f-e302ff8a45e0","name":"Haut-Sassandra","ru":"Haut-Sassandra","country":"323dc581-dce1-42c4-9e4a-14898c40f251","countryCode":"CI","state":"95bb0ad6-5889-477e-b150-ba9fb5b74a17","stateCode":"SM","latitude":"6.66961000","longitude":"-6.50116000"},{"id":"9f1641a3-cf16-41ff-ad91-22715ee071c0","name":"Issia","ru":"Issia","country":"323dc581-dce1-42c4-9e4a-14898c40f251","countryCode":"CI","state":"95bb0ad6-5889-477e-b150-ba9fb5b74a17","stateCode":"SM","latitude":"6.49224000","longitude":"-6.58558000"},{"id":"444821f4-885c-4eac-b1f7-8d69f44d5c61","name":"Marahoué","ru":"Marahoué","country":"323dc581-dce1-42c4-9e4a-14898c40f251","countryCode":"CI","state":"95bb0ad6-5889-477e-b150-ba9fb5b74a17","stateCode":"SM","latitude":"7.03252000","longitude":"-5.80215000"},{"id":"584fe967-d231-4f5e-ad46-6475198d9e5e","name":"Vavoua","ru":"Vavoua","country":"323dc581-dce1-42c4-9e4a-14898c40f251","countryCode":"CI","state":"95bb0ad6-5889-477e-b150-ba9fb5b74a17","stateCode":"SM","latitude":"7.38194000","longitude":"-6.47778000"},{"id":"5bae12dd-d08d-4e77-abc7-e67083dcf940","name":"Zuénoula","ru":"Zuénoula","country":"323dc581-dce1-42c4-9e4a-14898c40f251","countryCode":"CI","state":"95bb0ad6-5889-477e-b150-ba9fb5b74a17","stateCode":"SM","latitude":"7.43027000","longitude":"-6.05054000"},{"id":"37605e67-7507-47f1-a359-7c27f30e7dd7","name":"Béoumi","ru":"Béoumi","country":"323dc581-dce1-42c4-9e4a-14898c40f251","countryCode":"CI","state":"4e9376ba-6ed1-46f6-9289-b6aa81e63141","stateCode":"04","latitude":"7.67395000","longitude":"-5.58085000"},{"id":"3dc4452b-19cd-4c7f-8d76-12c1148e72c8","name":"Botro","ru":"Botro","country":"323dc581-dce1-42c4-9e4a-14898c40f251","countryCode":"CI","state":"4e9376ba-6ed1-46f6-9289-b6aa81e63141","stateCode":"04","latitude":"7.85249000","longitude":"-5.31063000"},{"id":"3b01b1af-41ad-4b00-bbb2-60f466f93187","name":"Bouaké","ru":"Bouaké","country":"323dc581-dce1-42c4-9e4a-14898c40f251","countryCode":"CI","state":"4e9376ba-6ed1-46f6-9289-b6aa81e63141","stateCode":"04","latitude":"7.69385000","longitude":"-5.03031000"},{"id":"ca4c5a0a-a902-4110-9d98-ba1433de6b2c","name":"Dabakala","ru":"Dabakala","country":"323dc581-dce1-42c4-9e4a-14898c40f251","countryCode":"CI","state":"4e9376ba-6ed1-46f6-9289-b6aa81e63141","stateCode":"04","latitude":"8.36321000","longitude":"-4.42863000"},{"id":"c305c691-7894-4e40-be49-69687221771c","name":"Gbêkê","ru":"Gbêkê","country":"323dc581-dce1-42c4-9e4a-14898c40f251","countryCode":"CI","state":"4e9376ba-6ed1-46f6-9289-b6aa81e63141","stateCode":"04","latitude":"7.70271000","longitude":"-5.28511000"},{"id":"d8da03f7-ba40-4b64-bd20-3422804e96a8","name":"Hambol","ru":"Hambol","country":"323dc581-dce1-42c4-9e4a-14898c40f251","countryCode":"CI","state":"4e9376ba-6ed1-46f6-9289-b6aa81e63141","stateCode":"04","latitude":"8.30368000","longitude":"-5.15396000"},{"id":"3d99949d-607b-4347-86fd-95eb84fcd60c","name":"Katiola","ru":"Katiola","country":"323dc581-dce1-42c4-9e4a-14898c40f251","countryCode":"CI","state":"4e9376ba-6ed1-46f6-9289-b6aa81e63141","stateCode":"04","latitude":"8.13728000","longitude":"-5.10095000"},{"id":"4066040f-b3f0-4c2c-9f0e-70713b49eca7","name":"Sakassou","ru":"Sakassou","country":"323dc581-dce1-42c4-9e4a-14898c40f251","countryCode":"CI","state":"4e9376ba-6ed1-46f6-9289-b6aa81e63141","stateCode":"04","latitude":"7.45462000","longitude":"-5.29263000"},{"id":"0eda12c3-fdcd-4107-b973-d31ae8e92a65","name":"Bafing","ru":"Bafing","country":"323dc581-dce1-42c4-9e4a-14898c40f251","countryCode":"CI","state":"4f8f1576-abe5-433b-85b5-fa5cc31fd80c","stateCode":"WR","latitude":"8.40611000","longitude":"-7.58048000"},{"id":"067ab6e4-f9e1-4e1e-86e7-14a7730951f1","name":"Béré","ru":"Béré","country":"323dc581-dce1-42c4-9e4a-14898c40f251","countryCode":"CI","state":"4f8f1576-abe5-433b-85b5-fa5cc31fd80c","stateCode":"WR","latitude":"8.18952000","longitude":"-6.17157000"},{"id":"f07d7041-c0aa-441f-b546-09d0e1512869","name":"Mankono","ru":"Mankono","country":"323dc581-dce1-42c4-9e4a-14898c40f251","countryCode":"CI","state":"4f8f1576-abe5-433b-85b5-fa5cc31fd80c","stateCode":"WR","latitude":"8.05861000","longitude":"-6.18972000"},{"id":"dadf7f9e-d084-48cf-b03d-7ea6afa00bda","name":"Séguéla","ru":"Séguéla","country":"323dc581-dce1-42c4-9e4a-14898c40f251","countryCode":"CI","state":"4f8f1576-abe5-433b-85b5-fa5cc31fd80c","stateCode":"WR","latitude":"7.96111000","longitude":"-6.67306000"},{"id":"3818c76d-2263-40e8-a658-c1c4994ea95c","name":"Touba","ru":"Touba","country":"323dc581-dce1-42c4-9e4a-14898c40f251","countryCode":"CI","state":"4f8f1576-abe5-433b-85b5-fa5cc31fd80c","stateCode":"WR","latitude":"8.28333000","longitude":"-7.68333000"},{"id":"3892ea20-fbe4-472a-af0d-9407ce7a7dfe","name":"Worodougou","ru":"Worodougou","country":"323dc581-dce1-42c4-9e4a-14898c40f251","countryCode":"CI","state":"4f8f1576-abe5-433b-85b5-fa5cc31fd80c","stateCode":"WR","latitude":"8.16482000","longitude":"-6.66595000"},{"id":"ff2c9d19-2adc-4491-bd11-239d82ab5835","name":"Bondoukou","ru":"Bondoukou","country":"323dc581-dce1-42c4-9e4a-14898c40f251","countryCode":"CI","state":"8d1f52f5-0b99-4ac1-ae48-79e6d63c1194","stateCode":"ZZ","latitude":"8.04020000","longitude":"-2.80003000"},{"id":"3134d666-8bac-4839-9e72-1ad1bb4f84a3","name":"Bouna","ru":"Bouna","country":"323dc581-dce1-42c4-9e4a-14898c40f251","countryCode":"CI","state":"8d1f52f5-0b99-4ac1-ae48-79e6d63c1194","stateCode":"ZZ","latitude":"9.26927000","longitude":"-2.99510000"},{"id":"f2b5aff2-8280-4039-9b71-027dedeb118e","name":"Bounkani","ru":"Bounkani","country":"323dc581-dce1-42c4-9e4a-14898c40f251","countryCode":"CI","state":"8d1f52f5-0b99-4ac1-ae48-79e6d63c1194","stateCode":"ZZ","latitude":"9.47841000","longitude":"-3.31238000"},{"id":"b3e0aefb-f493-4fe8-9f96-4502fe169520","name":"Gontougo","ru":"Gontougo","country":"323dc581-dce1-42c4-9e4a-14898c40f251","countryCode":"CI","state":"8d1f52f5-0b99-4ac1-ae48-79e6d63c1194","stateCode":"ZZ","latitude":"7.87132000","longitude":"-3.07068000"},{"id":"9d153424-fe84-4d74-bf09-ed7154625626","name":"Sinfra","ru":"Sinfra","country":"323dc581-dce1-42c4-9e4a-14898c40f251","countryCode":"CI","state":"8d1f52f5-0b99-4ac1-ae48-79e6d63c1194","stateCode":"ZZ","latitude":"6.62103000","longitude":"-5.91144000"},{"id":"8673b74f-7275-4672-ad0b-728920b37101","name":"Tanda","ru":"Tanda","country":"323dc581-dce1-42c4-9e4a-14898c40f251","countryCode":"CI","state":"8d1f52f5-0b99-4ac1-ae48-79e6d63c1194","stateCode":"ZZ","latitude":"7.80335000","longitude":"-3.16832000"}]