[{"id":"f0ef8485-6df5-40d6-b2cd-79f2f2cf26c6","name":"Aïn Defla","ru":"Aïn Defla","country":"86e0dbbc-cd87-4803-82b8-1fe497671ae6","countryCode":"DZ","state":"e108dc3d-f52e-45c0-b4c6-2e55297a018c","stateCode":"44","latitude":"36.26405000","longitude":"1.96790000"},{"id":"dea519d7-4464-4384-8f41-cf58e2c90dfd","name":"El Abadia","ru":"El Abadia","country":"86e0dbbc-cd87-4803-82b8-1fe497671ae6","countryCode":"DZ","state":"e108dc3d-f52e-45c0-b4c6-2e55297a018c","stateCode":"44","latitude":"36.26951000","longitude":"1.68609000"},{"id":"df488a86-01b4-4863-942d-3ab54711df8c","name":"El Attaf","ru":"El Attaf","country":"86e0dbbc-cd87-4803-82b8-1fe497671ae6","countryCode":"DZ","state":"e108dc3d-f52e-45c0-b4c6-2e55297a018c","stateCode":"44","latitude":"36.22393000","longitude":"1.67187000"},{"id":"16c121f9-1f73-47f0-a591-46f4b1216519","name":"Khemis Miliana","ru":"Khemis Miliana","country":"86e0dbbc-cd87-4803-82b8-1fe497671ae6","countryCode":"DZ","state":"e108dc3d-f52e-45c0-b4c6-2e55297a018c","stateCode":"44","latitude":"36.26104000","longitude":"2.22015000"},{"id":"2777fbbd-37ac-455b-a92e-f0b348fa26f7","name":"Theniet el Had","ru":"Theniet el Had","country":"86e0dbbc-cd87-4803-82b8-1fe497671ae6","countryCode":"DZ","state":"e108dc3d-f52e-45c0-b4c6-2e55297a018c","stateCode":"44","latitude":"35.87111000","longitude":"2.02806000"},{"id":"82f40d5d-4bda-4d4c-a632-d7253a0ca41f","name":"Aïn Temouchent","ru":"Aïn Temouchent","country":"86e0dbbc-cd87-4803-82b8-1fe497671ae6","countryCode":"DZ","state":"33ffeb60-c4b3-4a18-9ef5-0966bda8f47d","stateCode":"46","latitude":"35.29749000","longitude":"-1.14037000"},{"id":"7b863e57-c3a3-42dc-8114-7d011a59f62e","name":"Beni Saf","ru":"Beni Saf","country":"86e0dbbc-cd87-4803-82b8-1fe497671ae6","countryCode":"DZ","state":"33ffeb60-c4b3-4a18-9ef5-0966bda8f47d","stateCode":"46","latitude":"35.30099000","longitude":"-1.38226000"},{"id":"f3e9e376-2f61-4fef-85ff-2411bf50ba7f","name":"El Amria","ru":"El Amria","country":"86e0dbbc-cd87-4803-82b8-1fe497671ae6","countryCode":"DZ","state":"33ffeb60-c4b3-4a18-9ef5-0966bda8f47d","stateCode":"46","latitude":"35.52439000","longitude":"-1.01577000"},{"id":"3aa80577-de42-459b-a604-8d1af4282ab0","name":"El Malah","ru":"El Malah","country":"86e0dbbc-cd87-4803-82b8-1fe497671ae6","countryCode":"DZ","state":"33ffeb60-c4b3-4a18-9ef5-0966bda8f47d","stateCode":"46","latitude":"35.39137000","longitude":"-1.09238000"},{"id":"f6aa2dd7-2f5a-442d-911a-8d817583f47d","name":"Hammam Bou Hadjar","ru":"Hammam Bou Hadjar","country":"86e0dbbc-cd87-4803-82b8-1fe497671ae6","countryCode":"DZ","state":"33ffeb60-c4b3-4a18-9ef5-0966bda8f47d","stateCode":"46","latitude":"35.37889000","longitude":"-0.96778000"},{"id":"2ec2eb9e-626a-412a-ac69-f52b51fb5c9a","name":"Adrar","ru":"Adrar","country":"86e0dbbc-cd87-4803-82b8-1fe497671ae6","countryCode":"DZ","state":"adb7ccc6-68f1-4d34-a7ac-694c38ed692f","stateCode":"01","latitude":"27.87429000","longitude":"-0.29388000"},{"id":"8827ba76-5aa4-4c33-bb35-f684f402b54d","name":"Aoulef","ru":"Aoulef","country":"86e0dbbc-cd87-4803-82b8-1fe497671ae6","countryCode":"DZ","state":"adb7ccc6-68f1-4d34-a7ac-694c38ed692f","stateCode":"01","latitude":"26.96667000","longitude":"1.08333000"},{"id":"d14fe5a3-2443-469c-8ea9-220c24776996","name":"Reggane","ru":"Reggane","country":"86e0dbbc-cd87-4803-82b8-1fe497671ae6","countryCode":"DZ","state":"adb7ccc6-68f1-4d34-a7ac-694c38ed692f","stateCode":"01","latitude":"26.71576000","longitude":"0.17140000"},{"id":"ea01db6e-55bf-4703-8716-378721b77ae5","name":"Timimoun","ru":"Timimoun","country":"86e0dbbc-cd87-4803-82b8-1fe497671ae6","countryCode":"DZ","state":"adb7ccc6-68f1-4d34-a7ac-694c38ed692f","stateCode":"01","latitude":"29.26388000","longitude":"0.23098000"},{"id":"a82fc7cf-5d7b-4fb1-aa3f-42e1d51c4060","name":"Aïn Taya","ru":"Aïn Taya","country":"86e0dbbc-cd87-4803-82b8-1fe497671ae6","countryCode":"DZ","state":"7365cc76-d2a6-4b16-9def-6f60545cb54d","stateCode":"16","latitude":"36.79333000","longitude":"3.28694000"},{"id":"8de2ef5b-e2df-438f-a8d7-93848f17d4f7","name":"Algiers","ru":"Algiers","country":"86e0dbbc-cd87-4803-82b8-1fe497671ae6","countryCode":"DZ","state":"7365cc76-d2a6-4b16-9def-6f60545cb54d","stateCode":"16","latitude":"36.73225000","longitude":"3.08746000"},{"id":"d498c105-a6cc-453d-8d73-7bee6edfd370","name":"Bab Ezzouar","ru":"Bab Ezzouar","country":"86e0dbbc-cd87-4803-82b8-1fe497671ae6","countryCode":"DZ","state":"7365cc76-d2a6-4b16-9def-6f60545cb54d","stateCode":"16","latitude":"36.72615000","longitude":"3.18291000"},{"id":"11f17c8a-55c0-4f01-9c09-f950699a2c53","name":"Birkhadem","ru":"Birkhadem","country":"86e0dbbc-cd87-4803-82b8-1fe497671ae6","countryCode":"DZ","state":"7365cc76-d2a6-4b16-9def-6f60545cb54d","stateCode":"16","latitude":"36.71499000","longitude":"3.05002000"},{"id":"d6a8fc5f-7b6d-458f-803b-201033e76da1","name":"Bordj el Kiffan","ru":"Bordj el Kiffan","country":"86e0dbbc-cd87-4803-82b8-1fe497671ae6","countryCode":"DZ","state":"7365cc76-d2a6-4b16-9def-6f60545cb54d","stateCode":"16","latitude":"36.74871000","longitude":"3.19249000"},{"id":"9603b9a7-4fd5-4866-ba0a-625498be2cee","name":"Dar el Beïda","ru":"Dar el Beïda","country":"86e0dbbc-cd87-4803-82b8-1fe497671ae6","countryCode":"DZ","state":"7365cc76-d2a6-4b16-9def-6f60545cb54d","stateCode":"16","latitude":"36.71333000","longitude":"3.21250000"},{"id":"adf92fd0-e5ae-4b90-9ec3-bbec384d1c3e","name":"Rouiba","ru":"Rouiba","country":"86e0dbbc-cd87-4803-82b8-1fe497671ae6","countryCode":"DZ","state":"7365cc76-d2a6-4b16-9def-6f60545cb54d","stateCode":"16","latitude":"36.73829000","longitude":"3.28079000"},{"id":"ae740e67-1b44-4e2a-9d6a-b46e8b67706d","name":"Annaba","ru":"Annaba","country":"86e0dbbc-cd87-4803-82b8-1fe497671ae6","countryCode":"DZ","state":"1ca4570d-f323-457f-990c-4d9e0d4c03ec","stateCode":"23","latitude":"36.90000000","longitude":"7.76667000"},{"id":"b1a2eda2-b3fa-473a-9a1d-47a423962d35","name":"Berrahal","ru":"Berrahal","country":"86e0dbbc-cd87-4803-82b8-1fe497671ae6","countryCode":"DZ","state":"1ca4570d-f323-457f-990c-4d9e0d4c03ec","stateCode":"23","latitude":"36.83528000","longitude":"7.45333000"},{"id":"f3311be5-cf35-4c2b-a491-82479585ea92","name":"Drean","ru":"Drean","country":"86e0dbbc-cd87-4803-82b8-1fe497671ae6","countryCode":"DZ","state":"1ca4570d-f323-457f-990c-4d9e0d4c03ec","stateCode":"23","latitude":"36.68482000","longitude":"7.75111000"},{"id":"10478998-81d1-499b-9fb5-53f4721b6a7f","name":"El Hadjar","ru":"El Hadjar","country":"86e0dbbc-cd87-4803-82b8-1fe497671ae6","countryCode":"DZ","state":"1ca4570d-f323-457f-990c-4d9e0d4c03ec","stateCode":"23","latitude":"36.80377000","longitude":"7.73684000"},{"id":"46106ba1-3fb2-451f-875e-bb29e26d874b","name":"Aïn Touta","ru":"Aïn Touta","country":"86e0dbbc-cd87-4803-82b8-1fe497671ae6","countryCode":"DZ","state":"44e54436-0589-4f81-b026-cb647e38c482","stateCode":"05","latitude":"35.37675000","longitude":"5.90001000"},{"id":"751a4e13-d40f-4465-9cd2-9e3a23aac05d","name":"Arris","ru":"Arris","country":"86e0dbbc-cd87-4803-82b8-1fe497671ae6","countryCode":"DZ","state":"44e54436-0589-4f81-b026-cb647e38c482","stateCode":"05","latitude":"35.25881000","longitude":"6.34706000"},{"id":"48224d95-39d7-4837-9788-3c95d35e7cc4","name":"Barika","ru":"Barika","country":"86e0dbbc-cd87-4803-82b8-1fe497671ae6","countryCode":"DZ","state":"44e54436-0589-4f81-b026-cb647e38c482","stateCode":"05","latitude":"35.38901000","longitude":"5.36584000"},{"id":"277e2ce5-da4c-4190-88eb-f3b1e9a51bcb","name":"Batna","ru":"Batna","country":"86e0dbbc-cd87-4803-82b8-1fe497671ae6","countryCode":"DZ","state":"44e54436-0589-4f81-b026-cb647e38c482","stateCode":"05","latitude":"35.55597000","longitude":"6.17414000"},{"id":"fdc885db-6d9c-43e3-9b3c-e27edd38f82b","name":"Boumagueur","ru":"Boumagueur","country":"86e0dbbc-cd87-4803-82b8-1fe497671ae6","countryCode":"DZ","state":"44e54436-0589-4f81-b026-cb647e38c482","stateCode":"05","latitude":"35.50520000","longitude":"5.55250000"},{"id":"39fc2c57-f636-477f-93d7-ce9e38e9ca71","name":"Merouana","ru":"Merouana","country":"86e0dbbc-cd87-4803-82b8-1fe497671ae6","countryCode":"DZ","state":"44e54436-0589-4f81-b026-cb647e38c482","stateCode":"05","latitude":"35.63106000","longitude":"5.91186000"},{"id":"8695a01e-35b8-48fd-acb6-cce71d88f88a","name":"Râs el Aïoun","ru":"Râs el Aïoun","country":"86e0dbbc-cd87-4803-82b8-1fe497671ae6","countryCode":"DZ","state":"44e54436-0589-4f81-b026-cb647e38c482","stateCode":"05","latitude":"35.67384000","longitude":"5.64530000"},{"id":"62219181-3966-43e5-bef1-4837ab84b1cd","name":"Tazoult-Lambese","ru":"Tazoult-Lambese","country":"86e0dbbc-cd87-4803-82b8-1fe497671ae6","countryCode":"DZ","state":"44e54436-0589-4f81-b026-cb647e38c482","stateCode":"05","latitude":"35.48171000","longitude":"6.26074000"},{"id":"225b7589-5a08-45a0-a9ba-7c252614ea19","name":"Béchar","ru":"Béchar","country":"86e0dbbc-cd87-4803-82b8-1fe497671ae6","countryCode":"DZ","state":"11744b6c-4af0-441c-9894-e26df084e57d","stateCode":"08","latitude":"31.61667000","longitude":"-2.21667000"},{"id":"a5216185-fe25-4dbf-8d32-86bc9627aaf6","name":"Akbou","ru":"Akbou","country":"86e0dbbc-cd87-4803-82b8-1fe497671ae6","countryCode":"DZ","state":"28fafe47-daa3-4cad-a7f5-12a2facd80a0","stateCode":"06","latitude":"36.45750000","longitude":"4.53494000"},{"id":"7b105176-5512-4511-9c9a-8bce82b219bc","name":"Amizour","ru":"Amizour","country":"86e0dbbc-cd87-4803-82b8-1fe497671ae6","countryCode":"DZ","state":"28fafe47-daa3-4cad-a7f5-12a2facd80a0","stateCode":"06","latitude":"36.64022000","longitude":"4.90131000"},{"id":"5a640685-8d43-4097-bca5-b25a6039f0e1","name":"Barbacha","ru":"Barbacha","country":"86e0dbbc-cd87-4803-82b8-1fe497671ae6","countryCode":"DZ","state":"28fafe47-daa3-4cad-a7f5-12a2facd80a0","stateCode":"06","latitude":"36.56667000","longitude":"4.96667000"},{"id":"4dda8164-93b6-45da-a98a-5977b794a9da","name":"Bejaïa","ru":"Bejaïa","country":"86e0dbbc-cd87-4803-82b8-1fe497671ae6","countryCode":"DZ","state":"28fafe47-daa3-4cad-a7f5-12a2facd80a0","stateCode":"06","latitude":"36.75587000","longitude":"5.08433000"},{"id":"0eeb132c-74be-4060-8987-7517fc027c2f","name":"el hed","ru":"el hed","country":"86e0dbbc-cd87-4803-82b8-1fe497671ae6","countryCode":"DZ","state":"28fafe47-daa3-4cad-a7f5-12a2facd80a0","stateCode":"06","latitude":"36.65000000","longitude":"4.77361000"},{"id":"77793b97-7c1c-4ef5-9cbc-bab55d09e277","name":"El Kseur","ru":"El Kseur","country":"86e0dbbc-cd87-4803-82b8-1fe497671ae6","countryCode":"DZ","state":"28fafe47-daa3-4cad-a7f5-12a2facd80a0","stateCode":"06","latitude":"36.67942000","longitude":"4.85550000"},{"id":"7720eab5-201f-4ead-84f2-bd3d245a841c","name":"Feraoun","ru":"Feraoun","country":"86e0dbbc-cd87-4803-82b8-1fe497671ae6","countryCode":"DZ","state":"28fafe47-daa3-4cad-a7f5-12a2facd80a0","stateCode":"06","latitude":"36.56041000","longitude":"4.85454000"},{"id":"c1a725ba-fff5-4eae-9287-ddaf95c6c5f7","name":"Seddouk","ru":"Seddouk","country":"86e0dbbc-cd87-4803-82b8-1fe497671ae6","countryCode":"DZ","state":"28fafe47-daa3-4cad-a7f5-12a2facd80a0","stateCode":"06","latitude":"36.54722000","longitude":"4.68611000"},{"id":"1b2ea189-1993-49b6-9828-b5a3ac31f2e4","name":"Biskra","ru":"Biskra","country":"86e0dbbc-cd87-4803-82b8-1fe497671ae6","countryCode":"DZ","state":"c115e014-14d3-498c-866f-66e5fc749ca3","stateCode":"07","latitude":"34.85038000","longitude":"5.72805000"},{"id":"f40da849-59d7-4463-a83e-9f9734f6b775","name":"Oumache","ru":"Oumache","country":"86e0dbbc-cd87-4803-82b8-1fe497671ae6","countryCode":"DZ","state":"c115e014-14d3-498c-866f-66e5fc749ca3","stateCode":"07","latitude":"34.69292000","longitude":"5.68092000"},{"id":"77ff3bca-ad03-47b5-8435-6a101f74069d","name":"Sidi Khaled","ru":"Sidi Khaled","country":"86e0dbbc-cd87-4803-82b8-1fe497671ae6","countryCode":"DZ","state":"c115e014-14d3-498c-866f-66e5fc749ca3","stateCode":"07","latitude":"34.38700000","longitude":"4.98785000"},{"id":"ea4ddb1e-8957-403d-be7a-6cb5de7a9f50","name":"Sidi Okba","ru":"Sidi Okba","country":"86e0dbbc-cd87-4803-82b8-1fe497671ae6","countryCode":"DZ","state":"c115e014-14d3-498c-866f-66e5fc749ca3","stateCode":"07","latitude":"34.74512000","longitude":"5.89833000"},{"id":"68af6581-616f-405e-95af-eb7c0efc1242","name":"Tolga","ru":"Tolga","country":"86e0dbbc-cd87-4803-82b8-1fe497671ae6","countryCode":"DZ","state":"c115e014-14d3-498c-866f-66e5fc749ca3","stateCode":"07","latitude":"34.72224000","longitude":"5.37845000"},{"id":"8f7be70a-835a-442b-9ba6-30f830bbdc87","name":"Zeribet el Oued","ru":"Zeribet el Oued","country":"86e0dbbc-cd87-4803-82b8-1fe497671ae6","countryCode":"DZ","state":"c115e014-14d3-498c-866f-66e5fc749ca3","stateCode":"07","latitude":"34.68284000","longitude":"6.51109000"},{"id":"ce5d8360-eb28-43ff-91e8-de9459c64d5b","name":"Beni Mered","ru":"Beni Mered","country":"86e0dbbc-cd87-4803-82b8-1fe497671ae6","countryCode":"DZ","state":"76068622-c758-4da0-8a59-ca2d0daa9e08","stateCode":"09","latitude":"36.52389000","longitude":"2.86131000"},{"id":"11d77ea8-b5c3-4115-bade-9ac4e23416f1","name":"Blida","ru":"Blida","country":"86e0dbbc-cd87-4803-82b8-1fe497671ae6","countryCode":"DZ","state":"76068622-c758-4da0-8a59-ca2d0daa9e08","stateCode":"09","latitude":"36.47004000","longitude":"2.82770000"},{"id":"1251ad79-1f21-46e8-b597-6306d6ab6240","name":"Boû Arfa","ru":"Boû Arfa","country":"86e0dbbc-cd87-4803-82b8-1fe497671ae6","countryCode":"DZ","state":"76068622-c758-4da0-8a59-ca2d0daa9e08","stateCode":"09","latitude":"36.46298000","longitude":"2.81464000"},{"id":"2acd2eb3-5a94-4594-8d64-4ff3f4727f26","name":"Boufarik","ru":"Boufarik","country":"86e0dbbc-cd87-4803-82b8-1fe497671ae6","countryCode":"DZ","state":"76068622-c758-4da0-8a59-ca2d0daa9e08","stateCode":"09","latitude":"36.57413000","longitude":"2.91214000"},{"id":"44d0ed97-11ff-4990-9bcf-1d7698898d4d","name":"Bougara","ru":"Bougara","country":"86e0dbbc-cd87-4803-82b8-1fe497671ae6","countryCode":"DZ","state":"76068622-c758-4da0-8a59-ca2d0daa9e08","stateCode":"09","latitude":"36.54178000","longitude":"3.08100000"},{"id":"a295a312-f625-4a41-8432-de49c5238438","name":"Bouinan","ru":"Bouinan","country":"86e0dbbc-cd87-4803-82b8-1fe497671ae6","countryCode":"DZ","state":"76068622-c758-4da0-8a59-ca2d0daa9e08","stateCode":"09","latitude":"36.53167000","longitude":"2.99194000"},{"id":"e087a05f-9193-434d-89cd-9fc2e6e60d9b","name":"Chebli","ru":"Chebli","country":"86e0dbbc-cd87-4803-82b8-1fe497671ae6","countryCode":"DZ","state":"76068622-c758-4da0-8a59-ca2d0daa9e08","stateCode":"09","latitude":"36.57722000","longitude":"3.00917000"},{"id":"57e53550-ba34-4308-85ae-8f33cd1ee3fc","name":"Chiffa","ru":"Chiffa","country":"86e0dbbc-cd87-4803-82b8-1fe497671ae6","countryCode":"DZ","state":"76068622-c758-4da0-8a59-ca2d0daa9e08","stateCode":"09","latitude":"36.46293000","longitude":"2.73873000"},{"id":"ce3e0ed6-d621-430c-a03b-a9ecc4e0f9af","name":"Larbaâ","ru":"Larbaâ","country":"86e0dbbc-cd87-4803-82b8-1fe497671ae6","countryCode":"DZ","state":"76068622-c758-4da0-8a59-ca2d0daa9e08","stateCode":"09","latitude":"36.56471000","longitude":"3.15434000"},{"id":"2e032f3b-10d6-40d9-aa5f-0500d5458cf9","name":"Meftah","ru":"Meftah","country":"86e0dbbc-cd87-4803-82b8-1fe497671ae6","countryCode":"DZ","state":"76068622-c758-4da0-8a59-ca2d0daa9e08","stateCode":"09","latitude":"36.62040000","longitude":"3.22248000"},{"id":"17de1ac5-14bf-43f3-af70-7fbc11166a8e","name":"Sidi Moussa","ru":"Sidi Moussa","country":"86e0dbbc-cd87-4803-82b8-1fe497671ae6","countryCode":"DZ","state":"76068622-c758-4da0-8a59-ca2d0daa9e08","stateCode":"09","latitude":"36.60637000","longitude":"3.08783000"},{"id":"5323080b-b66e-45a6-9653-dcf16c2a7aa6","name":"Souma","ru":"Souma","country":"86e0dbbc-cd87-4803-82b8-1fe497671ae6","countryCode":"DZ","state":"76068622-c758-4da0-8a59-ca2d0daa9e08","stateCode":"09","latitude":"36.51833000","longitude":"2.90528000"},{"id":"bd923687-67cf-471e-bdeb-29515a711146","name":"Bordj Bou Arreridj","ru":"Bordj Bou Arreridj","country":"86e0dbbc-cd87-4803-82b8-1fe497671ae6","countryCode":"DZ","state":"366fe563-aafd-4132-82d9-5952813c7a61","stateCode":"34","latitude":"36.07321000","longitude":"4.76108000"},{"id":"53bbb216-dce1-40df-8c35-2ac89be384ab","name":"Bordj Ghdir","ru":"Bordj Ghdir","country":"86e0dbbc-cd87-4803-82b8-1fe497671ae6","countryCode":"DZ","state":"366fe563-aafd-4132-82d9-5952813c7a61","stateCode":"34","latitude":"35.90111000","longitude":"4.89806000"},{"id":"a736e77b-774b-4587-bb41-558b0b04d83d","name":"Bordj Zemoura","ru":"Bordj Zemoura","country":"86e0dbbc-cd87-4803-82b8-1fe497671ae6","countryCode":"DZ","state":"366fe563-aafd-4132-82d9-5952813c7a61","stateCode":"34","latitude":"36.27462000","longitude":"4.85668000"},{"id":"ecfe35c1-6155-40d0-8a99-d669955ea900","name":"El Achir","ru":"El Achir","country":"86e0dbbc-cd87-4803-82b8-1fe497671ae6","countryCode":"DZ","state":"366fe563-aafd-4132-82d9-5952813c7a61","stateCode":"34","latitude":"36.06386000","longitude":"4.62744000"},{"id":"fe9cdf6c-9418-4297-b9ad-3c7e860571c9","name":"Mansourah","ru":"Mansourah","country":"86e0dbbc-cd87-4803-82b8-1fe497671ae6","countryCode":"DZ","state":"366fe563-aafd-4132-82d9-5952813c7a61","stateCode":"34","latitude":"36.08725000","longitude":"4.45192000"},{"id":"99a0f3ad-2ebf-41b2-b33a-744656b20164","name":"Melouza","ru":"Melouza","country":"86e0dbbc-cd87-4803-82b8-1fe497671ae6","countryCode":"DZ","state":"366fe563-aafd-4132-82d9-5952813c7a61","stateCode":"34","latitude":"35.97999000","longitude":"4.18665000"},{"id":"7d484253-e321-49ca-b1f8-b02bfc8e05fc","name":"Râs el Oued","ru":"Râs el Oued","country":"86e0dbbc-cd87-4803-82b8-1fe497671ae6","countryCode":"DZ","state":"366fe563-aafd-4132-82d9-5952813c7a61","stateCode":"34","latitude":"35.94410000","longitude":"5.03107000"},{"id":"b277220d-3622-4e4d-8a88-e5105b3ae9b6","name":"Aïn Bessem","ru":"Aïn Bessem","country":"86e0dbbc-cd87-4803-82b8-1fe497671ae6","countryCode":"DZ","state":"107e236b-23a5-4759-9feb-0f129217467a","stateCode":"10","latitude":"36.29333000","longitude":"3.67319000"},{"id":"135a29eb-51be-4149-8291-92048fa34c16","name":"Bouïra","ru":"Bouïra","country":"86e0dbbc-cd87-4803-82b8-1fe497671ae6","countryCode":"DZ","state":"107e236b-23a5-4759-9feb-0f129217467a","stateCode":"10","latitude":"36.37489000","longitude":"3.90200000"},{"id":"e8389ad0-8b7b-44e8-970a-7ae7b13e44cc","name":"Chorfa","ru":"Chorfa","country":"86e0dbbc-cd87-4803-82b8-1fe497671ae6","countryCode":"DZ","state":"107e236b-23a5-4759-9feb-0f129217467a","stateCode":"10","latitude":"36.36505000","longitude":"4.32636000"},{"id":"351469ba-6381-4db8-9ca0-c90a733eca35","name":"Draa el Mizan","ru":"Draa el Mizan","country":"86e0dbbc-cd87-4803-82b8-1fe497671ae6","countryCode":"DZ","state":"107e236b-23a5-4759-9feb-0f129217467a","stateCode":"10","latitude":"36.53628000","longitude":"3.83340000"},{"id":"081fbf28-a2d4-4321-9a37-18f1431b6f30","name":"Lakhdaria","ru":"Lakhdaria","country":"86e0dbbc-cd87-4803-82b8-1fe497671ae6","countryCode":"DZ","state":"107e236b-23a5-4759-9feb-0f129217467a","stateCode":"10","latitude":"36.56463000","longitude":"3.59330000"},{"id":"5bc69551-ba77-4fea-a065-e9b851a7ed1e","name":"Sour el Ghozlane","ru":"Sour el Ghozlane","country":"86e0dbbc-cd87-4803-82b8-1fe497671ae6","countryCode":"DZ","state":"107e236b-23a5-4759-9feb-0f129217467a","stateCode":"10","latitude":"36.14766000","longitude":"3.69123000"},{"id":"d99400aa-4065-4f15-a9cf-7026767702f0","name":"Arbatache","ru":"Arbatache","country":"86e0dbbc-cd87-4803-82b8-1fe497671ae6","countryCode":"DZ","state":"de8fa81c-0553-4a39-a9e5-dba7231f5380","stateCode":"35","latitude":"36.63773000","longitude":"3.37127000"},{"id":"ca2d320c-d5ed-427b-a80b-101d1739d5c6","name":"Beni Amrane","ru":"Beni Amrane","country":"86e0dbbc-cd87-4803-82b8-1fe497671ae6","countryCode":"DZ","state":"de8fa81c-0553-4a39-a9e5-dba7231f5380","stateCode":"35","latitude":"36.66774000","longitude":"3.59115000"},{"id":"05f3e53c-d8f6-4ea2-9522-db580d697c94","name":"Boudouaou","ru":"Boudouaou","country":"86e0dbbc-cd87-4803-82b8-1fe497671ae6","countryCode":"DZ","state":"de8fa81c-0553-4a39-a9e5-dba7231f5380","stateCode":"35","latitude":"36.72735000","longitude":"3.40995000"},{"id":"f42ac216-ad0d-4fb7-9d3c-e4193f95f4c1","name":"Boumerdas","ru":"Boumerdas","country":"86e0dbbc-cd87-4803-82b8-1fe497671ae6","countryCode":"DZ","state":"de8fa81c-0553-4a39-a9e5-dba7231f5380","stateCode":"35","latitude":"36.76639000","longitude":"3.47717000"},{"id":"d75896a4-4c3b-4645-b646-48b6e87a85e0","name":"Chabet el Ameur","ru":"Chabet el Ameur","country":"86e0dbbc-cd87-4803-82b8-1fe497671ae6","countryCode":"DZ","state":"de8fa81c-0553-4a39-a9e5-dba7231f5380","stateCode":"35","latitude":"36.63709000","longitude":"3.69474000"},{"id":"12cb90c8-5061-4cc4-850e-d244e8a85bb3","name":"Dellys","ru":"Dellys","country":"86e0dbbc-cd87-4803-82b8-1fe497671ae6","countryCode":"DZ","state":"de8fa81c-0553-4a39-a9e5-dba7231f5380","stateCode":"35","latitude":"36.91716000","longitude":"3.91311000"},{"id":"5a1bc15c-b8b4-4d3b-9b17-d500a349dab0","name":"Khemis el Khechna","ru":"Khemis el Khechna","country":"86e0dbbc-cd87-4803-82b8-1fe497671ae6","countryCode":"DZ","state":"de8fa81c-0553-4a39-a9e5-dba7231f5380","stateCode":"35","latitude":"36.64997000","longitude":"3.33080000"},{"id":"d2ca8a4b-f358-46a6-b0fc-9f6ab49a11ef","name":"Makouda","ru":"Makouda","country":"86e0dbbc-cd87-4803-82b8-1fe497671ae6","countryCode":"DZ","state":"de8fa81c-0553-4a39-a9e5-dba7231f5380","stateCode":"35","latitude":"36.78567000","longitude":"4.06273000"},{"id":"d59717c5-43b7-4b14-bd1b-c27300515677","name":"Naciria","ru":"Naciria","country":"86e0dbbc-cd87-4803-82b8-1fe497671ae6","countryCode":"DZ","state":"de8fa81c-0553-4a39-a9e5-dba7231f5380","stateCode":"35","latitude":"36.74625000","longitude":"3.83163000"},{"id":"99aa1cec-70bb-45cb-91c3-9cca836b1b89","name":"Ouled Moussa","ru":"Ouled Moussa","country":"86e0dbbc-cd87-4803-82b8-1fe497671ae6","countryCode":"DZ","state":"de8fa81c-0553-4a39-a9e5-dba7231f5380","stateCode":"35","latitude":"36.68394000","longitude":"3.36661000"},{"id":"e00022ad-11dd-4d1c-a498-0079cb237beb","name":"Reghaïa","ru":"Reghaïa","country":"86e0dbbc-cd87-4803-82b8-1fe497671ae6","countryCode":"DZ","state":"de8fa81c-0553-4a39-a9e5-dba7231f5380","stateCode":"35","latitude":"36.73587000","longitude":"3.34018000"},{"id":"c2635b8b-aa4c-4627-aa1d-17cf85942f1d","name":"Tadmaït","ru":"Tadmaït","country":"86e0dbbc-cd87-4803-82b8-1fe497671ae6","countryCode":"DZ","state":"de8fa81c-0553-4a39-a9e5-dba7231f5380","stateCode":"35","latitude":"36.74413000","longitude":"3.90045000"},{"id":"c021429d-ddff-433f-a45d-f90b2f9c000b","name":"Thenia","ru":"Thenia","country":"86e0dbbc-cd87-4803-82b8-1fe497671ae6","countryCode":"DZ","state":"de8fa81c-0553-4a39-a9e5-dba7231f5380","stateCode":"35","latitude":"36.72544000","longitude":"3.55665000"},{"id":"e31cbc42-0f65-42ec-94bc-266ac7c57dae","name":"Tizi Gheniff","ru":"Tizi Gheniff","country":"86e0dbbc-cd87-4803-82b8-1fe497671ae6","countryCode":"DZ","state":"de8fa81c-0553-4a39-a9e5-dba7231f5380","stateCode":"35","latitude":"36.58839000","longitude":"3.77445000"},{"id":"ed6ed1c8-c2dc-4cbb-bf32-d0db4c678540","name":"Abou el Hassan","ru":"Abou el Hassan","country":"86e0dbbc-cd87-4803-82b8-1fe497671ae6","countryCode":"DZ","state":"f63aa39d-2b4f-46d7-8b2e-656cf42777b7","stateCode":"02","latitude":"36.41657000","longitude":"1.19616000"},{"id":"04d25f66-e574-4f37-95ac-4d5753c9f3ea","name":"Boukadir","ru":"Boukadir","country":"86e0dbbc-cd87-4803-82b8-1fe497671ae6","countryCode":"DZ","state":"f63aa39d-2b4f-46d7-8b2e-656cf42777b7","stateCode":"02","latitude":"36.06629000","longitude":"1.12602000"},{"id":"e3606f5e-c255-436f-8ff6-269113e3d9ce","name":"Chlef","ru":"Chlef","country":"86e0dbbc-cd87-4803-82b8-1fe497671ae6","countryCode":"DZ","state":"f63aa39d-2b4f-46d7-8b2e-656cf42777b7","stateCode":"02","latitude":"36.16525000","longitude":"1.33452000"},{"id":"987a3c8e-0004-4fc9-8a13-5813929de34f","name":"Ech Chettia","ru":"Ech Chettia","country":"86e0dbbc-cd87-4803-82b8-1fe497671ae6","countryCode":"DZ","state":"f63aa39d-2b4f-46d7-8b2e-656cf42777b7","stateCode":"02","latitude":"36.19591000","longitude":"1.25537000"},{"id":"c0e2087a-cadc-4003-aaa3-e17192df6ed0","name":"Oued Fodda","ru":"Oued Fodda","country":"86e0dbbc-cd87-4803-82b8-1fe497671ae6","countryCode":"DZ","state":"f63aa39d-2b4f-46d7-8b2e-656cf42777b7","stateCode":"02","latitude":"36.18503000","longitude":"1.53299000"},{"id":"3731e1a6-a250-4dd0-8c1a-fdaf756fedb7","name":"Oued Sly","ru":"Oued Sly","country":"86e0dbbc-cd87-4803-82b8-1fe497671ae6","countryCode":"DZ","state":"f63aa39d-2b4f-46d7-8b2e-656cf42777b7","stateCode":"02","latitude":"36.10124000","longitude":"1.19949000"},{"id":"3dc0c7e7-77b0-49bf-9fb7-3281c76b8092","name":"Sidi Akkacha","ru":"Sidi Akkacha","country":"86e0dbbc-cd87-4803-82b8-1fe497671ae6","countryCode":"DZ","state":"f63aa39d-2b4f-46d7-8b2e-656cf42777b7","stateCode":"02","latitude":"36.46472000","longitude":"1.30258000"},{"id":"6833fb79-6314-4f69-8414-386ce688b401","name":"Aïn Smara","ru":"Aïn Smara","country":"86e0dbbc-cd87-4803-82b8-1fe497671ae6","countryCode":"DZ","state":"bc9248aa-6761-43ab-987c-7609e1ddc33c","stateCode":"25","latitude":"36.26740000","longitude":"6.50135000"},{"id":"e502bb32-99c6-4fb4-97e7-a83295cfd3ea","name":"’Aïn Abid","ru":"’Aïn Abid","country":"86e0dbbc-cd87-4803-82b8-1fe497671ae6","countryCode":"DZ","state":"bc9248aa-6761-43ab-987c-7609e1ddc33c","stateCode":"25","latitude":"36.23194000","longitude":"6.94333000"},{"id":"f0819718-0365-4a71-9b95-e236a0d49cc0","name":"Constantine","ru":"Constantine","country":"86e0dbbc-cd87-4803-82b8-1fe497671ae6","countryCode":"DZ","state":"bc9248aa-6761-43ab-987c-7609e1ddc33c","stateCode":"25","latitude":"36.36500000","longitude":"6.61472000"},{"id":"e6ad254f-b2d9-45f1-b181-2235f838ae94","name":"Didouche Mourad","ru":"Didouche Mourad","country":"86e0dbbc-cd87-4803-82b8-1fe497671ae6","countryCode":"DZ","state":"bc9248aa-6761-43ab-987c-7609e1ddc33c","stateCode":"25","latitude":"36.45250000","longitude":"6.63639000"},{"id":"1e7b03bc-5f8c-4a27-9362-555be4e5f95e","name":"El Khroub","ru":"El Khroub","country":"86e0dbbc-cd87-4803-82b8-1fe497671ae6","countryCode":"DZ","state":"bc9248aa-6761-43ab-987c-7609e1ddc33c","stateCode":"25","latitude":"36.26333000","longitude":"6.69361000"},{"id":"88d28b34-d1c4-4803-8f8a-87fd56c2fbd5","name":"Hamma Bouziane","ru":"Hamma Bouziane","country":"86e0dbbc-cd87-4803-82b8-1fe497671ae6","countryCode":"DZ","state":"bc9248aa-6761-43ab-987c-7609e1ddc33c","stateCode":"25","latitude":"36.41205000","longitude":"6.59603000"},{"id":"ef75d7c0-ba0c-4c69-a378-48b8288f4c5a","name":"Aïn Oussera","ru":"Aïn Oussera","country":"86e0dbbc-cd87-4803-82b8-1fe497671ae6","countryCode":"DZ","state":"3b04a30b-816c-4123-a3a8-f56850a458ee","stateCode":"17","latitude":"35.45139000","longitude":"2.90583000"},{"id":"2588fd0f-a79b-43f3-b024-46f7b2b71ac3","name":"’Aïn el Bell","ru":"’Aïn el Bell","country":"86e0dbbc-cd87-4803-82b8-1fe497671ae6","countryCode":"DZ","state":"3b04a30b-816c-4123-a3a8-f56850a458ee","stateCode":"17","latitude":"34.34381000","longitude":"3.22475000"},{"id":"fc3223e9-ba2a-4347-8343-c85e615f06bd","name":"Birine","ru":"Birine","country":"86e0dbbc-cd87-4803-82b8-1fe497671ae6","countryCode":"DZ","state":"3b04a30b-816c-4123-a3a8-f56850a458ee","stateCode":"17","latitude":"35.63500000","longitude":"3.22500000"},{"id":"c1025257-9d9f-4382-aa2e-26a6bbba6a05","name":"Charef","ru":"Charef","country":"86e0dbbc-cd87-4803-82b8-1fe497671ae6","countryCode":"DZ","state":"3b04a30b-816c-4123-a3a8-f56850a458ee","stateCode":"17","latitude":"34.62098000","longitude":"2.79503000"},{"id":"613a1d09-9718-4c99-9e0f-4a186f27dd7e","name":"Dar Chioukh","ru":"Dar Chioukh","country":"86e0dbbc-cd87-4803-82b8-1fe497671ae6","countryCode":"DZ","state":"3b04a30b-816c-4123-a3a8-f56850a458ee","stateCode":"17","latitude":"34.89638000","longitude":"3.48543000"},{"id":"0b6e847c-0894-42b9-be69-f2c4163f5e76","name":"Djelfa","ru":"Djelfa","country":"86e0dbbc-cd87-4803-82b8-1fe497671ae6","countryCode":"DZ","state":"3b04a30b-816c-4123-a3a8-f56850a458ee","stateCode":"17","latitude":"34.67279000","longitude":"3.26300000"},{"id":"1947b841-811b-41c0-a01a-deb6e5377b55","name":"El Idrissia","ru":"El Idrissia","country":"86e0dbbc-cd87-4803-82b8-1fe497671ae6","countryCode":"DZ","state":"3b04a30b-816c-4123-a3a8-f56850a458ee","stateCode":"17","latitude":"34.44542000","longitude":"2.52749000"},{"id":"c047c441-a633-44e0-93c8-4312ad470c9a","name":"Messaad","ru":"Messaad","country":"86e0dbbc-cd87-4803-82b8-1fe497671ae6","countryCode":"DZ","state":"3b04a30b-816c-4123-a3a8-f56850a458ee","stateCode":"17","latitude":"34.15429000","longitude":"3.50309000"},{"id":"f406c42b-ebc3-4e10-88d0-75b4a7b81192","name":"Brezina","ru":"Brezina","country":"86e0dbbc-cd87-4803-82b8-1fe497671ae6","countryCode":"DZ","state":"5be20fa7-6381-49cd-ba62-861500acbedb","stateCode":"32","latitude":"33.09892000","longitude":"1.26082000"},{"id":"a58c21df-1d99-445d-a982-d3e7b17390b4","name":"El Abiodh Sidi Cheikh","ru":"El Abiodh Sidi Cheikh","country":"86e0dbbc-cd87-4803-82b8-1fe497671ae6","countryCode":"DZ","state":"5be20fa7-6381-49cd-ba62-861500acbedb","stateCode":"32","latitude":"32.89300000","longitude":"0.54839000"},{"id":"2e286ded-ca5a-4ffb-8479-d703086b710f","name":"El Bayadh","ru":"El Bayadh","country":"86e0dbbc-cd87-4803-82b8-1fe497671ae6","countryCode":"DZ","state":"5be20fa7-6381-49cd-ba62-861500acbedb","stateCode":"32","latitude":"33.68318000","longitude":"1.01927000"},{"id":"1700616f-129a-43ad-b79a-a180e2ec59d2","name":"Debila","ru":"Debila","country":"86e0dbbc-cd87-4803-82b8-1fe497671ae6","countryCode":"DZ","state":"c3b62749-c3a4-4c69-a512-6f4de51153bf","stateCode":"39","latitude":"33.51667000","longitude":"6.95000000"},{"id":"4bd0fc61-9681-487c-bea9-dee983f1c950","name":"El Oued","ru":"El Oued","country":"86e0dbbc-cd87-4803-82b8-1fe497671ae6","countryCode":"DZ","state":"c3b62749-c3a4-4c69-a512-6f4de51153bf","stateCode":"39","latitude":"33.35608000","longitude":"6.86319000"},{"id":"2dd048a3-1352-4ea6-a638-92b7411c9b9d","name":"Reguiba","ru":"Reguiba","country":"86e0dbbc-cd87-4803-82b8-1fe497671ae6","countryCode":"DZ","state":"c3b62749-c3a4-4c69-a512-6f4de51153bf","stateCode":"39","latitude":"33.56391000","longitude":"6.70326000"},{"id":"4ddf7fd6-f7be-4ea1-978d-6548295295a9","name":"Robbah","ru":"Robbah","country":"86e0dbbc-cd87-4803-82b8-1fe497671ae6","countryCode":"DZ","state":"c3b62749-c3a4-4c69-a512-6f4de51153bf","stateCode":"39","latitude":"33.27967000","longitude":"6.90984000"},{"id":"4d4ed0f0-b83e-4449-bb6a-daeb1283371b","name":"Ben Mehidi","ru":"Ben Mehidi","country":"86e0dbbc-cd87-4803-82b8-1fe497671ae6","countryCode":"DZ","state":"ec703822-3521-4fd5-8c1a-ca035af611cb","stateCode":"36","latitude":"36.76967000","longitude":"7.90641000"},{"id":"4030cccb-d6f7-4171-b0bf-24c4b8297368","name":"Besbes","ru":"Besbes","country":"86e0dbbc-cd87-4803-82b8-1fe497671ae6","countryCode":"DZ","state":"ec703822-3521-4fd5-8c1a-ca035af611cb","stateCode":"36","latitude":"36.70222000","longitude":"7.84722000"},{"id":"5a6c501e-f745-45ee-88ea-14245ce1c942","name":"El Kala","ru":"El Kala","country":"86e0dbbc-cd87-4803-82b8-1fe497671ae6","countryCode":"DZ","state":"ec703822-3521-4fd5-8c1a-ca035af611cb","stateCode":"36","latitude":"36.89556000","longitude":"8.44333000"},{"id":"9de08b2b-248e-4462-b0bf-aa1e17ec7315","name":"El Tarf","ru":"El Tarf","country":"86e0dbbc-cd87-4803-82b8-1fe497671ae6","countryCode":"DZ","state":"ec703822-3521-4fd5-8c1a-ca035af611cb","stateCode":"36","latitude":"36.76720000","longitude":"8.31377000"},{"id":"db970729-b20e-402d-910a-7c0a258cfe77","name":"Berriane","ru":"Berriane","country":"86e0dbbc-cd87-4803-82b8-1fe497671ae6","countryCode":"DZ","state":"f7da553e-db2b-464e-aa86-9288fa8d3900","stateCode":"47","latitude":"32.82648000","longitude":"3.76689000"},{"id":"c737d009-e331-48fa-b6d1-882006f8ab93","name":"Ghardaïa","ru":"Ghardaïa","country":"86e0dbbc-cd87-4803-82b8-1fe497671ae6","countryCode":"DZ","state":"f7da553e-db2b-464e-aa86-9288fa8d3900","stateCode":"47","latitude":"32.49094000","longitude":"3.67347000"},{"id":"83bdfa11-ed60-40c8-be96-27f1ae6119bb","name":"Metlili Chaamba","ru":"Metlili Chaamba","country":"86e0dbbc-cd87-4803-82b8-1fe497671ae6","countryCode":"DZ","state":"f7da553e-db2b-464e-aa86-9288fa8d3900","stateCode":"47","latitude":"32.26667000","longitude":"3.63333000"},{"id":"7d0f3ace-cbfa-4477-b868-815c0e99baa3","name":"Boumahra Ahmed","ru":"Boumahra Ahmed","country":"86e0dbbc-cd87-4803-82b8-1fe497671ae6","countryCode":"DZ","state":"12302b9f-a0e2-406d-b14b-46cc7f7dfdb9","stateCode":"24","latitude":"36.45833000","longitude":"7.51389000"},{"id":"27297870-49c4-420b-a70e-1461e1924986","name":"Guelma","ru":"Guelma","country":"86e0dbbc-cd87-4803-82b8-1fe497671ae6","countryCode":"DZ","state":"12302b9f-a0e2-406d-b14b-46cc7f7dfdb9","stateCode":"24","latitude":"36.46214000","longitude":"7.42608000"},{"id":"1b501ee5-c371-4d72-9306-60572a1b693c","name":"Héliopolis","ru":"Héliopolis","country":"86e0dbbc-cd87-4803-82b8-1fe497671ae6","countryCode":"DZ","state":"12302b9f-a0e2-406d-b14b-46cc7f7dfdb9","stateCode":"24","latitude":"36.50361000","longitude":"7.44278000"},{"id":"155b638c-16c2-47ec-b586-9e37f53c2003","name":"Illizi","ru":"Illizi","country":"86e0dbbc-cd87-4803-82b8-1fe497671ae6","countryCode":"DZ","state":"8996a7e6-0cb9-4ba1-9dcf-4b3f0577afee","stateCode":"33","latitude":"26.48333000","longitude":"8.46667000"},{"id":"ceaeabda-6946-4e2c-b43f-d2eb5c087d4e","name":"Jijel","ru":"Jijel","country":"86e0dbbc-cd87-4803-82b8-1fe497671ae6","countryCode":"DZ","state":"f993f948-cea8-48d3-8015-1a8b20d5f14e","stateCode":"18","latitude":"36.82055000","longitude":"5.76671000"},{"id":"5c649410-ff0f-4e4f-8c6a-be917f9055e5","name":"Khenchela","ru":"Khenchela","country":"86e0dbbc-cd87-4803-82b8-1fe497671ae6","countryCode":"DZ","state":"bd210adb-0bc1-4782-8276-3782cf5c93bb","stateCode":"40","latitude":"35.43583000","longitude":"7.14333000"},{"id":"d3f53d91-05cc-42aa-87fa-07c03ae7cc24","name":"Aflou","ru":"Aflou","country":"86e0dbbc-cd87-4803-82b8-1fe497671ae6","countryCode":"DZ","state":"3903eabf-6d3e-43d7-8717-e8a518fd6a56","stateCode":"03","latitude":"34.11279000","longitude":"2.10228000"},{"id":"bb64f29e-9798-43dd-a4ee-3a72bf392e6e","name":"Laghouat","ru":"Laghouat","country":"86e0dbbc-cd87-4803-82b8-1fe497671ae6","countryCode":"DZ","state":"3903eabf-6d3e-43d7-8717-e8a518fd6a56","stateCode":"03","latitude":"33.80000000","longitude":"2.86514000"},{"id":"3bb6523e-3b6f-4c89-8b9f-d06b622efe60","name":"‘Aïn el Hadjel","ru":"‘Aïn el Hadjel","country":"86e0dbbc-cd87-4803-82b8-1fe497671ae6","countryCode":"DZ","state":"eab43862-e895-4169-9a2c-5c71fcbb4f66","stateCode":"28","latitude":"35.67003000","longitude":"3.88153000"},{"id":"3f060653-e46f-4378-b4a4-bdfefb38f374","name":"’Aïn el Melh","ru":"’Aïn el Melh","country":"86e0dbbc-cd87-4803-82b8-1fe497671ae6","countryCode":"DZ","state":"eab43862-e895-4169-9a2c-5c71fcbb4f66","stateCode":"28","latitude":"34.84146000","longitude":"4.16383000"},{"id":"60844f70-adea-4cf3-98ee-94cbecd48365","name":"M’Sila","ru":"M’Sila","country":"86e0dbbc-cd87-4803-82b8-1fe497671ae6","countryCode":"DZ","state":"eab43862-e895-4169-9a2c-5c71fcbb4f66","stateCode":"28","latitude":"35.70583000","longitude":"4.54194000"},{"id":"9a45b064-9692-4f6c-a013-0d972f109e7b","name":"Sidi Aïssa","ru":"Sidi Aïssa","country":"86e0dbbc-cd87-4803-82b8-1fe497671ae6","countryCode":"DZ","state":"eab43862-e895-4169-9a2c-5c71fcbb4f66","stateCode":"28","latitude":"35.88548000","longitude":"3.77236000"},{"id":"99f58f26-36f9-43a9-8eb6-012797df5c2f","name":"Bou Hanifia el Hamamat","ru":"Bou Hanifia el Hamamat","country":"86e0dbbc-cd87-4803-82b8-1fe497671ae6","countryCode":"DZ","state":"2d2a8220-19b2-4b4c-b1e0-8fa351c3316f","stateCode":"29","latitude":"35.31473000","longitude":"-0.05037000"},{"id":"27f2e656-621b-41e8-ab64-67f53dbe21a2","name":"Mascara","ru":"Mascara","country":"86e0dbbc-cd87-4803-82b8-1fe497671ae6","countryCode":"DZ","state":"2d2a8220-19b2-4b4c-b1e0-8fa351c3316f","stateCode":"29","latitude":"35.39664000","longitude":"0.14027000"},{"id":"a4afe4a8-5ffa-4367-ab02-5caa8181669d","name":"Oued el Abtal","ru":"Oued el Abtal","country":"86e0dbbc-cd87-4803-82b8-1fe497671ae6","countryCode":"DZ","state":"2d2a8220-19b2-4b4c-b1e0-8fa351c3316f","stateCode":"29","latitude":"35.45595000","longitude":"0.68778000"},{"id":"f2eb403b-da60-4b9c-b6e8-94cba08b34dd","name":"Sig","ru":"Sig","country":"86e0dbbc-cd87-4803-82b8-1fe497671ae6","countryCode":"DZ","state":"2d2a8220-19b2-4b4c-b1e0-8fa351c3316f","stateCode":"29","latitude":"35.52832000","longitude":"-0.19369000"},{"id":"81539a3f-0e79-4852-864d-0652b6ae339b","name":"’Aïn Boucif","ru":"’Aïn Boucif","country":"86e0dbbc-cd87-4803-82b8-1fe497671ae6","countryCode":"DZ","state":"10084354-de7a-4b7e-af85-f9e9f6cb0552","stateCode":"26","latitude":"35.89123000","longitude":"3.15850000"},{"id":"b75b160e-5c63-447e-946f-05a21ea4c149","name":"Berrouaghia","ru":"Berrouaghia","country":"86e0dbbc-cd87-4803-82b8-1fe497671ae6","countryCode":"DZ","state":"10084354-de7a-4b7e-af85-f9e9f6cb0552","stateCode":"26","latitude":"36.13516000","longitude":"2.91085000"},{"id":"cabcc91a-1db9-4772-909a-35cea50a3872","name":"Ksar el Boukhari","ru":"Ksar el Boukhari","country":"86e0dbbc-cd87-4803-82b8-1fe497671ae6","countryCode":"DZ","state":"10084354-de7a-4b7e-af85-f9e9f6cb0552","stateCode":"26","latitude":"35.88889000","longitude":"2.74905000"},{"id":"248a0a20-05a4-4946-8002-dab3c7ab2a08","name":"Médéa","ru":"Médéa","country":"86e0dbbc-cd87-4803-82b8-1fe497671ae6","countryCode":"DZ","state":"10084354-de7a-4b7e-af85-f9e9f6cb0552","stateCode":"26","latitude":"36.26417000","longitude":"2.75393000"},{"id":"990c6445-e8aa-45df-8850-721bf8caecd2","name":"Chelghoum el Aïd","ru":"Chelghoum el Aïd","country":"86e0dbbc-cd87-4803-82b8-1fe497671ae6","countryCode":"DZ","state":"1e42d2ad-dc37-4dfc-a868-0a05fb1bcec8","stateCode":"43","latitude":"36.16286000","longitude":"6.16651000"},{"id":"b2677d10-4d38-42bb-baea-15e053bcef37","name":"Mila","ru":"Mila","country":"86e0dbbc-cd87-4803-82b8-1fe497671ae6","countryCode":"DZ","state":"1e42d2ad-dc37-4dfc-a868-0a05fb1bcec8","stateCode":"43","latitude":"36.45028000","longitude":"6.26444000"},{"id":"a7a1be08-1501-419a-b209-a8b92de22c6d","name":"Rouached","ru":"Rouached","country":"86e0dbbc-cd87-4803-82b8-1fe497671ae6","countryCode":"DZ","state":"1e42d2ad-dc37-4dfc-a868-0a05fb1bcec8","stateCode":"43","latitude":"36.45774000","longitude":"6.04267000"},{"id":"24565838-1291-4f0c-92a1-8aedf5ea512b","name":"Sidi Mérouane","ru":"Sidi Mérouane","country":"86e0dbbc-cd87-4803-82b8-1fe497671ae6","countryCode":"DZ","state":"1e42d2ad-dc37-4dfc-a868-0a05fb1bcec8","stateCode":"43","latitude":"36.52056000","longitude":"6.26111000"},{"id":"b80fa602-c25a-4971-b674-3cf39068603a","name":"Telerghma","ru":"Telerghma","country":"86e0dbbc-cd87-4803-82b8-1fe497671ae6","countryCode":"DZ","state":"1e42d2ad-dc37-4dfc-a868-0a05fb1bcec8","stateCode":"43","latitude":"36.11653000","longitude":"6.35434000"},{"id":"33dfa745-45f6-411a-942c-326cd8fc0a34","name":"Mostaganem","ru":"Mostaganem","country":"86e0dbbc-cd87-4803-82b8-1fe497671ae6","countryCode":"DZ","state":"3ce61e19-6281-4c63-ba9f-275640d44896","stateCode":"27","latitude":"35.93115000","longitude":"0.08918000"},{"id":"574e41fc-85ef-4b37-bd55-ce2522b610a1","name":"Aïn Sefra","ru":"Aïn Sefra","country":"86e0dbbc-cd87-4803-82b8-1fe497671ae6","countryCode":"DZ","state":"16d80097-4eff-44f8-9666-9e0f57063a6c","stateCode":"45","latitude":"32.75000000","longitude":"-0.58333000"},{"id":"c5ac4bb6-1be1-4363-b03b-ebe9dbe3dbda","name":"Naama","ru":"Naama","country":"86e0dbbc-cd87-4803-82b8-1fe497671ae6","countryCode":"DZ","state":"16d80097-4eff-44f8-9666-9e0f57063a6c","stateCode":"45","latitude":"33.26667000","longitude":"-0.31667000"},{"id":"6ee9a49b-56fd-42e8-9ad7-66fd5abd9a45","name":"Aïn el Bya","ru":"Aïn el Bya","country":"86e0dbbc-cd87-4803-82b8-1fe497671ae6","countryCode":"DZ","state":"6ca1ef5e-2389-466b-8afc-81f2d0c25aa7","stateCode":"31","latitude":"35.80389000","longitude":"-0.30178000"},{"id":"2c6493a3-afc5-4e4d-9f4f-23e6b104e9ff","name":"’Aïn el Turk","ru":"’Aïn el Turk","country":"86e0dbbc-cd87-4803-82b8-1fe497671ae6","countryCode":"DZ","state":"6ca1ef5e-2389-466b-8afc-81f2d0c25aa7","stateCode":"31","latitude":"35.74381000","longitude":"-0.76930000"},{"id":"967931c1-7387-4fb3-adb5-1dcc70dc0e81","name":"Bir el Djir","ru":"Bir el Djir","country":"86e0dbbc-cd87-4803-82b8-1fe497671ae6","countryCode":"DZ","state":"6ca1ef5e-2389-466b-8afc-81f2d0c25aa7","stateCode":"31","latitude":"35.72000000","longitude":"-0.54500000"},{"id":"84f8c81e-fdab-4e68-8ba6-19e0ace4d921","name":"Bou Tlelis","ru":"Bou Tlelis","country":"86e0dbbc-cd87-4803-82b8-1fe497671ae6","countryCode":"DZ","state":"6ca1ef5e-2389-466b-8afc-81f2d0c25aa7","stateCode":"31","latitude":"35.57272000","longitude":"-0.89960000"},{"id":"314c2b23-e3b9-43ad-91fb-b345b8913390","name":"Es Senia","ru":"Es Senia","country":"86e0dbbc-cd87-4803-82b8-1fe497671ae6","countryCode":"DZ","state":"6ca1ef5e-2389-466b-8afc-81f2d0c25aa7","stateCode":"31","latitude":"35.64779000","longitude":"-0.62397000"},{"id":"a91582eb-0bb9-43b0-8fec-957a9ba2840d","name":"Mers el Kebir","ru":"Mers el Kebir","country":"86e0dbbc-cd87-4803-82b8-1fe497671ae6","countryCode":"DZ","state":"6ca1ef5e-2389-466b-8afc-81f2d0c25aa7","stateCode":"31","latitude":"35.72790000","longitude":"-0.70810000"},{"id":"c89b568f-9b03-4ce8-920e-b2a37c7b6e55","name":"Oran","ru":"Oran","country":"86e0dbbc-cd87-4803-82b8-1fe497671ae6","countryCode":"DZ","state":"6ca1ef5e-2389-466b-8afc-81f2d0c25aa7","stateCode":"31","latitude":"35.69906000","longitude":"-0.63588000"},{"id":"32ca3ef2-1397-4c97-a80b-ddf1ceb38a0b","name":"Sidi ech Chahmi","ru":"Sidi ech Chahmi","country":"86e0dbbc-cd87-4803-82b8-1fe497671ae6","countryCode":"DZ","state":"6ca1ef5e-2389-466b-8afc-81f2d0c25aa7","stateCode":"31","latitude":"35.65903000","longitude":"-0.52168000"},{"id":"7cede240-1107-4b22-9374-a20a54476755","name":"Djamaa","ru":"Djamaa","country":"86e0dbbc-cd87-4803-82b8-1fe497671ae6","countryCode":"DZ","state":"bd08a129-601b-49e8-b51f-31fe3f0ac909","stateCode":"30","latitude":"33.53388000","longitude":"5.99306000"},{"id":"cd90ee22-2548-4fff-a126-cdaf2ad5b25a","name":"El Hadjira","ru":"El Hadjira","country":"86e0dbbc-cd87-4803-82b8-1fe497671ae6","countryCode":"DZ","state":"bd08a129-601b-49e8-b51f-31fe3f0ac909","stateCode":"30","latitude":"32.61336000","longitude":"5.51259000"},{"id":"df3f8960-182a-4e14-bc76-043dad03d5df","name":"Hassi Messaoud","ru":"Hassi Messaoud","country":"86e0dbbc-cd87-4803-82b8-1fe497671ae6","countryCode":"DZ","state":"bd08a129-601b-49e8-b51f-31fe3f0ac909","stateCode":"30","latitude":"31.68041000","longitude":"6.07286000"},{"id":"d425e160-10cb-45da-8f7c-09c2171e8d09","name":"Megarine","ru":"Megarine","country":"86e0dbbc-cd87-4803-82b8-1fe497671ae6","countryCode":"DZ","state":"bd08a129-601b-49e8-b51f-31fe3f0ac909","stateCode":"30","latitude":"33.19195000","longitude":"6.08695000"},{"id":"4e6f623a-f4af-4f02-ae25-f728381d3c9c","name":"Ouargla","ru":"Ouargla","country":"86e0dbbc-cd87-4803-82b8-1fe497671ae6","countryCode":"DZ","state":"bd08a129-601b-49e8-b51f-31fe3f0ac909","stateCode":"30","latitude":"31.94932000","longitude":"5.32502000"},{"id":"44e77b3c-d333-46ee-a3ad-84022d23d4b9","name":"Rouissat","ru":"Rouissat","country":"86e0dbbc-cd87-4803-82b8-1fe497671ae6","countryCode":"DZ","state":"bd08a129-601b-49e8-b51f-31fe3f0ac909","stateCode":"30","latitude":"31.92427000","longitude":"5.35018000"},{"id":"4ef30c23-c418-41b6-8760-a090d0b21932","name":"Sidi Amrane","ru":"Sidi Amrane","country":"86e0dbbc-cd87-4803-82b8-1fe497671ae6","countryCode":"DZ","state":"bd08a129-601b-49e8-b51f-31fe3f0ac909","stateCode":"30","latitude":"33.49885000","longitude":"6.00803000"},{"id":"b67515d7-6241-4222-ae22-3cd8cafe4bd4","name":"Tebesbest","ru":"Tebesbest","country":"86e0dbbc-cd87-4803-82b8-1fe497671ae6","countryCode":"DZ","state":"bd08a129-601b-49e8-b51f-31fe3f0ac909","stateCode":"30","latitude":"33.11667000","longitude":"6.08333000"},{"id":"43c0652a-5852-4860-a3c1-cf9342ba17c8","name":"Touggourt","ru":"Touggourt","country":"86e0dbbc-cd87-4803-82b8-1fe497671ae6","countryCode":"DZ","state":"bd08a129-601b-49e8-b51f-31fe3f0ac909","stateCode":"30","latitude":"33.10527000","longitude":"6.05796000"},{"id":"f3728a33-5f9c-44b6-9efd-a50f4a2034b6","name":"Aïn Beïda","ru":"Aïn Beïda","country":"86e0dbbc-cd87-4803-82b8-1fe497671ae6","countryCode":"DZ","state":"2058a80b-59c9-4132-82de-45190b9bf3c2","stateCode":"04","latitude":"35.79639000","longitude":"7.39278000"},{"id":"76e39b44-4b73-4bfe-bb23-20dc3c5e05cf","name":"Aïn Fakroun","ru":"Aïn Fakroun","country":"86e0dbbc-cd87-4803-82b8-1fe497671ae6","countryCode":"DZ","state":"2058a80b-59c9-4132-82de-45190b9bf3c2","stateCode":"04","latitude":"35.97108000","longitude":"6.87374000"},{"id":"7eeb390d-e665-4663-a256-a4b7c6260d62","name":"Aïn Kercha","ru":"Aïn Kercha","country":"86e0dbbc-cd87-4803-82b8-1fe497671ae6","countryCode":"DZ","state":"2058a80b-59c9-4132-82de-45190b9bf3c2","stateCode":"04","latitude":"35.92472000","longitude":"6.69528000"},{"id":"e3dae009-bf69-4a78-8a6b-769a9e397030","name":"El Aouinet","ru":"El Aouinet","country":"86e0dbbc-cd87-4803-82b8-1fe497671ae6","countryCode":"DZ","state":"2058a80b-59c9-4132-82de-45190b9bf3c2","stateCode":"04","latitude":"35.86691000","longitude":"7.88673000"},{"id":"128e9b43-ec7f-4796-adbe-d1a859bab9c6","name":"Meskiana","ru":"Meskiana","country":"86e0dbbc-cd87-4803-82b8-1fe497671ae6","countryCode":"DZ","state":"2058a80b-59c9-4132-82de-45190b9bf3c2","stateCode":"04","latitude":"35.63058000","longitude":"7.66606000"},{"id":"395d7520-3d43-4c6d-a25b-ac3e65a66f5f","name":"Oum el Bouaghi","ru":"Oum el Bouaghi","country":"86e0dbbc-cd87-4803-82b8-1fe497671ae6","countryCode":"DZ","state":"2058a80b-59c9-4132-82de-45190b9bf3c2","stateCode":"04","latitude":"35.87541000","longitude":"7.11353000"},{"id":"1d5945c7-fb8d-4a0d-a385-b6d27f0bd8d6","name":"Ammi Moussa","ru":"Ammi Moussa","country":"86e0dbbc-cd87-4803-82b8-1fe497671ae6","countryCode":"DZ","state":"653145a9-46f0-4fbb-85b6-2df6a6524d72","stateCode":"48","latitude":"35.86781000","longitude":"1.11143000"},{"id":"c87291e4-4812-44d2-8bc5-ca4ae94938ec","name":"’Aïn Merane","ru":"’Aïn Merane","country":"86e0dbbc-cd87-4803-82b8-1fe497671ae6","countryCode":"DZ","state":"653145a9-46f0-4fbb-85b6-2df6a6524d72","stateCode":"48","latitude":"36.16277000","longitude":"0.97037000"},{"id":"b49acad3-78c9-448b-8a4b-64aead6186f5","name":"Djidiouia","ru":"Djidiouia","country":"86e0dbbc-cd87-4803-82b8-1fe497671ae6","countryCode":"DZ","state":"653145a9-46f0-4fbb-85b6-2df6a6524d72","stateCode":"48","latitude":"35.92989000","longitude":"0.82871000"},{"id":"848d75f7-b2c6-4038-9488-0b028e1db51e","name":"Mazouna","ru":"Mazouna","country":"86e0dbbc-cd87-4803-82b8-1fe497671ae6","countryCode":"DZ","state":"653145a9-46f0-4fbb-85b6-2df6a6524d72","stateCode":"48","latitude":"36.12232000","longitude":"0.89865000"},{"id":"d2456c5b-750f-46a2-9ee5-2db048276ca2","name":"Oued Rhiou","ru":"Oued Rhiou","country":"86e0dbbc-cd87-4803-82b8-1fe497671ae6","countryCode":"DZ","state":"653145a9-46f0-4fbb-85b6-2df6a6524d72","stateCode":"48","latitude":"35.96124000","longitude":"0.91896000"},{"id":"65aba411-6b1e-4148-a46d-db37175d2fe5","name":"Relizane","ru":"Relizane","country":"86e0dbbc-cd87-4803-82b8-1fe497671ae6","countryCode":"DZ","state":"653145a9-46f0-4fbb-85b6-2df6a6524d72","stateCode":"48","latitude":"35.73734000","longitude":"0.55599000"},{"id":"deb6c7f9-5868-43e9-a7e7-a81269192bee","name":"Smala","ru":"Smala","country":"86e0dbbc-cd87-4803-82b8-1fe497671ae6","countryCode":"DZ","state":"653145a9-46f0-4fbb-85b6-2df6a6524d72","stateCode":"48","latitude":"35.71652000","longitude":"0.75437000"},{"id":"f7ec3f1a-34b5-4147-97e2-70a6702f749e","name":"Zemoura","ru":"Zemoura","country":"86e0dbbc-cd87-4803-82b8-1fe497671ae6","countryCode":"DZ","state":"653145a9-46f0-4fbb-85b6-2df6a6524d72","stateCode":"48","latitude":"35.72251000","longitude":"0.75509000"},{"id":"df20f7af-f373-4310-8d2a-4055be873d2e","name":"’Aïn el Hadjar","ru":"’Aïn el Hadjar","country":"86e0dbbc-cd87-4803-82b8-1fe497671ae6","countryCode":"DZ","state":"fd9d534b-74b2-4064-bbe7-37d5f0f1d913","stateCode":"20","latitude":"34.75846000","longitude":"0.14528000"},{"id":"1cd7d091-3fa1-4fd4-8018-13da55c11aa2","name":"Saïda","ru":"Saïda","country":"86e0dbbc-cd87-4803-82b8-1fe497671ae6","countryCode":"DZ","state":"fd9d534b-74b2-4064-bbe7-37d5f0f1d913","stateCode":"20","latitude":"34.83033000","longitude":"0.15171000"},{"id":"5e6a7bb7-77aa-4620-89fd-96faefcb9eac","name":"Aïn Arnat","ru":"Aïn Arnat","country":"86e0dbbc-cd87-4803-82b8-1fe497671ae6","countryCode":"DZ","state":"79423b06-16d7-409e-98ac-7378ad936636","stateCode":"19","latitude":"36.18683000","longitude":"5.31347000"},{"id":"529f44b9-c900-41bb-a21f-e4cb754862f3","name":"BABOR - VILLE","ru":"BABOR - VILLE","country":"86e0dbbc-cd87-4803-82b8-1fe497671ae6","countryCode":"DZ","state":"79423b06-16d7-409e-98ac-7378ad936636","stateCode":"19","latitude":"36.48994000","longitude":"5.53930000"},{"id":"a9cba09c-8492-4135-a169-564300a70431","name":"Bougaa","ru":"Bougaa","country":"86e0dbbc-cd87-4803-82b8-1fe497671ae6","countryCode":"DZ","state":"79423b06-16d7-409e-98ac-7378ad936636","stateCode":"19","latitude":"36.33293000","longitude":"5.08843000"},{"id":"cfdafd1e-58b6-4ea6-90d0-a6dfb854199e","name":"El Eulma","ru":"El Eulma","country":"86e0dbbc-cd87-4803-82b8-1fe497671ae6","countryCode":"DZ","state":"79423b06-16d7-409e-98ac-7378ad936636","stateCode":"19","latitude":"36.15281000","longitude":"5.69016000"},{"id":"27457bf5-7940-435e-ae50-b8e8943fd2a2","name":"Salah Bey","ru":"Salah Bey","country":"86e0dbbc-cd87-4803-82b8-1fe497671ae6","countryCode":"DZ","state":"79423b06-16d7-409e-98ac-7378ad936636","stateCode":"19","latitude":"35.85451000","longitude":"5.29053000"},{"id":"bae05dd0-044a-427a-ab89-79717a5bc85b","name":"Sétif","ru":"Sétif","country":"86e0dbbc-cd87-4803-82b8-1fe497671ae6","countryCode":"DZ","state":"79423b06-16d7-409e-98ac-7378ad936636","stateCode":"19","latitude":"36.19112000","longitude":"5.41373000"},{"id":"3bb82658-3cf8-41cd-8efc-67ec5a64dff8","name":"Azzaba","ru":"Azzaba","country":"86e0dbbc-cd87-4803-82b8-1fe497671ae6","countryCode":"DZ","state":"8e87c29a-5b92-4c4e-9f77-f62beec3bb05","stateCode":"21","latitude":"36.73944000","longitude":"7.10528000"},{"id":"1b45bae2-3fea-4e0d-bcfc-56f839645b24","name":"Karkira","ru":"Karkira","country":"86e0dbbc-cd87-4803-82b8-1fe497671ae6","countryCode":"DZ","state":"8e87c29a-5b92-4c4e-9f77-f62beec3bb05","stateCode":"21","latitude":"36.92917000","longitude":"6.58556000"},{"id":"0f09842c-6acb-45ac-90af-832c56d1929b","name":"Skikda","ru":"Skikda","country":"86e0dbbc-cd87-4803-82b8-1fe497671ae6","countryCode":"DZ","state":"8e87c29a-5b92-4c4e-9f77-f62beec3bb05","stateCode":"21","latitude":"36.87617000","longitude":"6.90921000"},{"id":"439a4d80-b8b1-41ea-ae01-3c9121287a2a","name":"Tamalous","ru":"Tamalous","country":"86e0dbbc-cd87-4803-82b8-1fe497671ae6","countryCode":"DZ","state":"8e87c29a-5b92-4c4e-9f77-f62beec3bb05","stateCode":"21","latitude":"36.83763000","longitude":"6.64018000"},{"id":"db4cef98-eb86-46ab-a5f1-9fc0bf701d7b","name":"Sedrata","ru":"Sedrata","country":"86e0dbbc-cd87-4803-82b8-1fe497671ae6","countryCode":"DZ","state":"becd04ef-ea5c-4707-8ecb-7e194865a2c6","stateCode":"41","latitude":"36.12868000","longitude":"7.53376000"},{"id":"3657ecec-f670-4d3c-bcc6-4a19e65db680","name":"Souk Ahras","ru":"Souk Ahras","country":"86e0dbbc-cd87-4803-82b8-1fe497671ae6","countryCode":"DZ","state":"becd04ef-ea5c-4707-8ecb-7e194865a2c6","stateCode":"41","latitude":"36.28639000","longitude":"7.95111000"},{"id":"b47b818a-f354-4ea7-8ee6-9abbb3d0b42b","name":"I-n-Salah","ru":"I-n-Salah","country":"86e0dbbc-cd87-4803-82b8-1fe497671ae6","countryCode":"DZ","state":"e3b4e883-c143-428e-8fa4-17ef42ac077d","stateCode":"11","latitude":"27.19351000","longitude":"2.46069000"},{"id":"05f80dec-d377-4a51-9f41-a3ca73653453","name":"Tamanrasset","ru":"Tamanrasset","country":"86e0dbbc-cd87-4803-82b8-1fe497671ae6","countryCode":"DZ","state":"e3b4e883-c143-428e-8fa4-17ef42ac077d","stateCode":"11","latitude":"22.78500000","longitude":"5.52278000"},{"id":"704ee07a-6c8c-4001-9c66-bcfeeef94ef4","name":"Bir el Ater","ru":"Bir el Ater","country":"86e0dbbc-cd87-4803-82b8-1fe497671ae6","countryCode":"DZ","state":"c93b7fd6-4cba-459d-b9c2-c4c4d1ff295b","stateCode":"12","latitude":"34.74488000","longitude":"8.06024000"},{"id":"edfc04dd-69c4-405a-a32f-7ab62069a174","name":"Cheria","ru":"Cheria","country":"86e0dbbc-cd87-4803-82b8-1fe497671ae6","countryCode":"DZ","state":"c93b7fd6-4cba-459d-b9c2-c4c4d1ff295b","stateCode":"12","latitude":"35.27306000","longitude":"7.75194000"},{"id":"4e441958-57f3-4091-bb2f-a3a6df35d2ac","name":"Hammamet","ru":"Hammamet","country":"86e0dbbc-cd87-4803-82b8-1fe497671ae6","countryCode":"DZ","state":"c93b7fd6-4cba-459d-b9c2-c4c4d1ff295b","stateCode":"12","latitude":"35.44862000","longitude":"7.95184000"},{"id":"b29ccebf-3f84-407e-be64-b93890412954","name":"Tébessa","ru":"Tébessa","country":"86e0dbbc-cd87-4803-82b8-1fe497671ae6","countryCode":"DZ","state":"c93b7fd6-4cba-459d-b9c2-c4c4d1ff295b","stateCode":"12","latitude":"35.40417000","longitude":"8.12417000"},{"id":"37e95e0a-ebf1-4984-8341-be79079a5228","name":"’Aïn Deheb","ru":"’Aïn Deheb","country":"86e0dbbc-cd87-4803-82b8-1fe497671ae6","countryCode":"DZ","state":"76844aae-54a3-42cc-a734-37f864477095","stateCode":"14","latitude":"34.84218000","longitude":"1.54697000"},{"id":"e1897bf2-03a1-461c-abd6-2207f8937256","name":"Djebilet Rosfa","ru":"Djebilet Rosfa","country":"86e0dbbc-cd87-4803-82b8-1fe497671ae6","countryCode":"DZ","state":"76844aae-54a3-42cc-a734-37f864477095","stateCode":"14","latitude":"34.86375000","longitude":"0.83496000"},{"id":"7970bfd4-ac67-4894-9bb6-484fbbbed36b","name":"Frenda","ru":"Frenda","country":"86e0dbbc-cd87-4803-82b8-1fe497671ae6","countryCode":"DZ","state":"76844aae-54a3-42cc-a734-37f864477095","stateCode":"14","latitude":"35.06544000","longitude":"1.04945000"},{"id":"15987c03-0f81-4599-83be-c8764ab1e723","name":"Ksar Chellala","ru":"Ksar Chellala","country":"86e0dbbc-cd87-4803-82b8-1fe497671ae6","countryCode":"DZ","state":"76844aae-54a3-42cc-a734-37f864477095","stateCode":"14","latitude":"35.21222000","longitude":"2.31889000"},{"id":"0fb2d37d-ecc3-4620-b0aa-5f92c6c8a028","name":"Mehdia daira de meghila","ru":"Mehdia daira de meghila","country":"86e0dbbc-cd87-4803-82b8-1fe497671ae6","countryCode":"DZ","state":"76844aae-54a3-42cc-a734-37f864477095","stateCode":"14","latitude":"35.43058000","longitude":"1.75714000"},{"id":"9185cfe3-1b1e-42bb-9432-6b0da32ecb4b","name":"Sougueur","ru":"Sougueur","country":"86e0dbbc-cd87-4803-82b8-1fe497671ae6","countryCode":"DZ","state":"76844aae-54a3-42cc-a734-37f864477095","stateCode":"14","latitude":"35.18568000","longitude":"1.49612000"},{"id":"a18c19ba-8d25-4dbd-bc19-c929d101d087","name":"Tiaret","ru":"Tiaret","country":"86e0dbbc-cd87-4803-82b8-1fe497671ae6","countryCode":"DZ","state":"76844aae-54a3-42cc-a734-37f864477095","stateCode":"14","latitude":"35.37103000","longitude":"1.31699000"},{"id":"6f9b58ab-5ed8-48d4-820d-3a6535390474","name":"Tindouf","ru":"Tindouf","country":"86e0dbbc-cd87-4803-82b8-1fe497671ae6","countryCode":"DZ","state":"d9cb1c9f-656a-4dfe-89a3-9b9b1ec4e315","stateCode":"37","latitude":"27.67111000","longitude":"-8.14743000"},{"id":"3f886362-195e-4370-b55e-57aba1bc177f","name":"’Aïn Benian","ru":"’Aïn Benian","country":"86e0dbbc-cd87-4803-82b8-1fe497671ae6","countryCode":"DZ","state":"10853f34-1f27-4929-8e68-bbe3e2edcfb2","stateCode":"42","latitude":"36.80277000","longitude":"2.92185000"},{"id":"e6fc3f1d-6a19-4709-80b8-bc4cf0a385a4","name":"Baraki","ru":"Baraki","country":"86e0dbbc-cd87-4803-82b8-1fe497671ae6","countryCode":"DZ","state":"10853f34-1f27-4929-8e68-bbe3e2edcfb2","stateCode":"42","latitude":"36.66655000","longitude":"3.09606000"},{"id":"51442071-fa84-4781-b340-e0683b1b53d7","name":"Bou Ismaïl","ru":"Bou Ismaïl","country":"86e0dbbc-cd87-4803-82b8-1fe497671ae6","countryCode":"DZ","state":"10853f34-1f27-4929-8e68-bbe3e2edcfb2","stateCode":"42","latitude":"36.64262000","longitude":"2.69007000"},{"id":"c9060612-2a74-47c3-a50b-b6b9128597cb","name":"Cheraga","ru":"Cheraga","country":"86e0dbbc-cd87-4803-82b8-1fe497671ae6","countryCode":"DZ","state":"10853f34-1f27-4929-8e68-bbe3e2edcfb2","stateCode":"42","latitude":"36.76775000","longitude":"2.95924000"},{"id":"414a77f4-cb34-4245-9f10-bb09501973c1","name":"Douera","ru":"Douera","country":"86e0dbbc-cd87-4803-82b8-1fe497671ae6","countryCode":"DZ","state":"10853f34-1f27-4929-8e68-bbe3e2edcfb2","stateCode":"42","latitude":"36.67000000","longitude":"2.94444000"},{"id":"83159ae1-54f0-4ace-ace3-654f6d7908f1","name":"El Affroun","ru":"El Affroun","country":"86e0dbbc-cd87-4803-82b8-1fe497671ae6","countryCode":"DZ","state":"10853f34-1f27-4929-8e68-bbe3e2edcfb2","stateCode":"42","latitude":"36.47010000","longitude":"2.62528000"},{"id":"7e6fb5cc-657d-43c8-901c-fec62a361134","name":"Hadjout","ru":"Hadjout","country":"86e0dbbc-cd87-4803-82b8-1fe497671ae6","countryCode":"DZ","state":"10853f34-1f27-4929-8e68-bbe3e2edcfb2","stateCode":"42","latitude":"36.51257000","longitude":"2.41382000"},{"id":"ea8fa368-4e72-4b07-9f95-628583e34f8b","name":"Kolea","ru":"Kolea","country":"86e0dbbc-cd87-4803-82b8-1fe497671ae6","countryCode":"DZ","state":"10853f34-1f27-4929-8e68-bbe3e2edcfb2","stateCode":"42","latitude":"36.63888000","longitude":"2.76845000"},{"id":"c370bcde-1d15-4b21-88a2-6ba9a99a3348","name":"Mouzaïa","ru":"Mouzaïa","country":"86e0dbbc-cd87-4803-82b8-1fe497671ae6","countryCode":"DZ","state":"10853f34-1f27-4929-8e68-bbe3e2edcfb2","stateCode":"42","latitude":"36.46695000","longitude":"2.68991000"},{"id":"9d19f1d9-b939-46b7-9d08-949044e5fe37","name":"Oued el Alleug","ru":"Oued el Alleug","country":"86e0dbbc-cd87-4803-82b8-1fe497671ae6","countryCode":"DZ","state":"10853f34-1f27-4929-8e68-bbe3e2edcfb2","stateCode":"42","latitude":"36.55528000","longitude":"2.79028000"},{"id":"9dc4dff7-9ce0-4092-bca3-9d5e2b0b6d4f","name":"Saoula","ru":"Saoula","country":"86e0dbbc-cd87-4803-82b8-1fe497671ae6","countryCode":"DZ","state":"10853f34-1f27-4929-8e68-bbe3e2edcfb2","stateCode":"42","latitude":"36.70456000","longitude":"3.02462000"},{"id":"13bf7644-4b81-4263-aea2-e9e5eeb7fc12","name":"Tipasa","ru":"Tipasa","country":"86e0dbbc-cd87-4803-82b8-1fe497671ae6","countryCode":"DZ","state":"10853f34-1f27-4929-8e68-bbe3e2edcfb2","stateCode":"42","latitude":"36.58972000","longitude":"2.44750000"},{"id":"ffcbf0b2-da36-4833-a696-e1be60702f41","name":"Zeralda","ru":"Zeralda","country":"86e0dbbc-cd87-4803-82b8-1fe497671ae6","countryCode":"DZ","state":"10853f34-1f27-4929-8e68-bbe3e2edcfb2","stateCode":"42","latitude":"36.71169000","longitude":"2.84244000"},{"id":"16e55f97-1692-41b5-9986-ea6da4b806b2","name":"Lardjem","ru":"Lardjem","country":"86e0dbbc-cd87-4803-82b8-1fe497671ae6","countryCode":"DZ","state":"68080f11-62a9-43d2-8444-b35ff79ef807","stateCode":"38","latitude":"35.74922000","longitude":"1.54778000"},{"id":"03a9f154-c88c-4218-aeb7-0f74effe7d25","name":"Tissemsilt","ru":"Tissemsilt","country":"86e0dbbc-cd87-4803-82b8-1fe497671ae6","countryCode":"DZ","state":"68080f11-62a9-43d2-8444-b35ff79ef807","stateCode":"38","latitude":"35.60722000","longitude":"1.81081000"},{"id":"d419a6b0-7f1f-4218-a491-f640b08a0084","name":"Arhribs","ru":"Arhribs","country":"86e0dbbc-cd87-4803-82b8-1fe497671ae6","countryCode":"DZ","state":"de16c0cd-b728-412a-8b16-9a85d8137842","stateCode":"15","latitude":"36.79361000","longitude":"4.31158000"},{"id":"1eb0a1dc-7095-45b8-a5e7-a9f8125dddef","name":"Azazga","ru":"Azazga","country":"86e0dbbc-cd87-4803-82b8-1fe497671ae6","countryCode":"DZ","state":"de16c0cd-b728-412a-8b16-9a85d8137842","stateCode":"15","latitude":"36.74472000","longitude":"4.37222000"},{"id":"80346447-7d7b-412c-aa3c-84a539997c98","name":"’Aïn el Hammam","ru":"’Aïn el Hammam","country":"86e0dbbc-cd87-4803-82b8-1fe497671ae6","countryCode":"DZ","state":"de16c0cd-b728-412a-8b16-9a85d8137842","stateCode":"15","latitude":"36.56471000","longitude":"4.30619000"},{"id":"af08955e-f72d-46b9-b2ac-db353fd7e416","name":"Beni Douala","ru":"Beni Douala","country":"86e0dbbc-cd87-4803-82b8-1fe497671ae6","countryCode":"DZ","state":"de16c0cd-b728-412a-8b16-9a85d8137842","stateCode":"15","latitude":"36.61954000","longitude":"4.08282000"},{"id":"47183de3-5845-4aa7-9ff7-6d79ea2377e1","name":"Boghni","ru":"Boghni","country":"86e0dbbc-cd87-4803-82b8-1fe497671ae6","countryCode":"DZ","state":"de16c0cd-b728-412a-8b16-9a85d8137842","stateCode":"15","latitude":"36.54222000","longitude":"3.95306000"},{"id":"abcd23e9-b258-482e-9d06-dd9604be7246","name":"Boudjima","ru":"Boudjima","country":"86e0dbbc-cd87-4803-82b8-1fe497671ae6","countryCode":"DZ","state":"de16c0cd-b728-412a-8b16-9a85d8137842","stateCode":"15","latitude":"36.80218000","longitude":"4.15187000"},{"id":"814604d8-9da0-46dc-9b94-e3da00a128b9","name":"Chemini","ru":"Chemini","country":"86e0dbbc-cd87-4803-82b8-1fe497671ae6","countryCode":"DZ","state":"de16c0cd-b728-412a-8b16-9a85d8137842","stateCode":"15","latitude":"36.60000000","longitude":"4.61667000"},{"id":"e9a4c3d1-2c51-41b6-a986-1acabaff18d5","name":"Draa Ben Khedda","ru":"Draa Ben Khedda","country":"86e0dbbc-cd87-4803-82b8-1fe497671ae6","countryCode":"DZ","state":"de16c0cd-b728-412a-8b16-9a85d8137842","stateCode":"15","latitude":"36.73436000","longitude":"3.96223000"},{"id":"01ee6e52-5971-432b-b3a5-b05c093cc53a","name":"Freha","ru":"Freha","country":"86e0dbbc-cd87-4803-82b8-1fe497671ae6","countryCode":"DZ","state":"de16c0cd-b728-412a-8b16-9a85d8137842","stateCode":"15","latitude":"36.75234000","longitude":"4.31550000"},{"id":"55014ed3-eca0-429e-b175-88bfafab0b63","name":"Ighram","ru":"Ighram","country":"86e0dbbc-cd87-4803-82b8-1fe497671ae6","countryCode":"DZ","state":"de16c0cd-b728-412a-8b16-9a85d8137842","stateCode":"15","latitude":"36.46295000","longitude":"4.50532000"},{"id":"d5bf44a1-fefa-4562-9615-88f91a19dcae","name":"L’Arbaa Naït Irathen","ru":"L’Arbaa Naït Irathen","country":"86e0dbbc-cd87-4803-82b8-1fe497671ae6","countryCode":"DZ","state":"de16c0cd-b728-412a-8b16-9a85d8137842","stateCode":"15","latitude":"36.63112000","longitude":"4.19864000"},{"id":"9e00fa36-87e6-4888-8a68-c3d112c4f5d8","name":"Mekla","ru":"Mekla","country":"86e0dbbc-cd87-4803-82b8-1fe497671ae6","countryCode":"DZ","state":"de16c0cd-b728-412a-8b16-9a85d8137842","stateCode":"15","latitude":"36.68178000","longitude":"4.26378000"},{"id":"888f481f-5b73-4a36-8f6c-2f662159205d","name":"Timizart","ru":"Timizart","country":"86e0dbbc-cd87-4803-82b8-1fe497671ae6","countryCode":"DZ","state":"de16c0cd-b728-412a-8b16-9a85d8137842","stateCode":"15","latitude":"36.80000000","longitude":"4.26667000"},{"id":"c973cf47-dc95-4d65-9d23-114f6264f989","name":"Tirmitine","ru":"Tirmitine","country":"86e0dbbc-cd87-4803-82b8-1fe497671ae6","countryCode":"DZ","state":"de16c0cd-b728-412a-8b16-9a85d8137842","stateCode":"15","latitude":"36.65393000","longitude":"3.98143000"},{"id":"9bc8f9a0-5b1d-464a-bebb-26f0d0b86ff9","name":"Tizi Ouzou","ru":"Tizi Ouzou","country":"86e0dbbc-cd87-4803-82b8-1fe497671ae6","countryCode":"DZ","state":"de16c0cd-b728-412a-8b16-9a85d8137842","stateCode":"15","latitude":"36.71182000","longitude":"4.04591000"},{"id":"b1cf5e15-6e9a-4371-8a80-d6290627a0c9","name":"Tizi Rached","ru":"Tizi Rached","country":"86e0dbbc-cd87-4803-82b8-1fe497671ae6","countryCode":"DZ","state":"de16c0cd-b728-412a-8b16-9a85d8137842","stateCode":"15","latitude":"36.67176000","longitude":"4.19176000"},{"id":"b8b02d0a-5811-4dc6-9c0e-6cee451d7f6d","name":"Tizi-n-Tleta","ru":"Tizi-n-Tleta","country":"86e0dbbc-cd87-4803-82b8-1fe497671ae6","countryCode":"DZ","state":"de16c0cd-b728-412a-8b16-9a85d8137842","stateCode":"15","latitude":"36.54569000","longitude":"4.05712000"},{"id":"c025bfbb-428d-4f60-ae8c-061b7fd86528","name":"Beni Mester","ru":"Beni Mester","country":"86e0dbbc-cd87-4803-82b8-1fe497671ae6","countryCode":"DZ","state":"bbdf7b03-1bec-4ae2-8f3f-c20901193f04","stateCode":"13","latitude":"34.87045000","longitude":"-1.42319000"},{"id":"b6c1a090-18bb-443d-899b-0ab8a2bb3c85","name":"Bensekrane","ru":"Bensekrane","country":"86e0dbbc-cd87-4803-82b8-1fe497671ae6","countryCode":"DZ","state":"bbdf7b03-1bec-4ae2-8f3f-c20901193f04","stateCode":"13","latitude":"35.07465000","longitude":"-1.22431000"},{"id":"2d44a8f6-9b9a-48b4-b720-367df02fcf93","name":"Chetouane","ru":"Chetouane","country":"86e0dbbc-cd87-4803-82b8-1fe497671ae6","countryCode":"DZ","state":"bbdf7b03-1bec-4ae2-8f3f-c20901193f04","stateCode":"13","latitude":"34.92129000","longitude":"-1.29512000"},{"id":"64230f45-f06a-4b3c-a3a5-fabd8942dbd3","name":"Hennaya","ru":"Hennaya","country":"86e0dbbc-cd87-4803-82b8-1fe497671ae6","countryCode":"DZ","state":"bbdf7b03-1bec-4ae2-8f3f-c20901193f04","stateCode":"13","latitude":"34.95139000","longitude":"-1.36806000"},{"id":"700b9ed3-83d7-4fff-a783-8e5a8d148d7a","name":"Mansoûra","ru":"Mansoûra","country":"86e0dbbc-cd87-4803-82b8-1fe497671ae6","countryCode":"DZ","state":"bbdf7b03-1bec-4ae2-8f3f-c20901193f04","stateCode":"13","latitude":"34.86158000","longitude":"-1.33935000"},{"id":"bd870845-df9a-424e-a437-c3b8bc074635","name":"Nedroma","ru":"Nedroma","country":"86e0dbbc-cd87-4803-82b8-1fe497671ae6","countryCode":"DZ","state":"bbdf7b03-1bec-4ae2-8f3f-c20901193f04","stateCode":"13","latitude":"35.01361000","longitude":"-1.74799000"},{"id":"fa601fdd-43b7-4b42-a3f4-6a696984cde2","name":"Ouled Mimoun","ru":"Ouled Mimoun","country":"86e0dbbc-cd87-4803-82b8-1fe497671ae6","countryCode":"DZ","state":"bbdf7b03-1bec-4ae2-8f3f-c20901193f04","stateCode":"13","latitude":"34.90472000","longitude":"-1.03394000"},{"id":"f9888572-f4e3-45b2-a4a5-832d08081b2e","name":"Remchi","ru":"Remchi","country":"86e0dbbc-cd87-4803-82b8-1fe497671ae6","countryCode":"DZ","state":"bbdf7b03-1bec-4ae2-8f3f-c20901193f04","stateCode":"13","latitude":"35.06196000","longitude":"-1.43362000"},{"id":"983d8d8a-669e-4006-92bb-2c8307cb03ca","name":"Sebdou","ru":"Sebdou","country":"86e0dbbc-cd87-4803-82b8-1fe497671ae6","countryCode":"DZ","state":"bbdf7b03-1bec-4ae2-8f3f-c20901193f04","stateCode":"13","latitude":"34.63703000","longitude":"-1.33143000"},{"id":"53cf9ea8-40a5-4020-8f73-46402e03a5a8","name":"Sidi Abdelli","ru":"Sidi Abdelli","country":"86e0dbbc-cd87-4803-82b8-1fe497671ae6","countryCode":"DZ","state":"bbdf7b03-1bec-4ae2-8f3f-c20901193f04","stateCode":"13","latitude":"35.06937000","longitude":"-1.13706000"},{"id":"0718db5b-38e4-407f-96d6-919b6d8d9520","name":"Sidi Senoussi سيدي سنوسي","ru":"Sidi Senoussi سيدي سنوسي","country":"86e0dbbc-cd87-4803-82b8-1fe497671ae6","countryCode":"DZ","state":"bbdf7b03-1bec-4ae2-8f3f-c20901193f04","stateCode":"13","latitude":"34.99691000","longitude":"-1.09449000"},{"id":"6b8a8868-cdc9-4e79-b7ba-9434e22a82fb","name":"Tlemcen","ru":"Tlemcen","country":"86e0dbbc-cd87-4803-82b8-1fe497671ae6","countryCode":"DZ","state":"bbdf7b03-1bec-4ae2-8f3f-c20901193f04","stateCode":"13","latitude":"34.87833000","longitude":"-1.31500000"}]