[{"id":"794a4708-5a3c-4dfe-a247-a9485585a5e3","name":"Sokodé","ru":"Sokodé","country":"a09cf2a7-d920-4f47-b42f-1a0c07995f01","countryCode":"TG","state":"19a8ab7f-6405-4079-9852-ba2278358129","stateCode":"C","latitude":"8.98333000","longitude":"1.13333000"},{"id":"819338cb-f417-47e0-8d14-8ef74fac88bd","name":"Sotouboua","ru":"Sotouboua","country":"a09cf2a7-d920-4f47-b42f-1a0c07995f01","countryCode":"TG","state":"19a8ab7f-6405-4079-9852-ba2278358129","stateCode":"C","latitude":"8.56340000","longitude":"0.98399000"},{"id":"32f21faa-6477-428d-9a2f-2da662236ef1","name":"Tchamba","ru":"Tchamba","country":"a09cf2a7-d920-4f47-b42f-1a0c07995f01","countryCode":"TG","state":"19a8ab7f-6405-4079-9852-ba2278358129","stateCode":"C","latitude":"9.03333000","longitude":"1.41667000"},{"id":"f55209e7-fc1a-4658-b2c0-9eb838fe2c02","name":"Bafilo","ru":"Bafilo","country":"a09cf2a7-d920-4f47-b42f-1a0c07995f01","countryCode":"TG","state":"840c190c-35fc-42dd-b5da-e0934b6e545e","stateCode":"K","latitude":"9.35000000","longitude":"1.26667000"},{"id":"83a1feaa-1637-4755-bd85-90ebcad43c02","name":"Bassar","ru":"Bassar","country":"a09cf2a7-d920-4f47-b42f-1a0c07995f01","countryCode":"TG","state":"840c190c-35fc-42dd-b5da-e0934b6e545e","stateCode":"K","latitude":"9.25025000","longitude":"0.78213000"},{"id":"0a7eaf07-0302-48f8-917d-4220b956ef2e","name":"Kandé","ru":"Kandé","country":"a09cf2a7-d920-4f47-b42f-1a0c07995f01","countryCode":"TG","state":"840c190c-35fc-42dd-b5da-e0934b6e545e","stateCode":"K","latitude":"9.95778000","longitude":"1.04472000"},{"id":"472d53a5-0c46-4874-98e9-9e2bcbe12dd9","name":"Kara","ru":"Kara","country":"a09cf2a7-d920-4f47-b42f-1a0c07995f01","countryCode":"TG","state":"840c190c-35fc-42dd-b5da-e0934b6e545e","stateCode":"K","latitude":"9.55111000","longitude":"1.18611000"},{"id":"2b6fc62c-edc9-4799-9c88-3e25739fab96","name":"Niamtougou","ru":"Niamtougou","country":"a09cf2a7-d920-4f47-b42f-1a0c07995f01","countryCode":"TG","state":"840c190c-35fc-42dd-b5da-e0934b6e545e","stateCode":"K","latitude":"9.76806000","longitude":"1.10528000"},{"id":"1aed3d05-c8f4-47cc-87a6-13d312d1e4d7","name":"Pagouda","ru":"Pagouda","country":"a09cf2a7-d920-4f47-b42f-1a0c07995f01","countryCode":"TG","state":"840c190c-35fc-42dd-b5da-e0934b6e545e","stateCode":"K","latitude":"9.75250000","longitude":"1.32778000"},{"id":"d8d98aae-a16d-4489-8d20-0bb118270d16","name":"Préfecture de Bassar","ru":"Préfecture de Bassar","country":"a09cf2a7-d920-4f47-b42f-1a0c07995f01","countryCode":"TG","state":"840c190c-35fc-42dd-b5da-e0934b6e545e","stateCode":"K","latitude":"9.25000000","longitude":"0.75000000"},{"id":"ba1871bb-b607-4193-848f-3b5832b3d07b","name":"Aného","ru":"Aného","country":"a09cf2a7-d920-4f47-b42f-1a0c07995f01","countryCode":"TG","state":"285d2b63-91ef-45ee-8ce5-07b5eafc1b8b","stateCode":"M","latitude":"6.22798000","longitude":"1.59190000"},{"id":"26a100a1-cd06-4491-bf8b-e5aba5a53ee8","name":"Lomé","ru":"Lomé","country":"a09cf2a7-d920-4f47-b42f-1a0c07995f01","countryCode":"TG","state":"285d2b63-91ef-45ee-8ce5-07b5eafc1b8b","stateCode":"M","latitude":"6.12874000","longitude":"1.22154000"},{"id":"9b6ae673-aac5-4f86-b57f-8668db071cb1","name":"Tabligbo","ru":"Tabligbo","country":"a09cf2a7-d920-4f47-b42f-1a0c07995f01","countryCode":"TG","state":"285d2b63-91ef-45ee-8ce5-07b5eafc1b8b","stateCode":"M","latitude":"6.58333000","longitude":"1.50000000"},{"id":"5a27ed29-a830-46c6-8af4-ab3c24e8634c","name":"Tsévié","ru":"Tsévié","country":"a09cf2a7-d920-4f47-b42f-1a0c07995f01","countryCode":"TG","state":"285d2b63-91ef-45ee-8ce5-07b5eafc1b8b","stateCode":"M","latitude":"6.42611000","longitude":"1.21333000"},{"id":"89a47369-e41f-40a5-aa0a-f57525347a62","name":"Vogan","ru":"Vogan","country":"a09cf2a7-d920-4f47-b42f-1a0c07995f01","countryCode":"TG","state":"285d2b63-91ef-45ee-8ce5-07b5eafc1b8b","stateCode":"M","latitude":"6.33333000","longitude":"1.53333000"},{"id":"3b0f47d3-9b5f-4536-9d57-80d726059f9b","name":"Amlamé","ru":"Amlamé","country":"a09cf2a7-d920-4f47-b42f-1a0c07995f01","countryCode":"TG","state":"e05956b9-ab20-47d1-a36b-809523247eab","stateCode":"P","latitude":"7.46667000","longitude":"0.90000000"},{"id":"63e836a2-9c94-4630-a6f7-e7bf14133940","name":"Atakpamé","ru":"Atakpamé","country":"a09cf2a7-d920-4f47-b42f-1a0c07995f01","countryCode":"TG","state":"e05956b9-ab20-47d1-a36b-809523247eab","stateCode":"P","latitude":"7.53333000","longitude":"1.13333000"},{"id":"54090ee7-610d-4c6d-9404-e66ef61e27f2","name":"Badou","ru":"Badou","country":"a09cf2a7-d920-4f47-b42f-1a0c07995f01","countryCode":"TG","state":"e05956b9-ab20-47d1-a36b-809523247eab","stateCode":"P","latitude":"7.58333000","longitude":"0.60000000"},{"id":"6a33e2bd-076d-4353-9521-55285761c873","name":"Kpalimé","ru":"Kpalimé","country":"a09cf2a7-d920-4f47-b42f-1a0c07995f01","countryCode":"TG","state":"e05956b9-ab20-47d1-a36b-809523247eab","stateCode":"P","latitude":"6.90000000","longitude":"0.63333000"},{"id":"1134374b-6bfd-4725-bdbd-6c6a2bba6f46","name":"Notsé","ru":"Notsé","country":"a09cf2a7-d920-4f47-b42f-1a0c07995f01","countryCode":"TG","state":"e05956b9-ab20-47d1-a36b-809523247eab","stateCode":"P","latitude":"6.95000000","longitude":"1.16667000"},{"id":"441514d2-efe4-4b6e-8218-c6e4da79eea9","name":"Dapaong","ru":"Dapaong","country":"a09cf2a7-d920-4f47-b42f-1a0c07995f01","countryCode":"TG","state":"ad959cec-6d78-4588-ad6d-d553c0aff07c","stateCode":"S","latitude":"10.86225000","longitude":"0.20762000"},{"id":"b876c789-bb43-47d4-99ba-21be22f53f2c","name":"Sansanné-Mango","ru":"Sansanné-Mango","country":"a09cf2a7-d920-4f47-b42f-1a0c07995f01","countryCode":"TG","state":"ad959cec-6d78-4588-ad6d-d553c0aff07c","stateCode":"S","latitude":"10.35917000","longitude":"0.47083000"}]