[{"id":"2b774c22-1b4b-4f3a-971d-76fb238e9dbe","name":"Almirante","ru":"Almirante","country":"4438d8f1-8026-441f-99aa-fe04a23b2a63","countryCode":"PA","state":"94a21f8d-8753-4de8-93fd-65969fa3a156","stateCode":"1","latitude":"9.30091000","longitude":"-82.40180000"},{"id":"cb95a8e3-15ef-4900-a666-8bc1ada07876","name":"Barranco","ru":"Barranco","country":"4438d8f1-8026-441f-99aa-fe04a23b2a63","countryCode":"PA","state":"94a21f8d-8753-4de8-93fd-65969fa3a156","stateCode":"1","latitude":"9.51984000","longitude":"-82.70424000"},{"id":"3080dc41-36a1-4291-9bbc-74d9172d389d","name":"Barranco Adentro","ru":"Barranco Adentro","country":"4438d8f1-8026-441f-99aa-fe04a23b2a63","countryCode":"PA","state":"94a21f8d-8753-4de8-93fd-65969fa3a156","stateCode":"1","latitude":"9.52757000","longitude":"-82.73344000"},{"id":"5ca36553-3245-41e1-b3bc-c66e625023d7","name":"Bastimentos","ru":"Bastimentos","country":"4438d8f1-8026-441f-99aa-fe04a23b2a63","countryCode":"PA","state":"94a21f8d-8753-4de8-93fd-65969fa3a156","stateCode":"1","latitude":"9.34707000","longitude":"-82.20880000"},{"id":"7bea4bba-e317-482a-83f9-154b15bdd0f0","name":"Bocas del Toro","ru":"Bocas del Toro","country":"4438d8f1-8026-441f-99aa-fe04a23b2a63","countryCode":"PA","state":"94a21f8d-8753-4de8-93fd-65969fa3a156","stateCode":"1","latitude":"9.34031000","longitude":"-82.24204000"},{"id":"6d91c734-d190-4d61-81f0-889281805643","name":"Cauchero","ru":"Cauchero","country":"4438d8f1-8026-441f-99aa-fe04a23b2a63","countryCode":"PA","state":"94a21f8d-8753-4de8-93fd-65969fa3a156","stateCode":"1","latitude":"9.15226000","longitude":"-82.26450000"},{"id":"3e1e33ea-e480-482d-bc89-bb16c9f9c398","name":"Changuinola","ru":"Changuinola","country":"4438d8f1-8026-441f-99aa-fe04a23b2a63","countryCode":"PA","state":"94a21f8d-8753-4de8-93fd-65969fa3a156","stateCode":"1","latitude":"9.43000000","longitude":"-82.52000000"},{"id":"508827c3-9cc1-4c83-8ace-4faba5784215","name":"Chiriquí Grande","ru":"Chiriquí Grande","country":"4438d8f1-8026-441f-99aa-fe04a23b2a63","countryCode":"PA","state":"94a21f8d-8753-4de8-93fd-65969fa3a156","stateCode":"1","latitude":"8.94557000","longitude":"-82.11769000"},{"id":"be0ad16e-a492-4297-af37-a3628ed257e9","name":"Distrito Chiriquí Grande","ru":"Distrito Chiriquí Grande","country":"4438d8f1-8026-441f-99aa-fe04a23b2a63","countryCode":"PA","state":"94a21f8d-8753-4de8-93fd-65969fa3a156","stateCode":"1","latitude":"8.94748000","longitude":"-82.12418000"},{"id":"d36394e2-da66-4c60-9e09-ab818e76677f","name":"Distrito de Bocas del Toro","ru":"Distrito de Bocas del Toro","country":"4438d8f1-8026-441f-99aa-fe04a23b2a63","countryCode":"PA","state":"94a21f8d-8753-4de8-93fd-65969fa3a156","stateCode":"1","latitude":"9.36235000","longitude":"-82.26288000"},{"id":"c5cbda28-f792-45fe-b408-14b039fb3742","name":"Distrito de Changuinola","ru":"Distrito de Changuinola","country":"4438d8f1-8026-441f-99aa-fe04a23b2a63","countryCode":"PA","state":"94a21f8d-8753-4de8-93fd-65969fa3a156","stateCode":"1","latitude":"9.25000000","longitude":"-82.63333000"},{"id":"4d111c85-ead9-4888-9d54-56e2df9eff04","name":"El Empalme","ru":"El Empalme","country":"4438d8f1-8026-441f-99aa-fe04a23b2a63","countryCode":"PA","state":"94a21f8d-8753-4de8-93fd-65969fa3a156","stateCode":"1","latitude":"9.41667000","longitude":"-82.51667000"},{"id":"9e721149-a9a2-4b7f-a057-4938d4e22d50","name":"El Silencio","ru":"El Silencio","country":"4438d8f1-8026-441f-99aa-fe04a23b2a63","countryCode":"PA","state":"94a21f8d-8753-4de8-93fd-65969fa3a156","stateCode":"1","latitude":"9.37222000","longitude":"-82.52877000"},{"id":"88c16c9b-ab63-4113-a0ee-737d3a0870f7","name":"Guabito","ru":"Guabito","country":"4438d8f1-8026-441f-99aa-fe04a23b2a63","countryCode":"PA","state":"94a21f8d-8753-4de8-93fd-65969fa3a156","stateCode":"1","latitude":"9.48968000","longitude":"-82.61279000"},{"id":"3a2fd2f0-fd69-46a2-8296-2cf157c816a6","name":"Isla Bastimentos","ru":"Isla Bastimentos","country":"4438d8f1-8026-441f-99aa-fe04a23b2a63","countryCode":"PA","state":"94a21f8d-8753-4de8-93fd-65969fa3a156","stateCode":"1","latitude":"9.30000000","longitude":"-82.13333000"},{"id":"1e07a9f1-19b4-4b4c-a41c-bd16a0bfcc53","name":"La Mesa","ru":"La Mesa","country":"4438d8f1-8026-441f-99aa-fe04a23b2a63","countryCode":"PA","state":"94a21f8d-8753-4de8-93fd-65969fa3a156","stateCode":"1","latitude":"9.49587000","longitude":"-82.67534000"},{"id":"c66417ee-8021-4188-b4f4-52c4b079d978","name":"Miramar","ru":"Miramar","country":"4438d8f1-8026-441f-99aa-fe04a23b2a63","countryCode":"PA","state":"94a21f8d-8753-4de8-93fd-65969fa3a156","stateCode":"1","latitude":"8.99482000","longitude":"-82.24147000"},{"id":"8fb262ab-23bf-4f6d-8f75-a8c61c50464c","name":"Punta Laurel","ru":"Punta Laurel","country":"4438d8f1-8026-441f-99aa-fe04a23b2a63","countryCode":"PA","state":"94a21f8d-8753-4de8-93fd-65969fa3a156","stateCode":"1","latitude":"9.14100000","longitude":"-82.12717000"},{"id":"75de9246-3c72-42df-b025-01b1725d5cf3","name":"Punta Peña","ru":"Punta Peña","country":"4438d8f1-8026-441f-99aa-fe04a23b2a63","countryCode":"PA","state":"94a21f8d-8753-4de8-93fd-65969fa3a156","stateCode":"1","latitude":"8.91659000","longitude":"-82.18488000"},{"id":"09e38075-d605-4a06-835d-83d2180bcc98","name":"Punta Róbalo","ru":"Punta Róbalo","country":"4438d8f1-8026-441f-99aa-fe04a23b2a63","countryCode":"PA","state":"94a21f8d-8753-4de8-93fd-65969fa3a156","stateCode":"1","latitude":"9.03631000","longitude":"-82.24952000"},{"id":"cd91d10b-e8e9-4e4a-a341-299d5ae0224e","name":"Valle del Risco","ru":"Valle del Risco","country":"4438d8f1-8026-441f-99aa-fe04a23b2a63","countryCode":"PA","state":"94a21f8d-8753-4de8-93fd-65969fa3a156","stateCode":"1","latitude":"9.23064000","longitude":"-82.42748000"},{"id":"4a471709-348c-43ed-b42c-d2a69706e9b4","name":"Alanje","ru":"Alanje","country":"4438d8f1-8026-441f-99aa-fe04a23b2a63","countryCode":"PA","state":"677736d2-83f4-42b0-8fe3-e586ce58f284","stateCode":"4","latitude":"8.39791000","longitude":"-82.55947000"},{"id":"61ace654-fd67-4e2a-8173-d6b409a33722","name":"Algarrobos Arriba","ru":"Algarrobos Arriba","country":"4438d8f1-8026-441f-99aa-fe04a23b2a63","countryCode":"PA","state":"677736d2-83f4-42b0-8fe3-e586ce58f284","stateCode":"4","latitude":"8.51550000","longitude":"-82.42263000"},{"id":"7b98a7a7-33b4-44f3-8412-27d447c25f5a","name":"Alto Boquete","ru":"Alto Boquete","country":"4438d8f1-8026-441f-99aa-fe04a23b2a63","countryCode":"PA","state":"677736d2-83f4-42b0-8fe3-e586ce58f284","stateCode":"4","latitude":"8.73458000","longitude":"-82.43213000"},{"id":"85edf5ce-14af-4480-b9ee-9c203666838a","name":"Aserrío de Gariché","ru":"Aserrío de Gariché","country":"4438d8f1-8026-441f-99aa-fe04a23b2a63","countryCode":"PA","state":"677736d2-83f4-42b0-8fe3-e586ce58f284","stateCode":"4","latitude":"8.48257000","longitude":"-82.79086000"},{"id":"28c71f0f-c539-4134-9266-9232745f2502","name":"Bajo Boquete","ru":"Bajo Boquete","country":"4438d8f1-8026-441f-99aa-fe04a23b2a63","countryCode":"PA","state":"677736d2-83f4-42b0-8fe3-e586ce58f284","stateCode":"4","latitude":"8.77058000","longitude":"-82.43306000"},{"id":"99bf3046-d414-4c5f-8d2f-4dd870d24656","name":"Barrio Guadalupe","ru":"Barrio Guadalupe","country":"4438d8f1-8026-441f-99aa-fe04a23b2a63","countryCode":"PA","state":"677736d2-83f4-42b0-8fe3-e586ce58f284","stateCode":"4","latitude":"8.86482000","longitude":"-82.56523000"},{"id":"3a18e384-1fd3-4888-a528-6dab9ed482f3","name":"Bágala","ru":"Bágala","country":"4438d8f1-8026-441f-99aa-fe04a23b2a63","countryCode":"PA","state":"677736d2-83f4-42b0-8fe3-e586ce58f284","stateCode":"4","latitude":"8.46399000","longitude":"-82.52617000"},{"id":"2095dcec-9615-47df-a922-79c3379f0d7e","name":"Bijagual","ru":"Bijagual","country":"4438d8f1-8026-441f-99aa-fe04a23b2a63","countryCode":"PA","state":"677736d2-83f4-42b0-8fe3-e586ce58f284","stateCode":"4","latitude":"8.51486000","longitude":"-82.33361000"},{"id":"b4e96f09-364d-4b41-a0c7-9b34d7671f65","name":"Boca Chica","ru":"Boca Chica","country":"4438d8f1-8026-441f-99aa-fe04a23b2a63","countryCode":"PA","state":"677736d2-83f4-42b0-8fe3-e586ce58f284","stateCode":"4","latitude":"8.21911000","longitude":"-82.21592000"},{"id":"67e9ca9e-0c33-4faa-a147-e6b90cbaf3e5","name":"Boca del Monte","ru":"Boca del Monte","country":"4438d8f1-8026-441f-99aa-fe04a23b2a63","countryCode":"PA","state":"677736d2-83f4-42b0-8fe3-e586ce58f284","stateCode":"4","latitude":"8.35296000","longitude":"-82.11379000"},{"id":"c8a1a13e-44e1-4153-8fd6-3a0722372e28","name":"Boquerón","ru":"Boquerón","country":"4438d8f1-8026-441f-99aa-fe04a23b2a63","countryCode":"PA","state":"677736d2-83f4-42b0-8fe3-e586ce58f284","stateCode":"4","latitude":"8.50510000","longitude":"-82.57025000"},{"id":"20ad4a26-3cac-4173-87c3-922e9aeb53d4","name":"Boquete","ru":"Boquete","country":"4438d8f1-8026-441f-99aa-fe04a23b2a63","countryCode":"PA","state":"677736d2-83f4-42b0-8fe3-e586ce58f284","stateCode":"4","latitude":"8.78024000","longitude":"-82.44136000"},{"id":"3aa3b50d-8ad1-481d-991d-e97dd749b773","name":"Breñón","ru":"Breñón","country":"4438d8f1-8026-441f-99aa-fe04a23b2a63","countryCode":"PA","state":"677736d2-83f4-42b0-8fe3-e586ce58f284","stateCode":"4","latitude":"8.62491000","longitude":"-82.81277000"},{"id":"437a850b-9217-49d5-94be-a6c0518b8c8c","name":"Bugaba","ru":"Bugaba","country":"4438d8f1-8026-441f-99aa-fe04a23b2a63","countryCode":"PA","state":"677736d2-83f4-42b0-8fe3-e586ce58f284","stateCode":"4","latitude":"8.48255000","longitude":"-82.61991000"},{"id":"b999f56c-9f60-4562-ab51-dca7d97aef64","name":"Bugabita Arriba","ru":"Bugabita Arriba","country":"4438d8f1-8026-441f-99aa-fe04a23b2a63","countryCode":"PA","state":"677736d2-83f4-42b0-8fe3-e586ce58f284","stateCode":"4","latitude":"8.52143000","longitude":"-82.63638000"},{"id":"6413c124-6685-4c55-a340-8ed74a16a9dd","name":"Cañas Gordas","ru":"Cañas Gordas","country":"4438d8f1-8026-441f-99aa-fe04a23b2a63","countryCode":"PA","state":"677736d2-83f4-42b0-8fe3-e586ce58f284","stateCode":"4","latitude":"8.74309000","longitude":"-82.91275000"},{"id":"9e998d33-7d35-41be-8756-0f4ebe5c7453","name":"Caimito","ru":"Caimito","country":"4438d8f1-8026-441f-99aa-fe04a23b2a63","countryCode":"PA","state":"677736d2-83f4-42b0-8fe3-e586ce58f284","stateCode":"4","latitude":"8.54162000","longitude":"-82.41900000"},{"id":"41200513-97c6-4010-ade9-710d0062d782","name":"Caldera","ru":"Caldera","country":"4438d8f1-8026-441f-99aa-fe04a23b2a63","countryCode":"PA","state":"677736d2-83f4-42b0-8fe3-e586ce58f284","stateCode":"4","latitude":"8.64907000","longitude":"-82.38058000"},{"id":"91853f7f-3533-4e08-b64f-d88e2a7a922b","name":"Celmira","ru":"Celmira","country":"4438d8f1-8026-441f-99aa-fe04a23b2a63","countryCode":"PA","state":"677736d2-83f4-42b0-8fe3-e586ce58f284","stateCode":"4","latitude":"8.54026000","longitude":"-82.80022000"},{"id":"fa1d8498-5f16-4bf3-a75c-6ad2f27d9cda","name":"Cerro Punta","ru":"Cerro Punta","country":"4438d8f1-8026-441f-99aa-fe04a23b2a63","countryCode":"PA","state":"677736d2-83f4-42b0-8fe3-e586ce58f284","stateCode":"4","latitude":"8.84968000","longitude":"-82.57261000"},{"id":"41ea68de-dd1f-4435-8e70-9dc6e9c67391","name":"Cerro Viejo","ru":"Cerro Viejo","country":"4438d8f1-8026-441f-99aa-fe04a23b2a63","countryCode":"PA","state":"677736d2-83f4-42b0-8fe3-e586ce58f284","stateCode":"4","latitude":"8.25349000","longitude":"-81.57658000"},{"id":"a6816af3-20cf-41cb-8632-552766c49806","name":"Chiriquí","ru":"Chiriquí","country":"4438d8f1-8026-441f-99aa-fe04a23b2a63","countryCode":"PA","state":"677736d2-83f4-42b0-8fe3-e586ce58f284","stateCode":"4","latitude":"8.39291000","longitude":"-82.31993000"},{"id":"cd918729-12e4-4353-ad07-17fde5b09cac","name":"Cochea Abajo","ru":"Cochea Abajo","country":"4438d8f1-8026-441f-99aa-fe04a23b2a63","countryCode":"PA","state":"677736d2-83f4-42b0-8fe3-e586ce58f284","stateCode":"4","latitude":"8.50512000","longitude":"-82.35878000"},{"id":"644827a0-df2d-44dd-a459-265c5d707745","name":"Cordillera","ru":"Cordillera","country":"4438d8f1-8026-441f-99aa-fe04a23b2a63","countryCode":"PA","state":"677736d2-83f4-42b0-8fe3-e586ce58f284","stateCode":"4","latitude":"8.70683000","longitude":"-82.60327000"},{"id":"661c437e-f3ed-4fa0-b9ea-b7436e4f7b91","name":"David","ru":"David","country":"4438d8f1-8026-441f-99aa-fe04a23b2a63","countryCode":"PA","state":"677736d2-83f4-42b0-8fe3-e586ce58f284","stateCode":"4","latitude":"8.42729000","longitude":"-82.43085000"},{"id":"59ae4d96-fbfb-4790-bab0-16aba2ab999a","name":"Distrito de Alanje","ru":"Distrito de Alanje","country":"4438d8f1-8026-441f-99aa-fe04a23b2a63","countryCode":"PA","state":"677736d2-83f4-42b0-8fe3-e586ce58f284","stateCode":"4","latitude":"8.39842000","longitude":"-82.64065000"},{"id":"9244252a-203d-417e-bf55-dd8c886513a0","name":"Distrito de Barú","ru":"Distrito de Barú","country":"4438d8f1-8026-441f-99aa-fe04a23b2a63","countryCode":"PA","state":"677736d2-83f4-42b0-8fe3-e586ce58f284","stateCode":"4","latitude":"8.29482000","longitude":"-82.92726000"},{"id":"25aa54d6-ae61-4112-96bc-34bcabb8014d","name":"Distrito de Boquerón","ru":"Distrito de Boquerón","country":"4438d8f1-8026-441f-99aa-fe04a23b2a63","countryCode":"PA","state":"677736d2-83f4-42b0-8fe3-e586ce58f284","stateCode":"4","latitude":"8.61667000","longitude":"-82.56667000"},{"id":"f29b266c-ec26-413e-83df-4a87533231f9","name":"Distrito de Boquete","ru":"Distrito de Boquete","country":"4438d8f1-8026-441f-99aa-fe04a23b2a63","countryCode":"PA","state":"677736d2-83f4-42b0-8fe3-e586ce58f284","stateCode":"4","latitude":"8.74896000","longitude":"-82.36842000"},{"id":"e125b9c4-9824-4416-85d7-bf51662fcd7a","name":"Distrito de Bugaba","ru":"Distrito de Bugaba","country":"4438d8f1-8026-441f-99aa-fe04a23b2a63","countryCode":"PA","state":"677736d2-83f4-42b0-8fe3-e586ce58f284","stateCode":"4","latitude":"8.68786000","longitude":"-82.67937000"},{"id":"2f33e9bb-a9e4-4c3e-b02d-98a8d1192a9d","name":"Distrito de David","ru":"Distrito de David","country":"4438d8f1-8026-441f-99aa-fe04a23b2a63","countryCode":"PA","state":"677736d2-83f4-42b0-8fe3-e586ce58f284","stateCode":"4","latitude":"8.40000000","longitude":"-82.40000000"},{"id":"84774219-89fe-4efa-97a4-7c49ec4387d3","name":"Distrito de Dolega","ru":"Distrito de Dolega","country":"4438d8f1-8026-441f-99aa-fe04a23b2a63","countryCode":"PA","state":"677736d2-83f4-42b0-8fe3-e586ce58f284","stateCode":"4","latitude":"8.61667000","longitude":"-82.45000000"},{"id":"794d43a7-a748-470b-a8af-71facd860780","name":"Distrito de Gualaca","ru":"Distrito de Gualaca","country":"4438d8f1-8026-441f-99aa-fe04a23b2a63","countryCode":"PA","state":"677736d2-83f4-42b0-8fe3-e586ce58f284","stateCode":"4","latitude":"8.57398000","longitude":"-82.22207000"},{"id":"a9020650-0734-4477-a6db-6bacb5bf7126","name":"Distrito de Remedios","ru":"Distrito de Remedios","country":"4438d8f1-8026-441f-99aa-fe04a23b2a63","countryCode":"PA","state":"677736d2-83f4-42b0-8fe3-e586ce58f284","stateCode":"4","latitude":"8.20253000","longitude":"-81.81163000"},{"id":"019737d6-dab6-4f04-b847-065c40091c6f","name":"Distrito de Renacimiento","ru":"Distrito de Renacimiento","country":"4438d8f1-8026-441f-99aa-fe04a23b2a63","countryCode":"PA","state":"677736d2-83f4-42b0-8fe3-e586ce58f284","stateCode":"4","latitude":"8.71667000","longitude":"-82.76667000"},{"id":"d4a7f92a-72f0-4248-8668-40890afc05c5","name":"Distrito de San Félix","ru":"Distrito de San Félix","country":"4438d8f1-8026-441f-99aa-fe04a23b2a63","countryCode":"PA","state":"677736d2-83f4-42b0-8fe3-e586ce58f284","stateCode":"4","latitude":"8.27768000","longitude":"-81.87377000"},{"id":"0033da2f-0be4-4aaf-a320-50e2f03d98a0","name":"Distrito de San Lorenzo","ru":"Distrito de San Lorenzo","country":"4438d8f1-8026-441f-99aa-fe04a23b2a63","countryCode":"PA","state":"677736d2-83f4-42b0-8fe3-e586ce58f284","stateCode":"4","latitude":"8.29366000","longitude":"-82.08922000"},{"id":"dd34063e-de9b-4b2f-898b-bc584c705450","name":"Distrito de Tolé","ru":"Distrito de Tolé","country":"4438d8f1-8026-441f-99aa-fe04a23b2a63","countryCode":"PA","state":"677736d2-83f4-42b0-8fe3-e586ce58f284","stateCode":"4","latitude":"8.19015000","longitude":"-81.66007000"},{"id":"903ba563-3a44-462c-8462-79bbc0fed579","name":"Divalá","ru":"Divalá","country":"4438d8f1-8026-441f-99aa-fe04a23b2a63","countryCode":"PA","state":"677736d2-83f4-42b0-8fe3-e586ce58f284","stateCode":"4","latitude":"8.41066000","longitude":"-82.71332000"},{"id":"b7529035-06cb-45b0-ad73-97b50b1acf36","name":"Dolega District","ru":"Dolega District","country":"4438d8f1-8026-441f-99aa-fe04a23b2a63","countryCode":"PA","state":"677736d2-83f4-42b0-8fe3-e586ce58f284","stateCode":"4","latitude":"8.56667000","longitude":"-82.41407000"},{"id":"9fc1ff28-c3f5-41d4-8162-e972c686c255","name":"El Nancito","ru":"El Nancito","country":"4438d8f1-8026-441f-99aa-fe04a23b2a63","countryCode":"PA","state":"677736d2-83f4-42b0-8fe3-e586ce58f284","stateCode":"4","latitude":"8.23811000","longitude":"-81.73218000"},{"id":"e2895862-8a7c-411f-ad11-337511b7e5eb","name":"El Palmar","ru":"El Palmar","country":"4438d8f1-8026-441f-99aa-fe04a23b2a63","countryCode":"PA","state":"677736d2-83f4-42b0-8fe3-e586ce58f284","stateCode":"4","latitude":"8.30098000","longitude":"-82.85344000"},{"id":"c379837b-5d19-43c7-8961-69a90e41d53c","name":"El Porvenir","ru":"El Porvenir","country":"4438d8f1-8026-441f-99aa-fe04a23b2a63","countryCode":"PA","state":"677736d2-83f4-42b0-8fe3-e586ce58f284","stateCode":"4","latitude":"8.22919000","longitude":"-81.83278000"},{"id":"f3cb7fe2-ae73-4526-bbd1-e0d511b01993","name":"El Tejar","ru":"El Tejar","country":"4438d8f1-8026-441f-99aa-fe04a23b2a63","countryCode":"PA","state":"677736d2-83f4-42b0-8fe3-e586ce58f284","stateCode":"4","latitude":"8.42973000","longitude":"-82.57294000"},{"id":"48530e15-7680-4142-b5b5-4b8fb610b71d","name":"Finca Blanco","ru":"Finca Blanco","country":"4438d8f1-8026-441f-99aa-fe04a23b2a63","countryCode":"PA","state":"677736d2-83f4-42b0-8fe3-e586ce58f284","stateCode":"4","latitude":"8.37979000","longitude":"-82.87385000"},{"id":"7b386501-6409-407d-8148-175737f0d363","name":"Gómez","ru":"Gómez","country":"4438d8f1-8026-441f-99aa-fe04a23b2a63","countryCode":"PA","state":"677736d2-83f4-42b0-8fe3-e586ce58f284","stateCode":"4","latitude":"8.56085000","longitude":"-82.74142000"},{"id":"dd175cec-411a-454a-b031-d161749e991e","name":"Guabal","ru":"Guabal","country":"4438d8f1-8026-441f-99aa-fe04a23b2a63","countryCode":"PA","state":"677736d2-83f4-42b0-8fe3-e586ce58f284","stateCode":"4","latitude":"8.57466000","longitude":"-82.53730000"},{"id":"d33b2d3a-3de6-4add-9a76-55d9d193d1e1","name":"Guaca Arriba","ru":"Guaca Arriba","country":"4438d8f1-8026-441f-99aa-fe04a23b2a63","countryCode":"PA","state":"677736d2-83f4-42b0-8fe3-e586ce58f284","stateCode":"4","latitude":"8.53733000","longitude":"-82.49281000"},{"id":"5d8a0d7e-c1d5-43b1-bafa-825c4e0479e5","name":"Gualaca","ru":"Gualaca","country":"4438d8f1-8026-441f-99aa-fe04a23b2a63","countryCode":"PA","state":"677736d2-83f4-42b0-8fe3-e586ce58f284","stateCode":"4","latitude":"8.53006000","longitude":"-82.29959000"},{"id":"2b187001-2efa-4f65-a5d7-524868b29b5b","name":"Guarumal","ru":"Guarumal","country":"4438d8f1-8026-441f-99aa-fe04a23b2a63","countryCode":"PA","state":"677736d2-83f4-42b0-8fe3-e586ce58f284","stateCode":"4","latitude":"8.34523000","longitude":"-82.53205000"},{"id":"470006e4-dc71-4807-9ec6-6aa51cd33c92","name":"Guayabal","ru":"Guayabal","country":"4438d8f1-8026-441f-99aa-fe04a23b2a63","countryCode":"PA","state":"677736d2-83f4-42b0-8fe3-e586ce58f284","stateCode":"4","latitude":"8.62193000","longitude":"-82.57935000"},{"id":"c47e0bc5-f4a5-4818-99be-054b9497437b","name":"Horconcitos","ru":"Horconcitos","country":"4438d8f1-8026-441f-99aa-fe04a23b2a63","countryCode":"PA","state":"677736d2-83f4-42b0-8fe3-e586ce58f284","stateCode":"4","latitude":"8.31142000","longitude":"-82.15102000"},{"id":"31b8cb3d-ca61-4292-9eb5-b5aae3e1af2f","name":"La Concepción","ru":"La Concepción","country":"4438d8f1-8026-441f-99aa-fe04a23b2a63","countryCode":"PA","state":"677736d2-83f4-42b0-8fe3-e586ce58f284","stateCode":"4","latitude":"8.51212000","longitude":"-82.61858000"},{"id":"5f0b6ef6-083e-425b-b455-4cfab5dc3651","name":"La Esperanza","ru":"La Esperanza","country":"4438d8f1-8026-441f-99aa-fe04a23b2a63","countryCode":"PA","state":"677736d2-83f4-42b0-8fe3-e586ce58f284","stateCode":"4","latitude":"8.40344000","longitude":"-82.79197000"},{"id":"6364640e-31da-46a8-8190-d37ff0b57f03","name":"La Estrella","ru":"La Estrella","country":"4438d8f1-8026-441f-99aa-fe04a23b2a63","countryCode":"PA","state":"677736d2-83f4-42b0-8fe3-e586ce58f284","stateCode":"4","latitude":"8.51572000","longitude":"-82.67212000"},{"id":"96c46cbc-de1d-4fae-9caa-a7e8e7eb8194","name":"Lajas Adentro","ru":"Lajas Adentro","country":"4438d8f1-8026-441f-99aa-fe04a23b2a63","countryCode":"PA","state":"677736d2-83f4-42b0-8fe3-e586ce58f284","stateCode":"4","latitude":"8.24981000","longitude":"-81.87779000"},{"id":"262cb4fd-f148-4855-b48e-dd010a76d1f9","name":"Lajas de Tolé","ru":"Lajas de Tolé","country":"4438d8f1-8026-441f-99aa-fe04a23b2a63","countryCode":"PA","state":"677736d2-83f4-42b0-8fe3-e586ce58f284","stateCode":"4","latitude":"8.16994000","longitude":"-81.69654000"},{"id":"5073e480-7e14-41be-b866-d7594099ca11","name":"Las Lajas","ru":"Las Lajas","country":"4438d8f1-8026-441f-99aa-fe04a23b2a63","countryCode":"PA","state":"677736d2-83f4-42b0-8fe3-e586ce58f284","stateCode":"4","latitude":"8.24184000","longitude":"-81.86931000"},{"id":"980293a1-468c-4280-a593-ed86494963fa","name":"Las Lomas","ru":"Las Lomas","country":"4438d8f1-8026-441f-99aa-fe04a23b2a63","countryCode":"PA","state":"677736d2-83f4-42b0-8fe3-e586ce58f284","stateCode":"4","latitude":"8.42927000","longitude":"-82.38743000"},{"id":"9f8aecbf-fb51-4994-9855-4d9a0760c59e","name":"Limones","ru":"Limones","country":"4438d8f1-8026-441f-99aa-fe04a23b2a63","countryCode":"PA","state":"677736d2-83f4-42b0-8fe3-e586ce58f284","stateCode":"4","latitude":"8.10007000","longitude":"-82.86679000"},{"id":"edbba176-1bb1-4364-ad33-091d8d814d97","name":"Los Algarrobos","ru":"Los Algarrobos","country":"4438d8f1-8026-441f-99aa-fe04a23b2a63","countryCode":"PA","state":"677736d2-83f4-42b0-8fe3-e586ce58f284","stateCode":"4","latitude":"8.49601000","longitude":"-82.42417000"},{"id":"80a77065-78b2-4a7c-b0c8-899434a4399b","name":"Los Anastacios","ru":"Los Anastacios","country":"4438d8f1-8026-441f-99aa-fe04a23b2a63","countryCode":"PA","state":"677736d2-83f4-42b0-8fe3-e586ce58f284","stateCode":"4","latitude":"8.53027000","longitude":"-82.42295000"},{"id":"3c417233-8c18-4508-8abd-19f4748ea63d","name":"Los Ángeles","ru":"Los Ángeles","country":"4438d8f1-8026-441f-99aa-fe04a23b2a63","countryCode":"PA","state":"677736d2-83f4-42b0-8fe3-e586ce58f284","stateCode":"4","latitude":"8.52271000","longitude":"-82.19997000"},{"id":"be50cbd9-ee0b-4f62-a061-4ff4fe78d2a5","name":"Los Naranjos","ru":"Los Naranjos","country":"4438d8f1-8026-441f-99aa-fe04a23b2a63","countryCode":"PA","state":"677736d2-83f4-42b0-8fe3-e586ce58f284","stateCode":"4","latitude":"8.79210000","longitude":"-82.44665000"},{"id":"8ca289b4-7e1e-4ebf-84b2-012519a1ec5b","name":"Manaca Civil","ru":"Manaca Civil","country":"4438d8f1-8026-441f-99aa-fe04a23b2a63","countryCode":"PA","state":"677736d2-83f4-42b0-8fe3-e586ce58f284","stateCode":"4","latitude":"8.32458000","longitude":"-82.81570000"},{"id":"053ef91f-9ddc-4a0e-a36f-5b9017739a91","name":"Manaca Norte","ru":"Manaca Norte","country":"4438d8f1-8026-441f-99aa-fe04a23b2a63","countryCode":"PA","state":"677736d2-83f4-42b0-8fe3-e586ce58f284","stateCode":"4","latitude":"8.33419000","longitude":"-82.81003000"},{"id":"518615ae-0d74-4dab-baa6-d334b65a7f92","name":"Mata del Nance","ru":"Mata del Nance","country":"4438d8f1-8026-441f-99aa-fe04a23b2a63","countryCode":"PA","state":"677736d2-83f4-42b0-8fe3-e586ce58f284","stateCode":"4","latitude":"8.45056000","longitude":"-82.40057000"},{"id":"a58b99a5-3413-44eb-8901-37c06e6369c7","name":"Monte Lirio","ru":"Monte Lirio","country":"4438d8f1-8026-441f-99aa-fe04a23b2a63","countryCode":"PA","state":"677736d2-83f4-42b0-8fe3-e586ce58f284","stateCode":"4","latitude":"8.78935000","longitude":"-82.82865000"},{"id":"42ee5925-d95b-463f-a7c2-39e677b7227f","name":"Nuevo San Carlitos","ru":"Nuevo San Carlitos","country":"4438d8f1-8026-441f-99aa-fe04a23b2a63","countryCode":"PA","state":"677736d2-83f4-42b0-8fe3-e586ce58f284","stateCode":"4","latitude":"8.45698000","longitude":"-82.43712000"},{"id":"98ed02f1-5f6d-40c0-9af3-4211724a9924","name":"Paja de Sombrero","ru":"Paja de Sombrero","country":"4438d8f1-8026-441f-99aa-fe04a23b2a63","countryCode":"PA","state":"677736d2-83f4-42b0-8fe3-e586ce58f284","stateCode":"4","latitude":"8.68335000","longitude":"-82.31911000"},{"id":"06b924bc-3ad2-4253-a273-bc1d72b1599e","name":"Palmira","ru":"Palmira","country":"4438d8f1-8026-441f-99aa-fe04a23b2a63","countryCode":"PA","state":"677736d2-83f4-42b0-8fe3-e586ce58f284","stateCode":"4","latitude":"8.73401000","longitude":"-82.45887000"},{"id":"c959f2f9-e6a6-4ba5-bbd9-5bac5035108f","name":"Palmira Centro","ru":"Palmira Centro","country":"4438d8f1-8026-441f-99aa-fe04a23b2a63","countryCode":"PA","state":"677736d2-83f4-42b0-8fe3-e586ce58f284","stateCode":"4","latitude":"8.73956000","longitude":"-82.45228000"},{"id":"faa4db9e-4721-4f99-96d4-5aba9c2b87bc","name":"Paraíso","ru":"Paraíso","country":"4438d8f1-8026-441f-99aa-fe04a23b2a63","countryCode":"PA","state":"677736d2-83f4-42b0-8fe3-e586ce58f284","stateCode":"4","latitude":"8.65842000","longitude":"-82.58625000"},{"id":"8a6f02bc-69f1-4e80-8f50-0742af81f0d8","name":"Paso Canoas Arriba","ru":"Paso Canoas Arriba","country":"4438d8f1-8026-441f-99aa-fe04a23b2a63","countryCode":"PA","state":"677736d2-83f4-42b0-8fe3-e586ce58f284","stateCode":"4","latitude":"8.56516000","longitude":"-82.82214000"},{"id":"8f07be35-11f1-4470-95e0-94e4059e8509","name":"Pedregal","ru":"Pedregal","country":"4438d8f1-8026-441f-99aa-fe04a23b2a63","countryCode":"PA","state":"677736d2-83f4-42b0-8fe3-e586ce58f284","stateCode":"4","latitude":"8.36586000","longitude":"-82.43524000"},{"id":"c9c46a10-24a3-42f9-af3a-1c93db89f3cb","name":"Plaza de Caisán","ru":"Plaza de Caisán","country":"4438d8f1-8026-441f-99aa-fe04a23b2a63","countryCode":"PA","state":"677736d2-83f4-42b0-8fe3-e586ce58f284","stateCode":"4","latitude":"8.73672000","longitude":"-82.81968000"},{"id":"ff32724a-2903-482a-b156-6f187d30889e","name":"Potrerillos Abajo","ru":"Potrerillos Abajo","country":"4438d8f1-8026-441f-99aa-fe04a23b2a63","countryCode":"PA","state":"677736d2-83f4-42b0-8fe3-e586ce58f284","stateCode":"4","latitude":"8.63978000","longitude":"-82.48560000"},{"id":"debba438-b20f-457e-8b8d-5988c78ecf7d","name":"Potrerillos Arriba","ru":"Potrerillos Arriba","country":"4438d8f1-8026-441f-99aa-fe04a23b2a63","countryCode":"PA","state":"677736d2-83f4-42b0-8fe3-e586ce58f284","stateCode":"4","latitude":"8.68547000","longitude":"-82.49090000"},{"id":"5171638d-67fe-42b9-902f-626338a6b03f","name":"Progreso","ru":"Progreso","country":"4438d8f1-8026-441f-99aa-fe04a23b2a63","countryCode":"PA","state":"677736d2-83f4-42b0-8fe3-e586ce58f284","stateCode":"4","latitude":"8.44669000","longitude":"-82.83859000"},{"id":"1507ae5c-6262-4780-9d06-aa441304a982","name":"Pueblo Viejo","ru":"Pueblo Viejo","country":"4438d8f1-8026-441f-99aa-fe04a23b2a63","countryCode":"PA","state":"677736d2-83f4-42b0-8fe3-e586ce58f284","stateCode":"4","latitude":"8.25081000","longitude":"-81.66259000"},{"id":"ec093d3b-4956-4ba6-b101-9a47dfa3356d","name":"Puerto Armuelles","ru":"Puerto Armuelles","country":"4438d8f1-8026-441f-99aa-fe04a23b2a63","countryCode":"PA","state":"677736d2-83f4-42b0-8fe3-e586ce58f284","stateCode":"4","latitude":"8.27775000","longitude":"-82.86206000"},{"id":"7614a969-e499-487b-b4c5-6dcd9729a863","name":"Punta de Burica","ru":"Punta de Burica","country":"4438d8f1-8026-441f-99aa-fe04a23b2a63","countryCode":"PA","state":"677736d2-83f4-42b0-8fe3-e586ce58f284","stateCode":"4","latitude":"8.03333000","longitude":"-82.86667000"},{"id":"8678ecd4-8f38-496c-bc0e-407527ef0cf0","name":"Quebrada de Piedra","ru":"Quebrada de Piedra","country":"4438d8f1-8026-441f-99aa-fe04a23b2a63","countryCode":"PA","state":"677736d2-83f4-42b0-8fe3-e586ce58f284","stateCode":"4","latitude":"8.09418000","longitude":"-81.67915000"},{"id":"d922089b-0424-4668-ab21-6cee9df1587a","name":"Querévalo","ru":"Querévalo","country":"4438d8f1-8026-441f-99aa-fe04a23b2a63","countryCode":"PA","state":"677736d2-83f4-42b0-8fe3-e586ce58f284","stateCode":"4","latitude":"8.37174000","longitude":"-82.52670000"},{"id":"8ef89bc0-4a9f-416c-8f5d-b809d7d7ca7c","name":"Quinteño","ru":"Quinteño","country":"4438d8f1-8026-441f-99aa-fe04a23b2a63","countryCode":"PA","state":"677736d2-83f4-42b0-8fe3-e586ce58f284","stateCode":"4","latitude":"8.47102000","longitude":"-82.39352000"},{"id":"ae2c19ea-6abd-4a79-91d6-e3c6404f2a4a","name":"Río Sereno","ru":"Río Sereno","country":"4438d8f1-8026-441f-99aa-fe04a23b2a63","countryCode":"PA","state":"677736d2-83f4-42b0-8fe3-e586ce58f284","stateCode":"4","latitude":"8.81741000","longitude":"-82.85731000"},{"id":"b161df10-3d64-4725-8c27-451ae646e02e","name":"Remedios","ru":"Remedios","country":"4438d8f1-8026-441f-99aa-fe04a23b2a63","countryCode":"PA","state":"677736d2-83f4-42b0-8fe3-e586ce58f284","stateCode":"4","latitude":"8.22436000","longitude":"-81.82747000"},{"id":"f3d86c57-c13e-484d-b770-0e77c6285232","name":"Rincón","ru":"Rincón","country":"4438d8f1-8026-441f-99aa-fe04a23b2a63","countryCode":"PA","state":"677736d2-83f4-42b0-8fe3-e586ce58f284","stateCode":"4","latitude":"8.46374000","longitude":"-82.27951000"},{"id":"b14f2196-98cf-48e1-b084-1381939825d9","name":"Rovira Arriba","ru":"Rovira Arriba","country":"4438d8f1-8026-441f-99aa-fe04a23b2a63","countryCode":"PA","state":"677736d2-83f4-42b0-8fe3-e586ce58f284","stateCode":"4","latitude":"8.63822000","longitude":"-82.49965000"},{"id":"4ad91ced-eaff-4652-bd04-1fd6b3e9eb6a","name":"San Andrés","ru":"San Andrés","country":"4438d8f1-8026-441f-99aa-fe04a23b2a63","countryCode":"PA","state":"677736d2-83f4-42b0-8fe3-e586ce58f284","stateCode":"4","latitude":"8.60260000","longitude":"-82.72588000"},{"id":"b05f9b43-bdcf-4e03-8cc1-c775dfcbe222","name":"San Carlos","ru":"San Carlos","country":"4438d8f1-8026-441f-99aa-fe04a23b2a63","countryCode":"PA","state":"677736d2-83f4-42b0-8fe3-e586ce58f284","stateCode":"4","latitude":"8.51663000","longitude":"-82.50906000"},{"id":"2cb68063-0efc-4a84-83c4-5fa3de5f4283","name":"San Félix","ru":"San Félix","country":"4438d8f1-8026-441f-99aa-fe04a23b2a63","countryCode":"PA","state":"677736d2-83f4-42b0-8fe3-e586ce58f284","stateCode":"4","latitude":"8.29063000","longitude":"-81.86702000"},{"id":"c3a9531b-38a9-40e9-9b96-17ada16f793b","name":"San Isidro","ru":"San Isidro","country":"4438d8f1-8026-441f-99aa-fe04a23b2a63","countryCode":"PA","state":"677736d2-83f4-42b0-8fe3-e586ce58f284","stateCode":"4","latitude":"8.53032000","longitude":"-82.82720000"},{"id":"eaa41236-f995-452f-9f68-3b3638b29087","name":"San Lorenzo","ru":"San Lorenzo","country":"4438d8f1-8026-441f-99aa-fe04a23b2a63","countryCode":"PA","state":"677736d2-83f4-42b0-8fe3-e586ce58f284","stateCode":"4","latitude":"8.30561000","longitude":"-82.10114000"},{"id":"1aff5732-ad3f-4ec1-b976-d3e9f7b2749e","name":"San Pablo Nuevo Abajo","ru":"San Pablo Nuevo Abajo","country":"4438d8f1-8026-441f-99aa-fe04a23b2a63","countryCode":"PA","state":"677736d2-83f4-42b0-8fe3-e586ce58f284","stateCode":"4","latitude":"8.42558000","longitude":"-82.50173000"},{"id":"2d7ec10c-cd50-45d2-bd5c-667cb614e0d0","name":"San Pablo Viejo Abajo","ru":"San Pablo Viejo Abajo","country":"4438d8f1-8026-441f-99aa-fe04a23b2a63","countryCode":"PA","state":"677736d2-83f4-42b0-8fe3-e586ce58f284","stateCode":"4","latitude":"8.45339000","longitude":"-82.50179000"},{"id":"6d2c6cab-9971-421c-ad2a-35acdc08cc6a","name":"Santa Clara","ru":"Santa Clara","country":"4438d8f1-8026-441f-99aa-fe04a23b2a63","countryCode":"PA","state":"677736d2-83f4-42b0-8fe3-e586ce58f284","stateCode":"4","latitude":"8.83376000","longitude":"-82.77945000"},{"id":"7c03c3be-8743-4e73-b5c5-2647d736ef54","name":"Santa Cruz","ru":"Santa Cruz","country":"4438d8f1-8026-441f-99aa-fe04a23b2a63","countryCode":"PA","state":"677736d2-83f4-42b0-8fe3-e586ce58f284","stateCode":"4","latitude":"8.23219000","longitude":"-81.91323000"},{"id":"a2d01b12-31ca-4b51-9901-494382dfc064","name":"Santa Marta","ru":"Santa Marta","country":"4438d8f1-8026-441f-99aa-fe04a23b2a63","countryCode":"PA","state":"677736d2-83f4-42b0-8fe3-e586ce58f284","stateCode":"4","latitude":"8.51406000","longitude":"-82.69870000"},{"id":"e6c6529d-e012-44d1-b014-892021fd2caf","name":"Santa Rosa","ru":"Santa Rosa","country":"4438d8f1-8026-441f-99aa-fe04a23b2a63","countryCode":"PA","state":"677736d2-83f4-42b0-8fe3-e586ce58f284","stateCode":"4","latitude":"8.59958000","longitude":"-82.68489000"},{"id":"0487c2c8-a9df-4baa-9497-132195d2e57e","name":"Santo Domingo","ru":"Santo Domingo","country":"4438d8f1-8026-441f-99aa-fe04a23b2a63","countryCode":"PA","state":"677736d2-83f4-42b0-8fe3-e586ce58f284","stateCode":"4","latitude":"8.50803000","longitude":"-82.71295000"},{"id":"8609c3e4-0fe2-47a6-b30a-90d5dfd7a13c","name":"Santo Tomás","ru":"Santo Tomás","country":"4438d8f1-8026-441f-99aa-fe04a23b2a63","countryCode":"PA","state":"677736d2-83f4-42b0-8fe3-e586ce58f284","stateCode":"4","latitude":"8.38959000","longitude":"-82.65058000"},{"id":"e56d3ceb-c78f-4154-adcc-bf068bfd8521","name":"Sioguí Abajo","ru":"Sioguí Abajo","country":"4438d8f1-8026-441f-99aa-fe04a23b2a63","countryCode":"PA","state":"677736d2-83f4-42b0-8fe3-e586ce58f284","stateCode":"4","latitude":"8.48678000","longitude":"-82.66539000"},{"id":"e169be09-39f4-49ef-aa82-5d0356a79c17","name":"Sioguí Arriba","ru":"Sioguí Arriba","country":"4438d8f1-8026-441f-99aa-fe04a23b2a63","countryCode":"PA","state":"677736d2-83f4-42b0-8fe3-e586ce58f284","stateCode":"4","latitude":"8.53865000","longitude":"-82.68619000"},{"id":"8a577ca5-8301-479f-9543-500d42f526ce","name":"Sortova","ru":"Sortova","country":"4438d8f1-8026-441f-99aa-fe04a23b2a63","countryCode":"PA","state":"677736d2-83f4-42b0-8fe3-e586ce58f284","stateCode":"4","latitude":"8.54642000","longitude":"-82.65170000"},{"id":"a98aee7e-b61b-4746-8767-8c36dbc1bbb4","name":"Tijeras","ru":"Tijeras","country":"4438d8f1-8026-441f-99aa-fe04a23b2a63","countryCode":"PA","state":"677736d2-83f4-42b0-8fe3-e586ce58f284","stateCode":"4","latitude":"8.47514000","longitude":"-82.56058000"},{"id":"1ce77729-3dc6-42c5-a5b7-4093c2cbf983","name":"Tinajas","ru":"Tinajas","country":"4438d8f1-8026-441f-99aa-fe04a23b2a63","countryCode":"PA","state":"677736d2-83f4-42b0-8fe3-e586ce58f284","stateCode":"4","latitude":"8.55281000","longitude":"-82.45963000"},{"id":"769fc3ae-7de8-4603-81c8-de91a294f17e","name":"Tolé","ru":"Tolé","country":"4438d8f1-8026-441f-99aa-fe04a23b2a63","countryCode":"PA","state":"677736d2-83f4-42b0-8fe3-e586ce58f284","stateCode":"4","latitude":"8.23989000","longitude":"-81.67168000"},{"id":"93ff7f53-d25c-4ee1-b5a8-3877c6437970","name":"Veladero","ru":"Veladero","country":"4438d8f1-8026-441f-99aa-fe04a23b2a63","countryCode":"PA","state":"677736d2-83f4-42b0-8fe3-e586ce58f284","stateCode":"4","latitude":"8.23136000","longitude":"-81.65417000"},{"id":"5d5a01b0-553a-42f8-8189-8084eb5f7775","name":"Volcán","ru":"Volcán","country":"4438d8f1-8026-441f-99aa-fe04a23b2a63","countryCode":"PA","state":"677736d2-83f4-42b0-8fe3-e586ce58f284","stateCode":"4","latitude":"8.77291000","longitude":"-82.63823000"},{"id":"276ad153-e9ac-482f-89f0-84e0c01a2f9f","name":"Aguadulce","ru":"Aguadulce","country":"4438d8f1-8026-441f-99aa-fe04a23b2a63","countryCode":"PA","state":"f8ffe17e-689b-466d-87d6-3d42f9de49b6","stateCode":"2","latitude":"8.24183000","longitude":"-80.54609000"},{"id":"5488ae6b-886b-4f47-8158-1139640c8742","name":"Aguas Blancas","ru":"Aguas Blancas","country":"4438d8f1-8026-441f-99aa-fe04a23b2a63","countryCode":"PA","state":"f8ffe17e-689b-466d-87d6-3d42f9de49b6","stateCode":"2","latitude":"8.50351000","longitude":"-80.31169000"},{"id":"db3102f6-82b2-4bd0-9f72-8d288329a1ea","name":"Alto de La Estancia","ru":"Alto de La Estancia","country":"4438d8f1-8026-441f-99aa-fe04a23b2a63","countryCode":"PA","state":"f8ffe17e-689b-466d-87d6-3d42f9de49b6","stateCode":"2","latitude":"8.58792000","longitude":"-80.18443000"},{"id":"79f598d8-46d3-46ee-9f29-d84fbe861ade","name":"Antón","ru":"Antón","country":"4438d8f1-8026-441f-99aa-fe04a23b2a63","countryCode":"PA","state":"f8ffe17e-689b-466d-87d6-3d42f9de49b6","stateCode":"2","latitude":"8.39733000","longitude":"-80.26063000"},{"id":"92562ba4-c178-4a9d-a1c5-7c5965e17603","name":"Barranco Colorado","ru":"Barranco Colorado","country":"4438d8f1-8026-441f-99aa-fe04a23b2a63","countryCode":"PA","state":"f8ffe17e-689b-466d-87d6-3d42f9de49b6","stateCode":"2","latitude":"8.38937000","longitude":"-80.63546000"},{"id":"5dec33cb-6ef3-49a0-9bb3-d38d2298da2e","name":"Cañaveral","ru":"Cañaveral","country":"4438d8f1-8026-441f-99aa-fe04a23b2a63","countryCode":"PA","state":"f8ffe17e-689b-466d-87d6-3d42f9de49b6","stateCode":"2","latitude":"8.51700000","longitude":"-80.42916000"},{"id":"56aa2484-1d18-4d67-afba-7f7e56ea3870","name":"Caballero","ru":"Caballero","country":"4438d8f1-8026-441f-99aa-fe04a23b2a63","countryCode":"PA","state":"f8ffe17e-689b-466d-87d6-3d42f9de49b6","stateCode":"2","latitude":"8.54343000","longitude":"-80.19769000"},{"id":"0e26830f-a3ff-4d86-b91b-3fd37e4d6bd2","name":"Cabuya","ru":"Cabuya","country":"4438d8f1-8026-441f-99aa-fe04a23b2a63","countryCode":"PA","state":"f8ffe17e-689b-466d-87d6-3d42f9de49b6","stateCode":"2","latitude":"8.54703000","longitude":"-80.16756000"},{"id":"19ea5480-73d3-4c50-9a07-6e286d5ec12c","name":"Caimito","ru":"Caimito","country":"4438d8f1-8026-441f-99aa-fe04a23b2a63","countryCode":"PA","state":"f8ffe17e-689b-466d-87d6-3d42f9de49b6","stateCode":"2","latitude":"8.62271000","longitude":"-80.23919000"},{"id":"c493f837-cf6f-44d0-88a4-97ea0fea1d63","name":"Capellanía","ru":"Capellanía","country":"4438d8f1-8026-441f-99aa-fe04a23b2a63","countryCode":"PA","state":"f8ffe17e-689b-466d-87d6-3d42f9de49b6","stateCode":"2","latitude":"8.29858000","longitude":"-80.55480000"},{"id":"2e5e7801-08dd-4a25-83c2-66070838e611","name":"Chigoré","ru":"Chigoré","country":"4438d8f1-8026-441f-99aa-fe04a23b2a63","countryCode":"PA","state":"f8ffe17e-689b-466d-87d6-3d42f9de49b6","stateCode":"2","latitude":"8.53035000","longitude":"-80.35117000"},{"id":"42a90f61-dcb1-41f0-a6fc-63b00e4d08a7","name":"Chiguirí Arriba","ru":"Chiguirí Arriba","country":"4438d8f1-8026-441f-99aa-fe04a23b2a63","countryCode":"PA","state":"f8ffe17e-689b-466d-87d6-3d42f9de49b6","stateCode":"2","latitude":"8.67187000","longitude":"-80.18975000"},{"id":"2edae4da-6b46-43b7-bb51-d4977b60e4e4","name":"Churuquita Chiquita","ru":"Churuquita Chiquita","country":"4438d8f1-8026-441f-99aa-fe04a23b2a63","countryCode":"PA","state":"f8ffe17e-689b-466d-87d6-3d42f9de49b6","stateCode":"2","latitude":"8.57555000","longitude":"-80.27161000"},{"id":"4dc4e6f4-a83e-45d6-8aee-1bb4758bf08c","name":"Churuquita Grande","ru":"Churuquita Grande","country":"4438d8f1-8026-441f-99aa-fe04a23b2a63","countryCode":"PA","state":"f8ffe17e-689b-466d-87d6-3d42f9de49b6","stateCode":"2","latitude":"8.59449000","longitude":"-80.27182000"},{"id":"0c88d7aa-c0fa-4f3e-9c00-ffa5c75bfda3","name":"Coclé","ru":"Coclé","country":"4438d8f1-8026-441f-99aa-fe04a23b2a63","countryCode":"PA","state":"f8ffe17e-689b-466d-87d6-3d42f9de49b6","stateCode":"2","latitude":"8.45601000","longitude":"-80.42899000"},{"id":"df79f520-85e8-478c-b464-e3def5220f80","name":"Distrito de Aguadulce","ru":"Distrito de Aguadulce","country":"4438d8f1-8026-441f-99aa-fe04a23b2a63","countryCode":"PA","state":"f8ffe17e-689b-466d-87d6-3d42f9de49b6","stateCode":"2","latitude":"8.21270000","longitude":"-80.61441000"},{"id":"3511f513-c392-47bf-83e8-a40f11073b3c","name":"Distrito de Antón","ru":"Distrito de Antón","country":"4438d8f1-8026-441f-99aa-fe04a23b2a63","countryCode":"PA","state":"f8ffe17e-689b-466d-87d6-3d42f9de49b6","stateCode":"2","latitude":"8.45394000","longitude":"-80.18361000"},{"id":"e62864d2-fd67-4689-a09d-30067032208d","name":"Distrito de La Pintada","ru":"Distrito de La Pintada","country":"4438d8f1-8026-441f-99aa-fe04a23b2a63","countryCode":"PA","state":"f8ffe17e-689b-466d-87d6-3d42f9de49b6","stateCode":"2","latitude":"8.71801000","longitude":"-80.53946000"},{"id":"19558482-3e32-427e-8c28-0a253fb41d53","name":"Distrito de Natá","ru":"Distrito de Natá","country":"4438d8f1-8026-441f-99aa-fe04a23b2a63","countryCode":"PA","state":"f8ffe17e-689b-466d-87d6-3d42f9de49b6","stateCode":"2","latitude":"8.34416000","longitude":"-80.60934000"},{"id":"fbad9949-176e-42aa-8ab4-e3eaff8d19b5","name":"Distrito de Olá","ru":"Distrito de Olá","country":"4438d8f1-8026-441f-99aa-fe04a23b2a63","countryCode":"PA","state":"f8ffe17e-689b-466d-87d6-3d42f9de49b6","stateCode":"2","latitude":"8.48053000","longitude":"-80.65324000"},{"id":"d078b985-d716-4dfc-a556-60e70f267f1b","name":"Distrito Penonomé","ru":"Distrito Penonomé","country":"4438d8f1-8026-441f-99aa-fe04a23b2a63","countryCode":"PA","state":"f8ffe17e-689b-466d-87d6-3d42f9de49b6","stateCode":"2","latitude":"8.63000000","longitude":"-80.28333000"},{"id":"fb56f7da-b4e9-458e-8d95-c3b3a3009406","name":"El Caño","ru":"El Caño","country":"4438d8f1-8026-441f-99aa-fe04a23b2a63","countryCode":"PA","state":"f8ffe17e-689b-466d-87d6-3d42f9de49b6","stateCode":"2","latitude":"8.40195000","longitude":"-80.51791000"},{"id":"36fc23c9-a553-439c-9cdf-3813a5c8aa07","name":"El Chirú","ru":"El Chirú","country":"4438d8f1-8026-441f-99aa-fe04a23b2a63","countryCode":"PA","state":"f8ffe17e-689b-466d-87d6-3d42f9de49b6","stateCode":"2","latitude":"8.39876000","longitude":"-80.18721000"},{"id":"e729b8c5-f67f-447c-a7e9-5b50f6914fca","name":"El Coco","ru":"El Coco","country":"4438d8f1-8026-441f-99aa-fe04a23b2a63","countryCode":"PA","state":"f8ffe17e-689b-466d-87d6-3d42f9de49b6","stateCode":"2","latitude":"8.39716000","longitude":"-80.35000000"},{"id":"a9d1decb-39e4-48b0-9a5f-1610ae386d3e","name":"El Copé","ru":"El Copé","country":"4438d8f1-8026-441f-99aa-fe04a23b2a63","countryCode":"PA","state":"f8ffe17e-689b-466d-87d6-3d42f9de49b6","stateCode":"2","latitude":"8.62036000","longitude":"-80.58433000"},{"id":"08fb71ce-8870-4cb1-80de-2448032de4fe","name":"El Cortezo","ru":"El Cortezo","country":"4438d8f1-8026-441f-99aa-fe04a23b2a63","countryCode":"PA","state":"f8ffe17e-689b-466d-87d6-3d42f9de49b6","stateCode":"2","latitude":"8.34556000","longitude":"-80.58721000"},{"id":"a072aadc-846e-42e3-9f3c-1fdc6cea3bd8","name":"El Cristo","ru":"El Cristo","country":"4438d8f1-8026-441f-99aa-fe04a23b2a63","countryCode":"PA","state":"f8ffe17e-689b-466d-87d6-3d42f9de49b6","stateCode":"2","latitude":"8.25071000","longitude":"-80.62093000"},{"id":"9ffdcf0f-e687-41c0-82b8-58ee7841f5ee","name":"El Potrero","ru":"El Potrero","country":"4438d8f1-8026-441f-99aa-fe04a23b2a63","countryCode":"PA","state":"f8ffe17e-689b-466d-87d6-3d42f9de49b6","stateCode":"2","latitude":"8.52146000","longitude":"-80.51681000"},{"id":"7ce3336a-8be0-444c-a9bb-e7de0bf33353","name":"El Retiro","ru":"El Retiro","country":"4438d8f1-8026-441f-99aa-fe04a23b2a63","countryCode":"PA","state":"f8ffe17e-689b-466d-87d6-3d42f9de49b6","stateCode":"2","latitude":"8.48014000","longitude":"-80.15426000"},{"id":"548bdd30-943a-4bb6-88eb-c7921a8558e5","name":"El Roble","ru":"El Roble","country":"4438d8f1-8026-441f-99aa-fe04a23b2a63","countryCode":"PA","state":"f8ffe17e-689b-466d-87d6-3d42f9de49b6","stateCode":"2","latitude":"8.16850000","longitude":"-80.65897000"},{"id":"bbe81322-10e0-40c2-8a0e-e725a385653a","name":"Entradero","ru":"Entradero","country":"4438d8f1-8026-441f-99aa-fe04a23b2a63","countryCode":"PA","state":"f8ffe17e-689b-466d-87d6-3d42f9de49b6","stateCode":"2","latitude":"8.56880000","longitude":"-80.20743000"},{"id":"fa4f961a-d8d5-4943-a2e0-bef8ea158f5b","name":"Farallón","ru":"Farallón","country":"4438d8f1-8026-441f-99aa-fe04a23b2a63","countryCode":"PA","state":"f8ffe17e-689b-466d-87d6-3d42f9de49b6","stateCode":"2","latitude":"8.35658000","longitude":"-80.13723000"},{"id":"28990192-9713-49e9-aad2-1d52565cf93f","name":"Guzman","ru":"Guzman","country":"4438d8f1-8026-441f-99aa-fe04a23b2a63","countryCode":"PA","state":"f8ffe17e-689b-466d-87d6-3d42f9de49b6","stateCode":"2","latitude":"8.51969000","longitude":"-80.58405000"},{"id":"7a0daeb8-fb8f-45d7-9656-001a3135bfdb","name":"Juan Díaz","ru":"Juan Díaz","country":"4438d8f1-8026-441f-99aa-fe04a23b2a63","countryCode":"PA","state":"f8ffe17e-689b-466d-87d6-3d42f9de49b6","stateCode":"2","latitude":"8.46240000","longitude":"-80.28280000"},{"id":"4bffd0ab-cb4f-4c8b-bedf-a17128cc58e9","name":"La Loma","ru":"La Loma","country":"4438d8f1-8026-441f-99aa-fe04a23b2a63","countryCode":"PA","state":"f8ffe17e-689b-466d-87d6-3d42f9de49b6","stateCode":"2","latitude":"8.16667000","longitude":"-80.63742000"},{"id":"c7071b3d-8844-40e6-b501-ae93a2dcaf84","name":"La Pintada","ru":"La Pintada","country":"4438d8f1-8026-441f-99aa-fe04a23b2a63","countryCode":"PA","state":"f8ffe17e-689b-466d-87d6-3d42f9de49b6","stateCode":"2","latitude":"8.59299000","longitude":"-80.44349000"},{"id":"1b73a6a7-9970-4b7b-ab12-153a2ed4911f","name":"Las Huacas del Quije","ru":"Las Huacas del Quije","country":"4438d8f1-8026-441f-99aa-fe04a23b2a63","countryCode":"PA","state":"f8ffe17e-689b-466d-87d6-3d42f9de49b6","stateCode":"2","latitude":"8.46702000","longitude":"-80.75089000"},{"id":"7a9a2330-edd7-4b90-bbff-15baea957cab","name":"Las Marias","ru":"Las Marias","country":"4438d8f1-8026-441f-99aa-fe04a23b2a63","countryCode":"PA","state":"f8ffe17e-689b-466d-87d6-3d42f9de49b6","stateCode":"2","latitude":"8.88809000","longitude":"-80.21893000"},{"id":"f17f1ae4-2d31-4649-99e6-180739f8a078","name":"Las Minas","ru":"Las Minas","country":"4438d8f1-8026-441f-99aa-fe04a23b2a63","countryCode":"PA","state":"f8ffe17e-689b-466d-87d6-3d42f9de49b6","stateCode":"2","latitude":"8.64118000","longitude":"-80.39432000"},{"id":"cb619ac3-54e9-41ee-95e4-2c5e55020069","name":"Las Sabanas","ru":"Las Sabanas","country":"4438d8f1-8026-441f-99aa-fe04a23b2a63","countryCode":"PA","state":"f8ffe17e-689b-466d-87d6-3d42f9de49b6","stateCode":"2","latitude":"8.58141000","longitude":"-80.67978000"},{"id":"a7d571b2-c43e-4a30-96a4-6782f4ec4f81","name":"Llano Grande","ru":"Llano Grande","country":"4438d8f1-8026-441f-99aa-fe04a23b2a63","countryCode":"PA","state":"f8ffe17e-689b-466d-87d6-3d42f9de49b6","stateCode":"2","latitude":"8.63817000","longitude":"-80.43848000"},{"id":"ffa7fd75-e2a4-4652-97e3-67444035d4ce","name":"Llano Marín","ru":"Llano Marín","country":"4438d8f1-8026-441f-99aa-fe04a23b2a63","countryCode":"PA","state":"f8ffe17e-689b-466d-87d6-3d42f9de49b6","stateCode":"2","latitude":"8.47696000","longitude":"-80.32499000"},{"id":"3338922c-1f1d-4b72-b830-51a26990568b","name":"Los Pollos","ru":"Los Pollos","country":"4438d8f1-8026-441f-99aa-fe04a23b2a63","countryCode":"PA","state":"f8ffe17e-689b-466d-87d6-3d42f9de49b6","stateCode":"2","latitude":"8.39898000","longitude":"-80.15731000"},{"id":"85eed600-5adb-4273-924e-2cea2889c197","name":"Natá","ru":"Natá","country":"4438d8f1-8026-441f-99aa-fe04a23b2a63","countryCode":"PA","state":"f8ffe17e-689b-466d-87d6-3d42f9de49b6","stateCode":"2","latitude":"8.33209000","longitude":"-80.51969000"},{"id":"baf715ad-95f6-4ad8-a8f0-76c8c2a6eaec","name":"Nuestro Amo","ru":"Nuestro Amo","country":"4438d8f1-8026-441f-99aa-fe04a23b2a63","countryCode":"PA","state":"f8ffe17e-689b-466d-87d6-3d42f9de49b6","stateCode":"2","latitude":"8.44485000","longitude":"-80.58934000"},{"id":"c87a5c00-a6e2-4630-af19-14ebddeb61dc","name":"Olá","ru":"Olá","country":"4438d8f1-8026-441f-99aa-fe04a23b2a63","countryCode":"PA","state":"f8ffe17e-689b-466d-87d6-3d42f9de49b6","stateCode":"2","latitude":"8.41807000","longitude":"-80.65123000"},{"id":"2225977d-93c4-432d-8ac8-abf885e47889","name":"Penonomé","ru":"Penonomé","country":"4438d8f1-8026-441f-99aa-fe04a23b2a63","countryCode":"PA","state":"f8ffe17e-689b-466d-87d6-3d42f9de49b6","stateCode":"2","latitude":"8.51889000","longitude":"-80.35727000"},{"id":"e25885d0-4209-4f0b-94a4-4625b88f571a","name":"Piedras Gordas","ru":"Piedras Gordas","country":"4438d8f1-8026-441f-99aa-fe04a23b2a63","countryCode":"PA","state":"f8ffe17e-689b-466d-87d6-3d42f9de49b6","stateCode":"2","latitude":"8.63777000","longitude":"-80.51024000"},{"id":"f3909f9b-3f5c-4c8b-8894-d96324c258f9","name":"Pocrí","ru":"Pocrí","country":"4438d8f1-8026-441f-99aa-fe04a23b2a63","countryCode":"PA","state":"f8ffe17e-689b-466d-87d6-3d42f9de49b6","stateCode":"2","latitude":"8.25814000","longitude":"-80.55000000"},{"id":"d748b4fd-8690-47bf-88d1-b7f7a63b89f3","name":"Río Grande","ru":"Río Grande","country":"4438d8f1-8026-441f-99aa-fe04a23b2a63","countryCode":"PA","state":"f8ffe17e-689b-466d-87d6-3d42f9de49b6","stateCode":"2","latitude":"8.42679000","longitude":"-80.48457000"},{"id":"e549bad0-01bf-43de-bd92-2579ac7cad47","name":"Río Hato","ru":"Río Hato","country":"4438d8f1-8026-441f-99aa-fe04a23b2a63","countryCode":"PA","state":"f8ffe17e-689b-466d-87d6-3d42f9de49b6","stateCode":"2","latitude":"8.37940000","longitude":"-80.16621000"},{"id":"e5b1f513-973a-4208-a893-bab5b46f98f7","name":"San Juan de Dios","ru":"San Juan de Dios","country":"4438d8f1-8026-441f-99aa-fe04a23b2a63","countryCode":"PA","state":"f8ffe17e-689b-466d-87d6-3d42f9de49b6","stateCode":"2","latitude":"8.55119000","longitude":"-80.22623000"},{"id":"2926367a-e68a-4d7c-9a4b-0c6216637a44","name":"Toabré","ru":"Toabré","country":"4438d8f1-8026-441f-99aa-fe04a23b2a63","countryCode":"PA","state":"f8ffe17e-689b-466d-87d6-3d42f9de49b6","stateCode":"2","latitude":"8.65131000","longitude":"-80.32017000"},{"id":"29c47a46-cfc9-4881-96ae-6d13436501d0","name":"Toza","ru":"Toza","country":"4438d8f1-8026-441f-99aa-fe04a23b2a63","countryCode":"PA","state":"f8ffe17e-689b-466d-87d6-3d42f9de49b6","stateCode":"2","latitude":"8.34542000","longitude":"-80.64012000"},{"id":"3c8ca5bf-8713-46bb-8140-33468704691f","name":"Vista Hermosa","ru":"Vista Hermosa","country":"4438d8f1-8026-441f-99aa-fe04a23b2a63","countryCode":"PA","state":"f8ffe17e-689b-466d-87d6-3d42f9de49b6","stateCode":"2","latitude":"8.52687000","longitude":"-80.37486000"},{"id":"0f18dee2-ede0-4614-85c1-044556ed9d90","name":"Buena Vista","ru":"Buena Vista","country":"4438d8f1-8026-441f-99aa-fe04a23b2a63","countryCode":"PA","state":"fcf7d464-8d8c-4911-86f9-6b9a345a4917","stateCode":"3","latitude":"9.27356000","longitude":"-79.69551000"},{"id":"73999b6b-00d6-4d78-956f-8b8be33ff6d5","name":"Cativá","ru":"Cativá","country":"4438d8f1-8026-441f-99aa-fe04a23b2a63","countryCode":"PA","state":"fcf7d464-8d8c-4911-86f9-6b9a345a4917","stateCode":"3","latitude":"9.36218000","longitude":"-79.83232000"},{"id":"1fc0efaa-5c15-4c63-8ef2-8a21b51c80d8","name":"Coclé del Norte","ru":"Coclé del Norte","country":"4438d8f1-8026-441f-99aa-fe04a23b2a63","countryCode":"PA","state":"fcf7d464-8d8c-4911-86f9-6b9a345a4917","stateCode":"3","latitude":"9.07540000","longitude":"-80.57177000"},{"id":"e97ce568-374c-481c-b39b-3fe96d70f4ef","name":"Colón","ru":"Colón","country":"4438d8f1-8026-441f-99aa-fe04a23b2a63","countryCode":"PA","state":"fcf7d464-8d8c-4911-86f9-6b9a345a4917","stateCode":"3","latitude":"9.35451000","longitude":"-79.90011000"},{"id":"45b953e6-d100-4279-a66e-837d09d03061","name":"Cristóbal","ru":"Cristóbal","country":"4438d8f1-8026-441f-99aa-fe04a23b2a63","countryCode":"PA","state":"fcf7d464-8d8c-4911-86f9-6b9a345a4917","stateCode":"3","latitude":"9.35222000","longitude":"-79.90444000"},{"id":"fc5166b0-3e6f-4942-9786-495aaac66846","name":"Distrito de Chagres","ru":"Distrito de Chagres","country":"4438d8f1-8026-441f-99aa-fe04a23b2a63","countryCode":"PA","state":"fcf7d464-8d8c-4911-86f9-6b9a345a4917","stateCode":"3","latitude":"9.12300000","longitude":"-80.11841000"},{"id":"21793468-3006-4f30-a0ac-ad3bad8a70c1","name":"Distrito de Colón","ru":"Distrito de Colón","country":"4438d8f1-8026-441f-99aa-fe04a23b2a63","countryCode":"PA","state":"fcf7d464-8d8c-4911-86f9-6b9a345a4917","stateCode":"3","latitude":"9.24313000","longitude":"-79.79463000"},{"id":"a2625d10-bf54-49f9-a7b5-37470d0c886c","name":"Distrito de Donoso","ru":"Distrito de Donoso","country":"4438d8f1-8026-441f-99aa-fe04a23b2a63","countryCode":"PA","state":"fcf7d464-8d8c-4911-86f9-6b9a345a4917","stateCode":"3","latitude":"9.01999000","longitude":"-80.42967000"},{"id":"d0ffbfab-75fa-4a57-a86a-ec36d66aca8c","name":"Distrito de Portobelo","ru":"Distrito de Portobelo","country":"4438d8f1-8026-441f-99aa-fe04a23b2a63","countryCode":"PA","state":"fcf7d464-8d8c-4911-86f9-6b9a345a4917","stateCode":"3","latitude":"9.49748000","longitude":"-79.60730000"},{"id":"9b89eeb4-bee3-4f46-a11e-6c4a4ee3005d","name":"Distrito de Santa Isabel","ru":"Distrito de Santa Isabel","country":"4438d8f1-8026-441f-99aa-fe04a23b2a63","countryCode":"PA","state":"fcf7d464-8d8c-4911-86f9-6b9a345a4917","stateCode":"3","latitude":"9.48333000","longitude":"-79.31667000"},{"id":"4b805ae1-36fb-47ec-8e19-b9f0d809dad0","name":"El Giral","ru":"El Giral","country":"4438d8f1-8026-441f-99aa-fe04a23b2a63","countryCode":"PA","state":"fcf7d464-8d8c-4911-86f9-6b9a345a4917","stateCode":"3","latitude":"9.24509000","longitude":"-79.69266000"},{"id":"dc4e7a6d-1e8b-4c7f-bda7-4ccfb1940677","name":"El Guabo","ru":"El Guabo","country":"4438d8f1-8026-441f-99aa-fe04a23b2a63","countryCode":"PA","state":"fcf7d464-8d8c-4911-86f9-6b9a345a4917","stateCode":"3","latitude":"9.07842000","longitude":"-80.08316000"},{"id":"f584eca4-4450-47ce-92db-42db07ff1eaa","name":"El Valle de la Unión","ru":"El Valle de la Unión","country":"4438d8f1-8026-441f-99aa-fe04a23b2a63","countryCode":"PA","state":"fcf7d464-8d8c-4911-86f9-6b9a345a4917","stateCode":"3","latitude":"9.23630000","longitude":"-79.65986000"},{"id":"da6eb153-79f9-4a15-9845-714f67dc55b7","name":"Escobal","ru":"Escobal","country":"4438d8f1-8026-441f-99aa-fe04a23b2a63","countryCode":"PA","state":"fcf7d464-8d8c-4911-86f9-6b9a345a4917","stateCode":"3","latitude":"9.14373000","longitude":"-79.96439000"},{"id":"6cfeb40a-48cd-4138-8760-8dafd184c8ff","name":"Gatún","ru":"Gatún","country":"4438d8f1-8026-441f-99aa-fe04a23b2a63","countryCode":"PA","state":"fcf7d464-8d8c-4911-86f9-6b9a345a4917","stateCode":"3","latitude":"9.28922000","longitude":"-79.77204000"},{"id":"ee4cfea1-4c97-4c9e-9dc2-1ba900318080","name":"Gatuncillo","ru":"Gatuncillo","country":"4438d8f1-8026-441f-99aa-fe04a23b2a63","countryCode":"PA","state":"fcf7d464-8d8c-4911-86f9-6b9a345a4917","stateCode":"3","latitude":"9.24346000","longitude":"-79.64856000"},{"id":"8d2bc140-46f9-4d81-ad02-ca348ca3b133","name":"Las Margaritas","ru":"Las Margaritas","country":"4438d8f1-8026-441f-99aa-fe04a23b2a63","countryCode":"PA","state":"fcf7d464-8d8c-4911-86f9-6b9a345a4917","stateCode":"3","latitude":"9.32603000","longitude":"-79.89028000"},{"id":"eea373ca-690c-4694-9333-aad0bc77e8dd","name":"María Chiquita","ru":"María Chiquita","country":"4438d8f1-8026-441f-99aa-fe04a23b2a63","countryCode":"PA","state":"fcf7d464-8d8c-4911-86f9-6b9a345a4917","stateCode":"3","latitude":"9.43991000","longitude":"-79.75455000"},{"id":"13355aa9-5f7d-479d-b611-c21e0d3be696","name":"Miramar","ru":"Miramar","country":"4438d8f1-8026-441f-99aa-fe04a23b2a63","countryCode":"PA","state":"fcf7d464-8d8c-4911-86f9-6b9a345a4917","stateCode":"3","latitude":"9.57544000","longitude":"-79.33573000"},{"id":"e1e3bf48-4c0a-40d6-b08b-8392fe60c79d","name":"Nombre de Dios","ru":"Nombre de Dios","country":"4438d8f1-8026-441f-99aa-fe04a23b2a63","countryCode":"PA","state":"fcf7d464-8d8c-4911-86f9-6b9a345a4917","stateCode":"3","latitude":"9.57937000","longitude":"-79.47109000"},{"id":"050628e9-d6ad-4e2b-843a-cf1a05620182","name":"Nuevo Chagres","ru":"Nuevo Chagres","country":"4438d8f1-8026-441f-99aa-fe04a23b2a63","countryCode":"PA","state":"fcf7d464-8d8c-4911-86f9-6b9a345a4917","stateCode":"3","latitude":"9.23979000","longitude":"-80.08267000"},{"id":"f2f1a557-168a-42aa-bb93-e1df5e70ada0","name":"Nuevo San Juan","ru":"Nuevo San Juan","country":"4438d8f1-8026-441f-99aa-fe04a23b2a63","countryCode":"PA","state":"fcf7d464-8d8c-4911-86f9-6b9a345a4917","stateCode":"3","latitude":"9.22205000","longitude":"-79.66602000"},{"id":"5baafede-6222-46e9-8f87-082adccf041a","name":"Nuevo Vigía","ru":"Nuevo Vigía","country":"4438d8f1-8026-441f-99aa-fe04a23b2a63","countryCode":"PA","state":"fcf7d464-8d8c-4911-86f9-6b9a345a4917","stateCode":"3","latitude":"9.24263000","longitude":"-79.60756000"},{"id":"54c2fd49-bf2b-4d05-afef-fc4ce8209816","name":"Palenque","ru":"Palenque","country":"4438d8f1-8026-441f-99aa-fe04a23b2a63","countryCode":"PA","state":"fcf7d464-8d8c-4911-86f9-6b9a345a4917","stateCode":"3","latitude":"9.56970000","longitude":"-79.36341000"},{"id":"cfcff82f-0d9c-423b-b2d6-e848b05864e2","name":"Palmas Bellas","ru":"Palmas Bellas","country":"4438d8f1-8026-441f-99aa-fe04a23b2a63","countryCode":"PA","state":"fcf7d464-8d8c-4911-86f9-6b9a345a4917","stateCode":"3","latitude":"9.22838000","longitude":"-80.08503000"},{"id":"da6419da-b3ed-47ea-92c0-932e26889f8a","name":"Palmira","ru":"Palmira","country":"4438d8f1-8026-441f-99aa-fe04a23b2a63","countryCode":"PA","state":"fcf7d464-8d8c-4911-86f9-6b9a345a4917","stateCode":"3","latitude":"9.54359000","longitude":"-79.21946000"},{"id":"111f9b4f-f34c-4c23-8105-3703a58caa51","name":"Playa Chiquita","ru":"Playa Chiquita","country":"4438d8f1-8026-441f-99aa-fe04a23b2a63","countryCode":"PA","state":"fcf7d464-8d8c-4911-86f9-6b9a345a4917","stateCode":"3","latitude":"9.56620000","longitude":"-79.29185000"},{"id":"9832497c-acd5-47f2-a0c3-1cd8441a359e","name":"Portobelo","ru":"Portobelo","country":"4438d8f1-8026-441f-99aa-fe04a23b2a63","countryCode":"PA","state":"fcf7d464-8d8c-4911-86f9-6b9a345a4917","stateCode":"3","latitude":"9.55303000","longitude":"-79.65693000"},{"id":"86acf4c3-3e3d-4e45-8a83-b6c777c2a538","name":"Puerto Escondido","ru":"Puerto Escondido","country":"4438d8f1-8026-441f-99aa-fe04a23b2a63","countryCode":"PA","state":"fcf7d464-8d8c-4911-86f9-6b9a345a4917","stateCode":"3","latitude":"9.19333000","longitude":"-80.08833000"},{"id":"3020c433-fa3f-4211-8b03-b8d11b43d729","name":"Puerto Pilón","ru":"Puerto Pilón","country":"4438d8f1-8026-441f-99aa-fe04a23b2a63","countryCode":"PA","state":"fcf7d464-8d8c-4911-86f9-6b9a345a4917","stateCode":"3","latitude":"9.36316000","longitude":"-79.79333000"},{"id":"1338a04b-7847-44c2-8387-3881c126dd1c","name":"Quebrada Bonita Adentro","ru":"Quebrada Bonita Adentro","country":"4438d8f1-8026-441f-99aa-fe04a23b2a63","countryCode":"PA","state":"fcf7d464-8d8c-4911-86f9-6b9a345a4917","stateCode":"3","latitude":"9.29662000","longitude":"-79.70606000"},{"id":"d4fcab79-7a6c-444c-bd9f-8f04a8fae757","name":"Río Alejandro","ru":"Río Alejandro","country":"4438d8f1-8026-441f-99aa-fe04a23b2a63","countryCode":"PA","state":"fcf7d464-8d8c-4911-86f9-6b9a345a4917","stateCode":"3","latitude":"9.37149000","longitude":"-79.78809000"},{"id":"451d7bfe-d677-412f-a7bc-5458bcb1f4f1","name":"Río Duque","ru":"Río Duque","country":"4438d8f1-8026-441f-99aa-fe04a23b2a63","countryCode":"PA","state":"fcf7d464-8d8c-4911-86f9-6b9a345a4917","stateCode":"3","latitude":"9.25688000","longitude":"-79.67937000"},{"id":"89ed3d15-2af8-48d4-85d4-f8e77bf6fe6e","name":"Río Rita","ru":"Río Rita","country":"4438d8f1-8026-441f-99aa-fe04a23b2a63","countryCode":"PA","state":"fcf7d464-8d8c-4911-86f9-6b9a345a4917","stateCode":"3","latitude":"9.30296000","longitude":"-79.79234000"},{"id":"9f139289-f364-4daf-80f6-6f28b8b21d32","name":"Sabanitas","ru":"Sabanitas","country":"4438d8f1-8026-441f-99aa-fe04a23b2a63","countryCode":"PA","state":"fcf7d464-8d8c-4911-86f9-6b9a345a4917","stateCode":"3","latitude":"9.34269000","longitude":"-79.80961000"},{"id":"6801c405-b817-4c52-a0e0-4661c33a5961","name":"Santa Isabel","ru":"Santa Isabel","country":"4438d8f1-8026-441f-99aa-fe04a23b2a63","countryCode":"PA","state":"fcf7d464-8d8c-4911-86f9-6b9a345a4917","stateCode":"3","latitude":"9.53922000","longitude":"-79.19570000"},{"id":"993329d4-c68c-4782-9363-356470da8feb","name":"Santa Rita Arriba","ru":"Santa Rita Arriba","country":"4438d8f1-8026-441f-99aa-fe04a23b2a63","countryCode":"PA","state":"fcf7d464-8d8c-4911-86f9-6b9a345a4917","stateCode":"3","latitude":"9.33032000","longitude":"-79.79363000"},{"id":"1d73aa0a-457c-4ec8-a26b-75e271c2726a","name":"Viento Frío","ru":"Viento Frío","country":"4438d8f1-8026-441f-99aa-fe04a23b2a63","countryCode":"PA","state":"fcf7d464-8d8c-4911-86f9-6b9a345a4917","stateCode":"3","latitude":"9.58263000","longitude":"-79.40690000"},{"id":"a5237406-0804-48b2-98f9-de8ca05d4f0d","name":"Boca de Cupé","ru":"Boca de Cupé","country":"4438d8f1-8026-441f-99aa-fe04a23b2a63","countryCode":"PA","state":"4f8434c8-f758-40d1-947c-52619308dd0a","stateCode":"5","latitude":"8.03003000","longitude":"-77.58978000"},{"id":"dee8873d-65ae-43c8-9dee-d48023ad264a","name":"Camogantí","ru":"Camogantí","country":"4438d8f1-8026-441f-99aa-fe04a23b2a63","countryCode":"PA","state":"4f8434c8-f758-40d1-947c-52619308dd0a","stateCode":"5","latitude":"8.04171000","longitude":"-77.88682000"},{"id":"0133607e-0416-47f7-9052-41ed24ed5da2","name":"Cucunatí","ru":"Cucunatí","country":"4438d8f1-8026-441f-99aa-fe04a23b2a63","countryCode":"PA","state":"4f8434c8-f758-40d1-947c-52619308dd0a","stateCode":"5","latitude":"8.57508000","longitude":"-78.25671000"},{"id":"dcc85f6f-3d53-4e3c-83e4-3597e6a44b30","name":"Distrito de Chepigana","ru":"Distrito de Chepigana","country":"4438d8f1-8026-441f-99aa-fe04a23b2a63","countryCode":"PA","state":"4f8434c8-f758-40d1-947c-52619308dd0a","stateCode":"5","latitude":"7.84374000","longitude":"-77.83830000"},{"id":"bb0116f6-055d-4c8d-aa2c-66a07b371977","name":"Distrito de Pinogana","ru":"Distrito de Pinogana","country":"4438d8f1-8026-441f-99aa-fe04a23b2a63","countryCode":"PA","state":"4f8434c8-f758-40d1-947c-52619308dd0a","stateCode":"5","latitude":"7.89343000","longitude":"-77.52562000"},{"id":"469098b0-09a9-49a4-92c6-72ca9d540ea3","name":"Garachiné","ru":"Garachiné","country":"4438d8f1-8026-441f-99aa-fe04a23b2a63","countryCode":"PA","state":"4f8434c8-f758-40d1-947c-52619308dd0a","stateCode":"5","latitude":"8.06684000","longitude":"-78.36436000"},{"id":"e9c81cc7-552d-478d-a824-7738d8a64a92","name":"Jaqué","ru":"Jaqué","country":"4438d8f1-8026-441f-99aa-fe04a23b2a63","countryCode":"PA","state":"4f8434c8-f758-40d1-947c-52619308dd0a","stateCode":"5","latitude":"7.51826000","longitude":"-78.16343000"},{"id":"084bd640-afe5-4ba5-b202-35abb7f99fbd","name":"La Palma","ru":"La Palma","country":"4438d8f1-8026-441f-99aa-fe04a23b2a63","countryCode":"PA","state":"4f8434c8-f758-40d1-947c-52619308dd0a","stateCode":"5","latitude":"8.40608000","longitude":"-78.13964000"},{"id":"9c49e437-ee64-4899-a663-4d39c619abde","name":"Metetí","ru":"Metetí","country":"4438d8f1-8026-441f-99aa-fe04a23b2a63","countryCode":"PA","state":"4f8434c8-f758-40d1-947c-52619308dd0a","stateCode":"5","latitude":"8.49909000","longitude":"-77.97897000"},{"id":"5bfe5a67-a29a-44b0-a6da-c9a9ded49775","name":"Mortí","ru":"Mortí","country":"4438d8f1-8026-441f-99aa-fe04a23b2a63","countryCode":"PA","state":"4f8434c8-f758-40d1-947c-52619308dd0a","stateCode":"5","latitude":"8.84246000","longitude":"-77.97539000"},{"id":"8df8e299-51f2-4bb8-9b8d-6bbbf8ba92ee","name":"Púcuro","ru":"Púcuro","country":"4438d8f1-8026-441f-99aa-fe04a23b2a63","countryCode":"PA","state":"4f8434c8-f758-40d1-947c-52619308dd0a","stateCode":"5","latitude":"7.97876000","longitude":"-77.48758000"},{"id":"8d503125-f508-490a-826c-f72cb0f53668","name":"Santa Fé","ru":"Santa Fé","country":"4438d8f1-8026-441f-99aa-fe04a23b2a63","countryCode":"PA","state":"4f8434c8-f758-40d1-947c-52619308dd0a","stateCode":"5","latitude":"8.65525000","longitude":"-78.16140000"},{"id":"42ea5101-2ce1-48a9-bc91-0c230a67c4e9","name":"Yaviza","ru":"Yaviza","country":"4438d8f1-8026-441f-99aa-fe04a23b2a63","countryCode":"PA","state":"4f8434c8-f758-40d1-947c-52619308dd0a","stateCode":"5","latitude":"8.15835000","longitude":"-77.69276000"},{"id":"0769c040-7e7a-4796-adcf-7d0b179a6199","name":"Bayamón","ru":"Bayamón","country":"4438d8f1-8026-441f-99aa-fe04a23b2a63","countryCode":"PA","state":"e19c88ff-b5e5-45d8-a6cd-2feba88dee63","stateCode":"EM","latitude":"7.96817000","longitude":"-78.21648000"},{"id":"7e31fe3f-52b3-4732-a0fb-36017adde2aa","name":"Cémaco","ru":"Cémaco","country":"4438d8f1-8026-441f-99aa-fe04a23b2a63","countryCode":"PA","state":"e19c88ff-b5e5-45d8-a6cd-2feba88dee63","stateCode":"EM","latitude":"8.08285000","longitude":"-77.54210000"},{"id":"bc5bab0a-c5b3-4710-8bee-7e850a39a304","name":"Corozal","ru":"Corozal","country":"4438d8f1-8026-441f-99aa-fe04a23b2a63","countryCode":"PA","state":"e19c88ff-b5e5-45d8-a6cd-2feba88dee63","stateCode":"EM","latitude":"8.20108000","longitude":"-77.59637000"},{"id":"bc98c824-db98-47eb-a658-6f17f6c7d3d7","name":"Sambú","ru":"Sambú","country":"4438d8f1-8026-441f-99aa-fe04a23b2a63","countryCode":"PA","state":"e19c88ff-b5e5-45d8-a6cd-2feba88dee63","stateCode":"EM","latitude":"7.82013000","longitude":"-78.11005000"},{"id":"3d3fd2af-7c3a-42a9-9ef1-92cf4c7dbe59","name":"Unión Chocó","ru":"Unión Chocó","country":"4438d8f1-8026-441f-99aa-fe04a23b2a63","countryCode":"PA","state":"e19c88ff-b5e5-45d8-a6cd-2feba88dee63","stateCode":"EM","latitude":"8.08404000","longitude":"-77.53507000"},{"id":"bac13485-cc8f-44af-a2ff-71d3c767335a","name":"Yape","ru":"Yape","country":"4438d8f1-8026-441f-99aa-fe04a23b2a63","countryCode":"PA","state":"e19c88ff-b5e5-45d8-a6cd-2feba88dee63","stateCode":"EM","latitude":"8.09839000","longitude":"-77.59817000"},{"id":"91933d10-c278-4e35-a41a-b9acf6e13ade","name":"Achutupo","ru":"Achutupo","country":"4438d8f1-8026-441f-99aa-fe04a23b2a63","countryCode":"PA","state":"f1a84fe5-bd75-4851-a366-7f37a51c49cf","stateCode":"KY","latitude":"9.19827000","longitude":"-77.98729000"},{"id":"c0b0e1dc-36c2-438e-b90e-5c85b02cd0e5","name":"Ailigandí","ru":"Ailigandí","country":"4438d8f1-8026-441f-99aa-fe04a23b2a63","countryCode":"PA","state":"f1a84fe5-bd75-4851-a366-7f37a51c49cf","stateCode":"KY","latitude":"9.22810000","longitude":"-78.02778000"},{"id":"3111b0e5-e4cd-46b8-a1b8-7b56c7e0470e","name":"Cartí Sugdup","ru":"Cartí Sugdup","country":"4438d8f1-8026-441f-99aa-fe04a23b2a63","countryCode":"PA","state":"f1a84fe5-bd75-4851-a366-7f37a51c49cf","stateCode":"KY","latitude":"9.46460000","longitude":"-78.95931000"},{"id":"5fac1559-c476-4835-9930-f5b8923f36f8","name":"El Porvenir","ru":"El Porvenir","country":"4438d8f1-8026-441f-99aa-fe04a23b2a63","countryCode":"PA","state":"f1a84fe5-bd75-4851-a366-7f37a51c49cf","stateCode":"KY","latitude":"9.55276000","longitude":"-78.95230000"},{"id":"3c6f8562-c95b-435d-b8a6-c8bedd6f983a","name":"Mulatupo","ru":"Mulatupo","country":"4438d8f1-8026-441f-99aa-fe04a23b2a63","countryCode":"PA","state":"f1a84fe5-bd75-4851-a366-7f37a51c49cf","stateCode":"KY","latitude":"8.94672000","longitude":"-77.75080000"},{"id":"8d76f121-555b-42ab-9428-cd9531162a77","name":"Narganá","ru":"Narganá","country":"4438d8f1-8026-441f-99aa-fe04a23b2a63","countryCode":"PA","state":"f1a84fe5-bd75-4851-a366-7f37a51c49cf","stateCode":"KY","latitude":"9.44394000","longitude":"-78.58666000"},{"id":"d5dc6d8a-2111-42be-b2b8-bef3328b5083","name":"Playón Chico","ru":"Playón Chico","country":"4438d8f1-8026-441f-99aa-fe04a23b2a63","countryCode":"PA","state":"f1a84fe5-bd75-4851-a366-7f37a51c49cf","stateCode":"KY","latitude":"9.31128000","longitude":"-78.23270000"},{"id":"5131ff35-7a37-4c5b-ba6a-896968a37b48","name":"Puerto Obaldía","ru":"Puerto Obaldía","country":"4438d8f1-8026-441f-99aa-fe04a23b2a63","countryCode":"PA","state":"f1a84fe5-bd75-4851-a366-7f37a51c49cf","stateCode":"KY","latitude":"8.66632000","longitude":"-77.41922000"},{"id":"31337901-87ae-4c45-9ab0-b8891ac92ba8","name":"San Ignacio de Tupile","ru":"San Ignacio de Tupile","country":"4438d8f1-8026-441f-99aa-fe04a23b2a63","countryCode":"PA","state":"f1a84fe5-bd75-4851-a366-7f37a51c49cf","stateCode":"KY","latitude":"9.28905000","longitude":"-78.15206000"},{"id":"08956d06-e453-4e0c-b315-26567b4b6777","name":"Tubualá","ru":"Tubualá","country":"4438d8f1-8026-441f-99aa-fe04a23b2a63","countryCode":"PA","state":"f1a84fe5-bd75-4851-a366-7f37a51c49cf","stateCode":"KY","latitude":"9.51667000","longitude":"-79.03333000"},{"id":"57701dfa-f288-4e9d-ae02-9e6b5fb55c85","name":"Ustupo","ru":"Ustupo","country":"4438d8f1-8026-441f-99aa-fe04a23b2a63","countryCode":"PA","state":"f1a84fe5-bd75-4851-a366-7f37a51c49cf","stateCode":"KY","latitude":"9.13112000","longitude":"-77.92620000"},{"id":"0e0b5a95-9f2b-480c-871b-f529e24dc252","name":"Boca de Parita","ru":"Boca de Parita","country":"4438d8f1-8026-441f-99aa-fe04a23b2a63","countryCode":"PA","state":"270a2d5e-07cb-4ce9-afaa-81ecb3a65a62","stateCode":"6","latitude":"8.00796000","longitude":"-80.45320000"},{"id":"63f936e8-4220-4eb5-9dc0-4424eecd8b2f","name":"Cabuya","ru":"Cabuya","country":"4438d8f1-8026-441f-99aa-fe04a23b2a63","countryCode":"PA","state":"270a2d5e-07cb-4ce9-afaa-81ecb3a65a62","stateCode":"6","latitude":"8.03138000","longitude":"-80.63227000"},{"id":"05630884-b8f6-4d29-bfc5-9d74f12aa4b5","name":"Cerro Largo","ru":"Cerro Largo","country":"4438d8f1-8026-441f-99aa-fe04a23b2a63","countryCode":"PA","state":"270a2d5e-07cb-4ce9-afaa-81ecb3a65a62","stateCode":"6","latitude":"7.83377000","longitude":"-80.83168000"},{"id":"386c8980-83a5-4bfc-85ae-2d7a7367850a","name":"Chitré","ru":"Chitré","country":"4438d8f1-8026-441f-99aa-fe04a23b2a63","countryCode":"PA","state":"270a2d5e-07cb-4ce9-afaa-81ecb3a65a62","stateCode":"6","latitude":"7.96082000","longitude":"-80.42944000"},{"id":"4e0935de-695e-438c-a95d-32fa081ebf25","name":"Chumical","ru":"Chumical","country":"4438d8f1-8026-441f-99aa-fe04a23b2a63","countryCode":"PA","state":"270a2d5e-07cb-4ce9-afaa-81ecb3a65a62","stateCode":"6","latitude":"7.84482000","longitude":"-80.72627000"},{"id":"286845ab-e59f-489c-8cf6-4fc22a54546f","name":"Chupampa","ru":"Chupampa","country":"4438d8f1-8026-441f-99aa-fe04a23b2a63","countryCode":"PA","state":"270a2d5e-07cb-4ce9-afaa-81ecb3a65a62","stateCode":"6","latitude":"8.07620000","longitude":"-80.77656000"},{"id":"06772c4b-3627-46ce-b98b-412b3a229aa0","name":"Distrito de Chitré","ru":"Distrito de Chitré","country":"4438d8f1-8026-441f-99aa-fe04a23b2a63","countryCode":"PA","state":"270a2d5e-07cb-4ce9-afaa-81ecb3a65a62","stateCode":"6","latitude":"7.98333000","longitude":"-80.43333000"},{"id":"d62f94d5-326d-47bb-896c-5aa5e05e3e48","name":"Distrito de Las Minas","ru":"Distrito de Las Minas","country":"4438d8f1-8026-441f-99aa-fe04a23b2a63","countryCode":"PA","state":"270a2d5e-07cb-4ce9-afaa-81ecb3a65a62","stateCode":"6","latitude":"7.76525000","longitude":"-80.82249000"},{"id":"0432ea57-1c54-448a-b876-6e32b680e09e","name":"Distrito de Los Pozos","ru":"Distrito de Los Pozos","country":"4438d8f1-8026-441f-99aa-fe04a23b2a63","countryCode":"PA","state":"270a2d5e-07cb-4ce9-afaa-81ecb3a65a62","stateCode":"6","latitude":"7.70944000","longitude":"-80.64311000"},{"id":"b25a6651-b4e5-4ae3-82af-4371529584aa","name":"Distrito de Ocú","ru":"Distrito de Ocú","country":"4438d8f1-8026-441f-99aa-fe04a23b2a63","countryCode":"PA","state":"270a2d5e-07cb-4ce9-afaa-81ecb3a65a62","stateCode":"6","latitude":"7.90641000","longitude":"-80.79752000"},{"id":"8ee78f37-d7ee-4139-93bf-3486a42ba345","name":"Distrito de Parita","ru":"Distrito de Parita","country":"4438d8f1-8026-441f-99aa-fe04a23b2a63","countryCode":"PA","state":"270a2d5e-07cb-4ce9-afaa-81ecb3a65a62","stateCode":"6","latitude":"8.06240000","longitude":"-80.56373000"},{"id":"759c15a5-9e3f-43a9-874f-0bb1169de065","name":"Distrito de Pesé","ru":"Distrito de Pesé","country":"4438d8f1-8026-441f-99aa-fe04a23b2a63","countryCode":"PA","state":"270a2d5e-07cb-4ce9-afaa-81ecb3a65a62","stateCode":"6","latitude":"7.88194000","longitude":"-80.63261000"},{"id":"f27b00d9-0103-42cd-8473-79baed9cd5d9","name":"Distrito de Santa María","ru":"Distrito de Santa María","country":"4438d8f1-8026-441f-99aa-fe04a23b2a63","countryCode":"PA","state":"270a2d5e-07cb-4ce9-afaa-81ecb3a65a62","stateCode":"6","latitude":"8.11667000","longitude":"-80.68333000"},{"id":"efad5fdf-18ae-490e-8529-06179b3aeef3","name":"El Calabacito","ru":"El Calabacito","country":"4438d8f1-8026-441f-99aa-fe04a23b2a63","countryCode":"PA","state":"270a2d5e-07cb-4ce9-afaa-81ecb3a65a62","stateCode":"6","latitude":"7.71843000","longitude":"-80.59757000"},{"id":"50ad6dfd-701c-4363-9875-018e427dcfa6","name":"El Capurí","ru":"El Capurí","country":"4438d8f1-8026-441f-99aa-fe04a23b2a63","countryCode":"PA","state":"270a2d5e-07cb-4ce9-afaa-81ecb3a65a62","stateCode":"6","latitude":"7.72571000","longitude":"-80.64349000"},{"id":"2af60174-0f50-4feb-a64d-f44d34b1931b","name":"El Cedro","ru":"El Cedro","country":"4438d8f1-8026-441f-99aa-fe04a23b2a63","countryCode":"PA","state":"270a2d5e-07cb-4ce9-afaa-81ecb3a65a62","stateCode":"6","latitude":"7.68565000","longitude":"-80.65927000"},{"id":"db13a083-a5d4-4d9a-a3ed-ea66fce1c380","name":"El Pedregoso","ru":"El Pedregoso","country":"4438d8f1-8026-441f-99aa-fe04a23b2a63","countryCode":"PA","state":"270a2d5e-07cb-4ce9-afaa-81ecb3a65a62","stateCode":"6","latitude":"7.93642000","longitude":"-80.63807000"},{"id":"c1741aaf-8c1f-470c-a749-c392ba9a3d7c","name":"El Rincón","ru":"El Rincón","country":"4438d8f1-8026-441f-99aa-fe04a23b2a63","countryCode":"PA","state":"270a2d5e-07cb-4ce9-afaa-81ecb3a65a62","stateCode":"6","latitude":"8.11923000","longitude":"-80.61707000"},{"id":"389d6211-e8d5-43fd-aeca-872c9b34be8a","name":"El Toro","ru":"El Toro","country":"4438d8f1-8026-441f-99aa-fe04a23b2a63","countryCode":"PA","state":"270a2d5e-07cb-4ce9-afaa-81ecb3a65a62","stateCode":"6","latitude":"7.75110000","longitude":"-80.86943000"},{"id":"cdfe97f2-e599-4312-986c-6f05ffde7b6d","name":"La Arena","ru":"La Arena","country":"4438d8f1-8026-441f-99aa-fe04a23b2a63","countryCode":"PA","state":"270a2d5e-07cb-4ce9-afaa-81ecb3a65a62","stateCode":"6","latitude":"7.96766000","longitude":"-80.46523000"},{"id":"e71bf6b5-eae0-4dac-bb46-21dd41a39e96","name":"La Trinidad","ru":"La Trinidad","country":"4438d8f1-8026-441f-99aa-fe04a23b2a63","countryCode":"PA","state":"270a2d5e-07cb-4ce9-afaa-81ecb3a65a62","stateCode":"6","latitude":"7.91457000","longitude":"-80.70332000"},{"id":"6af47f2d-9e61-4d98-8fee-335e37191246","name":"Las Guabas","ru":"Las Guabas","country":"4438d8f1-8026-441f-99aa-fe04a23b2a63","countryCode":"PA","state":"270a2d5e-07cb-4ce9-afaa-81ecb3a65a62","stateCode":"6","latitude":"7.90949000","longitude":"-80.80706000"},{"id":"a66c7a79-9c9b-48d5-8a41-dbb8a835f230","name":"Las Minas","ru":"Las Minas","country":"4438d8f1-8026-441f-99aa-fe04a23b2a63","countryCode":"PA","state":"270a2d5e-07cb-4ce9-afaa-81ecb3a65a62","stateCode":"6","latitude":"7.79581000","longitude":"-80.74570000"},{"id":"c0c0d5c0-04de-48db-9585-1eafb2da6026","name":"Leones Arriba","ru":"Leones Arriba","country":"4438d8f1-8026-441f-99aa-fe04a23b2a63","countryCode":"PA","state":"270a2d5e-07cb-4ce9-afaa-81ecb3a65a62","stateCode":"6","latitude":"7.76590000","longitude":"-80.84515000"},{"id":"0e1f660e-cc09-468f-8812-6c3a963ee241","name":"Limón de Tijeras","ru":"Limón de Tijeras","country":"4438d8f1-8026-441f-99aa-fe04a23b2a63","countryCode":"PA","state":"270a2d5e-07cb-4ce9-afaa-81ecb3a65a62","stateCode":"6","latitude":"7.81756000","longitude":"-80.91335000"},{"id":"f7709883-abaa-495f-acc3-70ea9d86033f","name":"Llano Bonito","ru":"Llano Bonito","country":"4438d8f1-8026-441f-99aa-fe04a23b2a63","countryCode":"PA","state":"270a2d5e-07cb-4ce9-afaa-81ecb3a65a62","stateCode":"6","latitude":"7.97637000","longitude":"-80.41646000"},{"id":"ceefabd8-d4e9-41ef-ad7b-392f269df63b","name":"Llano de La Cruz","ru":"Llano de La Cruz","country":"4438d8f1-8026-441f-99aa-fe04a23b2a63","countryCode":"PA","state":"270a2d5e-07cb-4ce9-afaa-81ecb3a65a62","stateCode":"6","latitude":"7.95178000","longitude":"-80.64239000"},{"id":"f3c3f61b-f39c-4142-83d9-a081c839e92d","name":"Llano Grande","ru":"Llano Grande","country":"4438d8f1-8026-441f-99aa-fe04a23b2a63","countryCode":"PA","state":"270a2d5e-07cb-4ce9-afaa-81ecb3a65a62","stateCode":"6","latitude":"7.97406000","longitude":"-80.71103000"},{"id":"90adedb5-4ce3-4020-85ec-2f72fbf9241b","name":"Los Canelos","ru":"Los Canelos","country":"4438d8f1-8026-441f-99aa-fe04a23b2a63","countryCode":"PA","state":"270a2d5e-07cb-4ce9-afaa-81ecb3a65a62","stateCode":"6","latitude":"8.11722000","longitude":"-80.70769000"},{"id":"d00a6d67-7970-42a2-bb92-e34630c0855b","name":"Los Castillos","ru":"Los Castillos","country":"4438d8f1-8026-441f-99aa-fe04a23b2a63","countryCode":"PA","state":"270a2d5e-07cb-4ce9-afaa-81ecb3a65a62","stateCode":"6","latitude":"7.98565000","longitude":"-80.61886000"},{"id":"4d6dd5bb-1b92-4b6a-9e64-b6a3de85ae32","name":"Los Cerritos","ru":"Los Cerritos","country":"4438d8f1-8026-441f-99aa-fe04a23b2a63","countryCode":"PA","state":"270a2d5e-07cb-4ce9-afaa-81ecb3a65a62","stateCode":"6","latitude":"7.79746000","longitude":"-80.61071000"},{"id":"794aed5c-5da6-48b6-9fa3-8d126dd3644a","name":"Los Cerros de Paja","ru":"Los Cerros de Paja","country":"4438d8f1-8026-441f-99aa-fe04a23b2a63","countryCode":"PA","state":"270a2d5e-07cb-4ce9-afaa-81ecb3a65a62","stateCode":"6","latitude":"7.71821000","longitude":"-80.67273000"},{"id":"1fbd3da0-574c-4266-a2a5-b04be2410736","name":"Los Pozos","ru":"Los Pozos","country":"4438d8f1-8026-441f-99aa-fe04a23b2a63","countryCode":"PA","state":"270a2d5e-07cb-4ce9-afaa-81ecb3a65a62","stateCode":"6","latitude":"7.78300000","longitude":"-80.64524000"},{"id":"d3ee7bdf-e7f9-4e8a-9e23-683161446317","name":"Monagrillo","ru":"Monagrillo","country":"4438d8f1-8026-441f-99aa-fe04a23b2a63","countryCode":"PA","state":"270a2d5e-07cb-4ce9-afaa-81ecb3a65a62","stateCode":"6","latitude":"7.98179000","longitude":"-80.43764000"},{"id":"4d86fbb6-ba80-4273-8279-b8cbe744061f","name":"Ocú","ru":"Ocú","country":"4438d8f1-8026-441f-99aa-fe04a23b2a63","countryCode":"PA","state":"270a2d5e-07cb-4ce9-afaa-81ecb3a65a62","stateCode":"6","latitude":"7.94052000","longitude":"-80.77936000"},{"id":"d26628e1-caac-4667-a262-67e94f25779c","name":"París","ru":"París","country":"4438d8f1-8026-441f-99aa-fe04a23b2a63","countryCode":"PA","state":"270a2d5e-07cb-4ce9-afaa-81ecb3a65a62","stateCode":"6","latitude":"8.05053000","longitude":"-80.55409000"},{"id":"926d37c4-1ef6-49a5-9409-1a60ceb3662b","name":"Parita","ru":"Parita","country":"4438d8f1-8026-441f-99aa-fe04a23b2a63","countryCode":"PA","state":"270a2d5e-07cb-4ce9-afaa-81ecb3a65a62","stateCode":"6","latitude":"7.99393000","longitude":"-80.52097000"},{"id":"cf0543f2-6fbd-455c-b1cd-c652bd388584","name":"Peñas Chatas","ru":"Peñas Chatas","country":"4438d8f1-8026-441f-99aa-fe04a23b2a63","countryCode":"PA","state":"270a2d5e-07cb-4ce9-afaa-81ecb3a65a62","stateCode":"6","latitude":"8.01502000","longitude":"-80.80366000"},{"id":"86a50cd7-7800-4d80-a929-6373e674d392","name":"Pesé","ru":"Pesé","country":"4438d8f1-8026-441f-99aa-fe04a23b2a63","countryCode":"PA","state":"270a2d5e-07cb-4ce9-afaa-81ecb3a65a62","stateCode":"6","latitude":"7.90863000","longitude":"-80.61433000"},{"id":"8f28e24e-c8c6-429e-a825-7fe064c4de49","name":"Pitaloza Arriba","ru":"Pitaloza Arriba","country":"4438d8f1-8026-441f-99aa-fe04a23b2a63","countryCode":"PA","state":"270a2d5e-07cb-4ce9-afaa-81ecb3a65a62","stateCode":"6","latitude":"7.64216000","longitude":"-80.66788000"},{"id":"d85cd4d0-c1c9-46b6-b496-a156df2e3463","name":"Portobelillo","ru":"Portobelillo","country":"4438d8f1-8026-441f-99aa-fe04a23b2a63","countryCode":"PA","state":"270a2d5e-07cb-4ce9-afaa-81ecb3a65a62","stateCode":"6","latitude":"8.01738000","longitude":"-80.59538000"},{"id":"5b70a23b-ffd9-4ea9-9508-0b353ce55e53","name":"Potuga","ru":"Potuga","country":"4438d8f1-8026-441f-99aa-fe04a23b2a63","countryCode":"PA","state":"270a2d5e-07cb-4ce9-afaa-81ecb3a65a62","stateCode":"6","latitude":"8.06317000","longitude":"-80.62271000"},{"id":"6b52d996-2cb1-4f53-9063-428da2d98112","name":"Quebrada del Rosario","ru":"Quebrada del Rosario","country":"4438d8f1-8026-441f-99aa-fe04a23b2a63","countryCode":"PA","state":"270a2d5e-07cb-4ce9-afaa-81ecb3a65a62","stateCode":"6","latitude":"7.71238000","longitude":"-80.74222000"},{"id":"e1896083-c992-41c1-afbf-1e85f92b267f","name":"Rincón Hondo","ru":"Rincón Hondo","country":"4438d8f1-8026-441f-99aa-fe04a23b2a63","countryCode":"PA","state":"270a2d5e-07cb-4ce9-afaa-81ecb3a65a62","stateCode":"6","latitude":"7.84436000","longitude":"-80.60397000"},{"id":"a29f34b5-89ea-4539-94b5-7bb7cadf9c76","name":"Sabana Grande","ru":"Sabana Grande","country":"4438d8f1-8026-441f-99aa-fe04a23b2a63","countryCode":"PA","state":"270a2d5e-07cb-4ce9-afaa-81ecb3a65a62","stateCode":"6","latitude":"7.88002000","longitude":"-80.63818000"},{"id":"5e26d2ed-7c47-4b32-8daa-5d0fc8efb4b2","name":"San Juan Bautista","ru":"San Juan Bautista","country":"4438d8f1-8026-441f-99aa-fe04a23b2a63","countryCode":"PA","state":"270a2d5e-07cb-4ce9-afaa-81ecb3a65a62","stateCode":"6","latitude":"7.96099000","longitude":"-80.41283000"},{"id":"0c28fef1-5030-4a5a-bd2a-33078b6943c5","name":"Santa María","ru":"Santa María","country":"4438d8f1-8026-441f-99aa-fe04a23b2a63","countryCode":"PA","state":"270a2d5e-07cb-4ce9-afaa-81ecb3a65a62","stateCode":"6","latitude":"8.11143000","longitude":"-80.66582000"},{"id":"34ce56cd-00ca-41f5-8d16-855f02105c77","name":"Agua Buena","ru":"Agua Buena","country":"4438d8f1-8026-441f-99aa-fe04a23b2a63","countryCode":"PA","state":"3abe7f90-f3f4-459a-afa0-76ab6dba0f49","stateCode":"7","latitude":"7.83465000","longitude":"-80.39405000"},{"id":"6a0ec57f-d2cd-486b-8695-9f5f47611072","name":"Ave María","ru":"Ave María","country":"4438d8f1-8026-441f-99aa-fe04a23b2a63","countryCode":"PA","state":"3abe7f90-f3f4-459a-afa0-76ab6dba0f49","stateCode":"7","latitude":"7.32481000","longitude":"-80.45361000"},{"id":"f6c2f2a9-b298-44cb-abeb-f2af8efb8e55","name":"Bahía Honda","ru":"Bahía Honda","country":"4438d8f1-8026-441f-99aa-fe04a23b2a63","countryCode":"PA","state":"3abe7f90-f3f4-459a-afa0-76ab6dba0f49","stateCode":"7","latitude":"7.70517000","longitude":"-80.45342000"},{"id":"5f2d4b2b-a19c-43ae-b2f6-743098ec72b1","name":"Bajo Corral","ru":"Bajo Corral","country":"4438d8f1-8026-441f-99aa-fe04a23b2a63","countryCode":"PA","state":"3abe7f90-f3f4-459a-afa0-76ab6dba0f49","stateCode":"7","latitude":"7.60463000","longitude":"-80.26016000"},{"id":"4d334ba5-0920-48f0-a6a6-20726a75e4d3","name":"Bayano","ru":"Bayano","country":"4438d8f1-8026-441f-99aa-fe04a23b2a63","countryCode":"PA","state":"3abe7f90-f3f4-459a-afa0-76ab6dba0f49","stateCode":"7","latitude":"7.63014000","longitude":"-80.38201000"},{"id":"c5678bc0-f98b-4708-a6a5-ac8121ccbc57","name":"Bella Vista","ru":"Bella Vista","country":"4438d8f1-8026-441f-99aa-fe04a23b2a63","countryCode":"PA","state":"3abe7f90-f3f4-459a-afa0-76ab6dba0f49","stateCode":"7","latitude":"7.75000000","longitude":"-80.23333000"},{"id":"d3b3cc34-97a1-455b-90d8-67ee7e0acba1","name":"Cañas","ru":"Cañas","country":"4438d8f1-8026-441f-99aa-fe04a23b2a63","countryCode":"PA","state":"3abe7f90-f3f4-459a-afa0-76ab6dba0f49","stateCode":"7","latitude":"7.44713000","longitude":"-80.26480000"},{"id":"f5612607-83bd-4c84-8a4b-26fb7e8cd4df","name":"Cambutal","ru":"Cambutal","country":"4438d8f1-8026-441f-99aa-fe04a23b2a63","countryCode":"PA","state":"3abe7f90-f3f4-459a-afa0-76ab6dba0f49","stateCode":"7","latitude":"7.26534000","longitude":"-80.49105000"},{"id":"644a2369-48d3-414a-8f13-eb14683d5c0e","name":"Cedro Arriba","ru":"Cedro Arriba","country":"4438d8f1-8026-441f-99aa-fe04a23b2a63","countryCode":"PA","state":"3abe7f90-f3f4-459a-afa0-76ab6dba0f49","stateCode":"7","latitude":"7.78097000","longitude":"-80.53057000"},{"id":"40c30934-6bdc-4f8e-869f-53b893cf4326","name":"Distrito de Guararé","ru":"Distrito de Guararé","country":"4438d8f1-8026-441f-99aa-fe04a23b2a63","countryCode":"PA","state":"3abe7f90-f3f4-459a-afa0-76ab6dba0f49","stateCode":"7","latitude":"7.77021000","longitude":"-80.37515000"},{"id":"62e59752-e1b3-4530-8fd3-17399a90c4b2","name":"Distrito de Las Tablas","ru":"Distrito de Las Tablas","country":"4438d8f1-8026-441f-99aa-fe04a23b2a63","countryCode":"PA","state":"3abe7f90-f3f4-459a-afa0-76ab6dba0f49","stateCode":"7","latitude":"7.64843000","longitude":"-80.29933000"},{"id":"a95c1282-516a-4705-a60c-f8f0e5dcb001","name":"Distrito de Los Santos","ru":"Distrito de Los Santos","country":"4438d8f1-8026-441f-99aa-fe04a23b2a63","countryCode":"PA","state":"3abe7f90-f3f4-459a-afa0-76ab6dba0f49","stateCode":"7","latitude":"7.88333000","longitude":"-80.45000000"},{"id":"f61b5784-5bed-4d7c-83ca-24098fcd23dd","name":"Distrito de Macaracas","ru":"Distrito de Macaracas","country":"4438d8f1-8026-441f-99aa-fe04a23b2a63","countryCode":"PA","state":"3abe7f90-f3f4-459a-afa0-76ab6dba0f49","stateCode":"7","latitude":"7.65817000","longitude":"-80.53526000"},{"id":"b69386c2-a5da-46a4-ab82-c0ca33400cb2","name":"Distrito de Pedasí","ru":"Distrito de Pedasí","country":"4438d8f1-8026-441f-99aa-fe04a23b2a63","countryCode":"PA","state":"3abe7f90-f3f4-459a-afa0-76ab6dba0f49","stateCode":"7","latitude":"7.48528000","longitude":"-80.12747000"},{"id":"beff6bc6-22fa-485d-ba37-3da189f1e41e","name":"Distrito de Pocrí","ru":"Distrito de Pocrí","country":"4438d8f1-8026-441f-99aa-fe04a23b2a63","countryCode":"PA","state":"3abe7f90-f3f4-459a-afa0-76ab6dba0f49","stateCode":"7","latitude":"7.63721000","longitude":"-80.16470000"},{"id":"940ffc80-0b26-4f44-a1de-41de6eb74fd4","name":"Distrito de Tonosí","ru":"Distrito de Tonosí","country":"4438d8f1-8026-441f-99aa-fe04a23b2a63","countryCode":"PA","state":"3abe7f90-f3f4-459a-afa0-76ab6dba0f49","stateCode":"7","latitude":"7.43597000","longitude":"-80.45828000"},{"id":"d9fff8b1-e6f8-43ae-99c5-468f4328d0f0","name":"El Cañafístulo","ru":"El Cañafístulo","country":"4438d8f1-8026-441f-99aa-fe04a23b2a63","countryCode":"PA","state":"3abe7f90-f3f4-459a-afa0-76ab6dba0f49","stateCode":"7","latitude":"7.61768000","longitude":"-80.23322000"},{"id":"8d0c5cb0-6832-4582-b0f5-8800468a85ce","name":"El Cacao","ru":"El Cacao","country":"4438d8f1-8026-441f-99aa-fe04a23b2a63","countryCode":"PA","state":"3abe7f90-f3f4-459a-afa0-76ab6dba0f49","stateCode":"7","latitude":"7.44570000","longitude":"-80.40938000"},{"id":"bb29bde3-98d8-4930-bbe0-652b16f00d86","name":"El Carate","ru":"El Carate","country":"4438d8f1-8026-441f-99aa-fe04a23b2a63","countryCode":"PA","state":"3abe7f90-f3f4-459a-afa0-76ab6dba0f49","stateCode":"7","latitude":"7.73124000","longitude":"-80.29691000"},{"id":"6f740c08-dcbb-458d-bffa-1c4687e1793b","name":"El Cocal","ru":"El Cocal","country":"4438d8f1-8026-441f-99aa-fe04a23b2a63","countryCode":"PA","state":"3abe7f90-f3f4-459a-afa0-76ab6dba0f49","stateCode":"7","latitude":"7.73697000","longitude":"-80.27980000"},{"id":"e3b711ca-5d5a-4410-b597-9a054fb36910","name":"El Cortezo","ru":"El Cortezo","country":"4438d8f1-8026-441f-99aa-fe04a23b2a63","countryCode":"PA","state":"3abe7f90-f3f4-459a-afa0-76ab6dba0f49","stateCode":"7","latitude":"7.42661000","longitude":"-80.63311000"},{"id":"ca57d619-8fd9-40c9-98c4-3574e77b55ba","name":"El Ejido","ru":"El Ejido","country":"4438d8f1-8026-441f-99aa-fe04a23b2a63","countryCode":"PA","state":"3abe7f90-f3f4-459a-afa0-76ab6dba0f49","stateCode":"7","latitude":"7.91634000","longitude":"-80.38686000"},{"id":"c1c0f5f2-fe28-4f2c-849f-af33b167ffd1","name":"El Guásimo","ru":"El Guásimo","country":"4438d8f1-8026-441f-99aa-fe04a23b2a63","countryCode":"PA","state":"3abe7f90-f3f4-459a-afa0-76ab6dba0f49","stateCode":"7","latitude":"7.80640000","longitude":"-80.52991000"},{"id":"55a0336b-fa97-4367-84fd-9e81cffd2442","name":"El Hato","ru":"El Hato","country":"4438d8f1-8026-441f-99aa-fe04a23b2a63","countryCode":"PA","state":"3abe7f90-f3f4-459a-afa0-76ab6dba0f49","stateCode":"7","latitude":"7.79316000","longitude":"-80.38267000"},{"id":"aaa38dec-78f2-4312-9774-e75cba766ff4","name":"El Macano","ru":"El Macano","country":"4438d8f1-8026-441f-99aa-fe04a23b2a63","countryCode":"PA","state":"3abe7f90-f3f4-459a-afa0-76ab6dba0f49","stateCode":"7","latitude":"7.68489000","longitude":"-80.40309000"},{"id":"d8e56d80-23be-48cd-be42-8216009f8df5","name":"El Manantial","ru":"El Manantial","country":"4438d8f1-8026-441f-99aa-fe04a23b2a63","countryCode":"PA","state":"3abe7f90-f3f4-459a-afa0-76ab6dba0f49","stateCode":"7","latitude":"7.78245000","longitude":"-80.24713000"},{"id":"471317f5-0437-46cd-9b29-151dc565f5a2","name":"El Muñoz","ru":"El Muñoz","country":"4438d8f1-8026-441f-99aa-fe04a23b2a63","countryCode":"PA","state":"3abe7f90-f3f4-459a-afa0-76ab6dba0f49","stateCode":"7","latitude":"7.67582000","longitude":"-80.32130000"},{"id":"2997f5c8-37fa-48a0-b351-15c069e53939","name":"El Pedregoso","ru":"El Pedregoso","country":"4438d8f1-8026-441f-99aa-fe04a23b2a63","countryCode":"PA","state":"3abe7f90-f3f4-459a-afa0-76ab6dba0f49","stateCode":"7","latitude":"7.69173000","longitude":"-80.32793000"},{"id":"5c6182ab-7541-469b-a422-922134bad7a5","name":"Flores","ru":"Flores","country":"4438d8f1-8026-441f-99aa-fe04a23b2a63","countryCode":"PA","state":"3abe7f90-f3f4-459a-afa0-76ab6dba0f49","stateCode":"7","latitude":"7.48157000","longitude":"-80.40695000"},{"id":"143d6141-60fc-4db4-977f-7b3856330313","name":"Guararé","ru":"Guararé","country":"4438d8f1-8026-441f-99aa-fe04a23b2a63","countryCode":"PA","state":"3abe7f90-f3f4-459a-afa0-76ab6dba0f49","stateCode":"7","latitude":"7.81531000","longitude":"-80.28345000"},{"id":"96649f31-d294-4f7c-91d1-107bd932dbed","name":"Guararé Arriba","ru":"Guararé Arriba","country":"4438d8f1-8026-441f-99aa-fe04a23b2a63","countryCode":"PA","state":"3abe7f90-f3f4-459a-afa0-76ab6dba0f49","stateCode":"7","latitude":"7.80023000","longitude":"-80.35983000"},{"id":"86ccd681-b6b0-4ed7-bbb4-8f8eb4b60bcb","name":"La Colorada","ru":"La Colorada","country":"4438d8f1-8026-441f-99aa-fe04a23b2a63","countryCode":"PA","state":"3abe7f90-f3f4-459a-afa0-76ab6dba0f49","stateCode":"7","latitude":"7.82362000","longitude":"-80.55552000"},{"id":"966862d6-e63e-47b7-8db6-c0be7eec0018","name":"La Enea","ru":"La Enea","country":"4438d8f1-8026-441f-99aa-fe04a23b2a63","countryCode":"PA","state":"3abe7f90-f3f4-459a-afa0-76ab6dba0f49","stateCode":"7","latitude":"7.83333000","longitude":"-80.27417000"},{"id":"a4a0fec5-3401-41ee-be37-bceaf38c4300","name":"La Espigadilla","ru":"La Espigadilla","country":"4438d8f1-8026-441f-99aa-fe04a23b2a63","countryCode":"PA","state":"3abe7f90-f3f4-459a-afa0-76ab6dba0f49","stateCode":"7","latitude":"7.88389000","longitude":"-80.39039000"},{"id":"7bdcbd3b-3639-4370-a950-7ca746426d99","name":"La Laja","ru":"La Laja","country":"4438d8f1-8026-441f-99aa-fe04a23b2a63","countryCode":"PA","state":"3abe7f90-f3f4-459a-afa0-76ab6dba0f49","stateCode":"7","latitude":"7.73102000","longitude":"-80.25298000"},{"id":"d4dfef00-f569-4559-a1f3-e454307cb334","name":"La Mesa","ru":"La Mesa","country":"4438d8f1-8026-441f-99aa-fe04a23b2a63","countryCode":"PA","state":"3abe7f90-f3f4-459a-afa0-76ab6dba0f49","stateCode":"7","latitude":"7.65670000","longitude":"-80.61794000"},{"id":"63b8488b-85ec-4c16-a256-5bad2be81cf4","name":"La Miel","ru":"La Miel","country":"4438d8f1-8026-441f-99aa-fe04a23b2a63","countryCode":"PA","state":"3abe7f90-f3f4-459a-afa0-76ab6dba0f49","stateCode":"7","latitude":"7.56022000","longitude":"-80.32736000"},{"id":"6205f840-9fb3-42aa-be94-cd39a15a3694","name":"La Palma","ru":"La Palma","country":"4438d8f1-8026-441f-99aa-fe04a23b2a63","countryCode":"PA","state":"3abe7f90-f3f4-459a-afa0-76ab6dba0f49","stateCode":"7","latitude":"7.71667000","longitude":"-80.38333000"},{"id":"8795bf82-af22-4170-81d6-e2bde4f195e6","name":"La Pasera","ru":"La Pasera","country":"4438d8f1-8026-441f-99aa-fe04a23b2a63","countryCode":"PA","state":"3abe7f90-f3f4-459a-afa0-76ab6dba0f49","stateCode":"7","latitude":"7.79757000","longitude":"-80.30342000"},{"id":"5bd263fd-3578-45e9-8fb0-56a43db69ab7","name":"La Tiza","ru":"La Tiza","country":"4438d8f1-8026-441f-99aa-fe04a23b2a63","countryCode":"PA","state":"3abe7f90-f3f4-459a-afa0-76ab6dba0f49","stateCode":"7","latitude":"7.75110000","longitude":"-80.29216000"},{"id":"9d86dd17-e18b-4c9a-88a1-9d0fee9667c3","name":"La Tronosa","ru":"La Tronosa","country":"4438d8f1-8026-441f-99aa-fe04a23b2a63","countryCode":"PA","state":"3abe7f90-f3f4-459a-afa0-76ab6dba0f49","stateCode":"7","latitude":"7.43609000","longitude":"-80.58698000"},{"id":"860affc2-9fec-4898-b303-0573deda819b","name":"Lajamina","ru":"Lajamina","country":"4438d8f1-8026-441f-99aa-fe04a23b2a63","countryCode":"PA","state":"3abe7f90-f3f4-459a-afa0-76ab6dba0f49","stateCode":"7","latitude":"7.58587000","longitude":"-80.13212000"},{"id":"b1a2a42f-1b5c-47d5-a865-4291a404b888","name":"Las Cruces","ru":"Las Cruces","country":"4438d8f1-8026-441f-99aa-fe04a23b2a63","countryCode":"PA","state":"3abe7f90-f3f4-459a-afa0-76ab6dba0f49","stateCode":"7","latitude":"7.82285000","longitude":"-80.43003000"},{"id":"6c4d2722-b116-49e0-9f50-052f5b1157fc","name":"Las Guabas","ru":"Las Guabas","country":"4438d8f1-8026-441f-99aa-fe04a23b2a63","countryCode":"PA","state":"3abe7f90-f3f4-459a-afa0-76ab6dba0f49","stateCode":"7","latitude":"7.81469000","longitude":"-80.50155000"},{"id":"ab590cda-30a7-4710-b84e-3d46e5dfb62a","name":"Las Palmas","ru":"Las Palmas","country":"4438d8f1-8026-441f-99aa-fe04a23b2a63","countryCode":"PA","state":"3abe7f90-f3f4-459a-afa0-76ab6dba0f49","stateCode":"7","latitude":"7.68314000","longitude":"-80.49728000"},{"id":"ac402cee-3c93-4899-b634-bc958ab1c36c","name":"Las Palmitas","ru":"Las Palmitas","country":"4438d8f1-8026-441f-99aa-fe04a23b2a63","countryCode":"PA","state":"3abe7f90-f3f4-459a-afa0-76ab6dba0f49","stateCode":"7","latitude":"7.76523000","longitude":"-80.29350000"},{"id":"0cafeb19-c10e-457d-99e4-8ac5706308a9","name":"Las Tablas","ru":"Las Tablas","country":"4438d8f1-8026-441f-99aa-fe04a23b2a63","countryCode":"PA","state":"3abe7f90-f3f4-459a-afa0-76ab6dba0f49","stateCode":"7","latitude":"7.76472000","longitude":"-80.27483000"},{"id":"11f9a8f5-6975-47b2-b007-2a11fab381a1","name":"Las Trancas","ru":"Las Trancas","country":"4438d8f1-8026-441f-99aa-fe04a23b2a63","countryCode":"PA","state":"3abe7f90-f3f4-459a-afa0-76ab6dba0f49","stateCode":"7","latitude":"7.73400000","longitude":"-80.37384000"},{"id":"490bf92c-aef4-4627-8071-fbcd49967cae","name":"Llano Abajo","ru":"Llano Abajo","country":"4438d8f1-8026-441f-99aa-fe04a23b2a63","countryCode":"PA","state":"3abe7f90-f3f4-459a-afa0-76ab6dba0f49","stateCode":"7","latitude":"7.78598000","longitude":"-80.41060000"},{"id":"1a3426df-7e13-4bac-9af4-3bd07a03355f","name":"Llano de Piedra","ru":"Llano de Piedra","country":"4438d8f1-8026-441f-99aa-fe04a23b2a63","countryCode":"PA","state":"3abe7f90-f3f4-459a-afa0-76ab6dba0f49","stateCode":"7","latitude":"7.65972000","longitude":"-80.56347000"},{"id":"9ce1e2ac-87e4-4aed-8480-2c5e660a85b5","name":"Llano Largo","ru":"Llano Largo","country":"4438d8f1-8026-441f-99aa-fe04a23b2a63","countryCode":"PA","state":"3abe7f90-f3f4-459a-afa0-76ab6dba0f49","stateCode":"7","latitude":"7.90607000","longitude":"-80.42561000"},{"id":"86b05059-52fa-4738-bc70-1401d5acfdee","name":"Los Asientos","ru":"Los Asientos","country":"4438d8f1-8026-441f-99aa-fe04a23b2a63","countryCode":"PA","state":"3abe7f90-f3f4-459a-afa0-76ab6dba0f49","stateCode":"7","latitude":"7.51656000","longitude":"-80.13521000"},{"id":"72a3889c-d27a-498a-b347-77826c373d91","name":"Los Ángeles","ru":"Los Ángeles","country":"4438d8f1-8026-441f-99aa-fe04a23b2a63","countryCode":"PA","state":"3abe7f90-f3f4-459a-afa0-76ab6dba0f49","stateCode":"7","latitude":"7.88422000","longitude":"-80.35772000"},{"id":"2a226235-86ac-4121-a5e3-cf03ceba1967","name":"Los Olivos","ru":"Los Olivos","country":"4438d8f1-8026-441f-99aa-fe04a23b2a63","countryCode":"PA","state":"3abe7f90-f3f4-459a-afa0-76ab6dba0f49","stateCode":"7","latitude":"7.91589000","longitude":"-80.48884000"},{"id":"58a0e31e-fac5-40b4-9b9e-7092a6335ae6","name":"Los Santos","ru":"Los Santos","country":"4438d8f1-8026-441f-99aa-fe04a23b2a63","countryCode":"PA","state":"3abe7f90-f3f4-459a-afa0-76ab6dba0f49","stateCode":"7","latitude":"7.93333000","longitude":"-80.41667000"},{"id":"d7794a78-fbb6-4278-abcf-aa5129a767fb","name":"Macaracas","ru":"Macaracas","country":"4438d8f1-8026-441f-99aa-fe04a23b2a63","countryCode":"PA","state":"3abe7f90-f3f4-459a-afa0-76ab6dba0f49","stateCode":"7","latitude":"7.73168000","longitude":"-80.55364000"},{"id":"80436335-7ea4-4b47-ace2-c754c485343d","name":"Mogollón","ru":"Mogollón","country":"4438d8f1-8026-441f-99aa-fe04a23b2a63","countryCode":"PA","state":"3abe7f90-f3f4-459a-afa0-76ab6dba0f49","stateCode":"7","latitude":"7.64261000","longitude":"-80.45950000"},{"id":"9c067867-0c39-43a5-b92a-7c84281859cf","name":"Nuario","ru":"Nuario","country":"4438d8f1-8026-441f-99aa-fe04a23b2a63","countryCode":"PA","state":"3abe7f90-f3f4-459a-afa0-76ab6dba0f49","stateCode":"7","latitude":"7.53047000","longitude":"-80.32692000"},{"id":"6c491e99-16c4-4a33-8068-acacb324e0ec","name":"Oria Arriba","ru":"Oria Arriba","country":"4438d8f1-8026-441f-99aa-fe04a23b2a63","countryCode":"PA","state":"3abe7f90-f3f4-459a-afa0-76ab6dba0f49","stateCode":"7","latitude":"7.50505000","longitude":"-80.20567000"},{"id":"0e9f82d3-ef9f-49d3-a8b1-6974f755aad2","name":"Palmira","ru":"Palmira","country":"4438d8f1-8026-441f-99aa-fe04a23b2a63","countryCode":"PA","state":"3abe7f90-f3f4-459a-afa0-76ab6dba0f49","stateCode":"7","latitude":"7.66347000","longitude":"-80.35728000"},{"id":"0962e2e7-f089-4eb2-9d47-e59698483728","name":"Paraíso","ru":"Paraíso","country":"4438d8f1-8026-441f-99aa-fe04a23b2a63","countryCode":"PA","state":"3abe7f90-f3f4-459a-afa0-76ab6dba0f49","stateCode":"7","latitude":"7.68510000","longitude":"-80.16082000"},{"id":"4cc18cf7-ac90-4680-873f-0e4763f8a5e2","name":"Paritilla","ru":"Paritilla","country":"4438d8f1-8026-441f-99aa-fe04a23b2a63","countryCode":"PA","state":"3abe7f90-f3f4-459a-afa0-76ab6dba0f49","stateCode":"7","latitude":"7.62848000","longitude":"-80.17240000"},{"id":"8a6a3ad8-bac9-44b5-9bf6-8779f8c01f3e","name":"Peña Blanca","ru":"Peña Blanca","country":"4438d8f1-8026-441f-99aa-fe04a23b2a63","countryCode":"PA","state":"3abe7f90-f3f4-459a-afa0-76ab6dba0f49","stateCode":"7","latitude":"7.71931000","longitude":"-80.28366000"},{"id":"d09b5c53-0e4e-4e53-b40f-c51345557728","name":"Pedasí","ru":"Pedasí","country":"4438d8f1-8026-441f-99aa-fe04a23b2a63","countryCode":"PA","state":"3abe7f90-f3f4-459a-afa0-76ab6dba0f49","stateCode":"7","latitude":"7.53034000","longitude":"-80.02699000"},{"id":"6a25bff7-c814-4ff0-9e4d-4c914cce1244","name":"Perales","ru":"Perales","country":"4438d8f1-8026-441f-99aa-fe04a23b2a63","countryCode":"PA","state":"3abe7f90-f3f4-459a-afa0-76ab6dba0f49","stateCode":"7","latitude":"7.77461000","longitude":"-80.32494000"},{"id":"7dc4c08a-b201-4931-82d8-6affbaa5ae08","name":"Pocrí","ru":"Pocrí","country":"4438d8f1-8026-441f-99aa-fe04a23b2a63","countryCode":"PA","state":"3abe7f90-f3f4-459a-afa0-76ab6dba0f49","stateCode":"7","latitude":"7.65816000","longitude":"-80.12119000"},{"id":"d9b49fa7-8bef-4f5f-8449-c1dc9ac63e42","name":"Río Hondo","ru":"Río Hondo","country":"4438d8f1-8026-441f-99aa-fe04a23b2a63","countryCode":"PA","state":"3abe7f90-f3f4-459a-afa0-76ab6dba0f49","stateCode":"7","latitude":"7.71192000","longitude":"-80.35904000"},{"id":"51a6c439-086b-4a10-a4a5-7786f6110d89","name":"Sabana Grande","ru":"Sabana Grande","country":"4438d8f1-8026-441f-99aa-fe04a23b2a63","countryCode":"PA","state":"3abe7f90-f3f4-459a-afa0-76ab6dba0f49","stateCode":"7","latitude":"7.83543000","longitude":"-80.36490000"},{"id":"d575d221-e963-40e5-aff3-5971d2b3f7d6","name":"San José","ru":"San José","country":"4438d8f1-8026-441f-99aa-fe04a23b2a63","countryCode":"PA","state":"3abe7f90-f3f4-459a-afa0-76ab6dba0f49","stateCode":"7","latitude":"7.67395000","longitude":"-80.24438000"},{"id":"079c690d-7c3c-49e2-92f3-3f397b09f9bd","name":"Santa Ana Arriba","ru":"Santa Ana Arriba","country":"4438d8f1-8026-441f-99aa-fe04a23b2a63","countryCode":"PA","state":"3abe7f90-f3f4-459a-afa0-76ab6dba0f49","stateCode":"7","latitude":"7.93300000","longitude":"-80.36369000"},{"id":"46481331-35a7-4b56-8d6a-b5ad3fcedce3","name":"Santo Domingo","ru":"Santo Domingo","country":"4438d8f1-8026-441f-99aa-fe04a23b2a63","countryCode":"PA","state":"3abe7f90-f3f4-459a-afa0-76ab6dba0f49","stateCode":"7","latitude":"7.74614000","longitude":"-80.24173000"},