[{"id":"52a58510-2409-46b7-9c25-080feb863fe2","name":"Aba","ru":"Aba","country":"8c26bfe0-eca9-4b9b-ad25-24346aace9a8","countryCode":"NG","state":"3430c7de-e156-4f8b-afb3-ae309addc3b4","stateCode":"AB","latitude":"5.10658000","longitude":"7.36667000"},{"id":"25ee4ab0-e818-41d4-81e6-95aabbb0406d","name":"Amaigbo","ru":"Amaigbo","country":"8c26bfe0-eca9-4b9b-ad25-24346aace9a8","countryCode":"NG","state":"3430c7de-e156-4f8b-afb3-ae309addc3b4","stateCode":"AB","latitude":"5.78917000","longitude":"7.83829000"},{"id":"26b1e595-cd5a-4d56-8f90-22bbfe3fdb55","name":"Arochukwu","ru":"Arochukwu","country":"8c26bfe0-eca9-4b9b-ad25-24346aace9a8","countryCode":"NG","state":"3430c7de-e156-4f8b-afb3-ae309addc3b4","stateCode":"AB","latitude":"5.38941000","longitude":"7.91235000"},{"id":"e208877a-e230-487e-be84-7eecfca30572","name":"Bende","ru":"Bende","country":"8c26bfe0-eca9-4b9b-ad25-24346aace9a8","countryCode":"NG","state":"3430c7de-e156-4f8b-afb3-ae309addc3b4","stateCode":"AB","latitude":"5.55874000","longitude":"7.63359000"},{"id":"8b1e0916-87f3-4b92-aa6b-9c7b308f7161","name":"Ohafia-Ifigh","ru":"Ohafia-Ifigh","country":"8c26bfe0-eca9-4b9b-ad25-24346aace9a8","countryCode":"NG","state":"3430c7de-e156-4f8b-afb3-ae309addc3b4","stateCode":"AB","latitude":"5.61455000","longitude":"7.81191000"},{"id":"c68b0630-3c6a-47e0-8b6a-aee5be016417","name":"Umuahia","ru":"Umuahia","country":"8c26bfe0-eca9-4b9b-ad25-24346aace9a8","countryCode":"NG","state":"3430c7de-e156-4f8b-afb3-ae309addc3b4","stateCode":"AB","latitude":"5.52491000","longitude":"7.49461000"},{"id":"2f2ee107-db63-4a50-8551-61e60486d01c","name":"Ganye","ru":"Ganye","country":"8c26bfe0-eca9-4b9b-ad25-24346aace9a8","countryCode":"NG","state":"3fb1c45a-3492-44e5-b7d5-8108115061ff","stateCode":"AD","latitude":"8.43497000","longitude":"12.05107000"},{"id":"7c489bc5-be43-40df-b75d-03cdbce6d337","name":"Gombi","ru":"Gombi","country":"8c26bfe0-eca9-4b9b-ad25-24346aace9a8","countryCode":"NG","state":"3fb1c45a-3492-44e5-b7d5-8108115061ff","stateCode":"AD","latitude":"10.16756000","longitude":"12.73684000"},{"id":"ee17cafa-b0b0-4bf0-b5f6-dbf4c7c56671","name":"Holma","ru":"Holma","country":"8c26bfe0-eca9-4b9b-ad25-24346aace9a8","countryCode":"NG","state":"3fb1c45a-3492-44e5-b7d5-8108115061ff","stateCode":"AD","latitude":"9.89863000","longitude":"13.05450000"},{"id":"4f079986-d967-4365-a218-bb7928c79480","name":"Jimeta","ru":"Jimeta","country":"8c26bfe0-eca9-4b9b-ad25-24346aace9a8","countryCode":"NG","state":"3fb1c45a-3492-44e5-b7d5-8108115061ff","stateCode":"AD","latitude":"9.27949000","longitude":"12.45819000"},{"id":"a7d86413-8eff-49ea-85bd-1c47650bed30","name":"Madagali","ru":"Madagali","country":"8c26bfe0-eca9-4b9b-ad25-24346aace9a8","countryCode":"NG","state":"3fb1c45a-3492-44e5-b7d5-8108115061ff","stateCode":"AD","latitude":"10.88942000","longitude":"13.62832000"},{"id":"56c89356-e80f-4069-b853-3f7c741cc4b6","name":"Mayo-Belwa","ru":"Mayo-Belwa","country":"8c26bfe0-eca9-4b9b-ad25-24346aace9a8","countryCode":"NG","state":"3fb1c45a-3492-44e5-b7d5-8108115061ff","stateCode":"AD","latitude":"9.05421000","longitude":"12.05794000"},{"id":"0a1fa249-863e-481a-98f4-64ec4042356d","name":"Mubi","ru":"Mubi","country":"8c26bfe0-eca9-4b9b-ad25-24346aace9a8","countryCode":"NG","state":"3fb1c45a-3492-44e5-b7d5-8108115061ff","stateCode":"AD","latitude":"10.26858000","longitude":"13.26701000"},{"id":"0460887a-4c66-4469-a231-ca8f89f1dda3","name":"Ngurore","ru":"Ngurore","country":"8c26bfe0-eca9-4b9b-ad25-24346aace9a8","countryCode":"NG","state":"3fb1c45a-3492-44e5-b7d5-8108115061ff","stateCode":"AD","latitude":"9.28871000","longitude":"12.24026000"},{"id":"fbfa314e-d024-424b-981d-3fcc439063f9","name":"Numan","ru":"Numan","country":"8c26bfe0-eca9-4b9b-ad25-24346aace9a8","countryCode":"NG","state":"3fb1c45a-3492-44e5-b7d5-8108115061ff","stateCode":"AD","latitude":"9.46374000","longitude":"12.03062000"},{"id":"31ae318a-d232-4941-bd01-2c59593570fd","name":"Toungo","ru":"Toungo","country":"8c26bfe0-eca9-4b9b-ad25-24346aace9a8","countryCode":"NG","state":"3fb1c45a-3492-44e5-b7d5-8108115061ff","stateCode":"AD","latitude":"8.11733000","longitude":"12.04611000"},{"id":"0b9decfd-1732-43af-93ae-d80cf0836b8d","name":"Yola","ru":"Yola","country":"8c26bfe0-eca9-4b9b-ad25-24346aace9a8","countryCode":"NG","state":"3fb1c45a-3492-44e5-b7d5-8108115061ff","stateCode":"AD","latitude":"9.20839000","longitude":"12.48146000"},{"id":"8aea6344-43f4-4511-b740-5f273827d47c","name":"Eket","ru":"Eket","country":"8c26bfe0-eca9-4b9b-ad25-24346aace9a8","countryCode":"NG","state":"3d1de98b-6daa-4b4c-93bd-1d12b37594f4","stateCode":"AK","latitude":"4.64231000","longitude":"7.92438000"},{"id":"81058bed-28aa-408a-a5f3-0ff716d30d7b","name":"Esuk Oron","ru":"Esuk Oron","country":"8c26bfe0-eca9-4b9b-ad25-24346aace9a8","countryCode":"NG","state":"3d1de98b-6daa-4b4c-93bd-1d12b37594f4","stateCode":"AK","latitude":"4.80293000","longitude":"8.25341000"},{"id":"9c4bbef5-c544-443c-805f-2cd7803651c9","name":"Ikot Ekpene","ru":"Ikot Ekpene","country":"8c26bfe0-eca9-4b9b-ad25-24346aace9a8","countryCode":"NG","state":"3d1de98b-6daa-4b4c-93bd-1d12b37594f4","stateCode":"AK","latitude":"5.18194000","longitude":"7.71481000"},{"id":"9d130bd3-4898-46db-8494-1fde1801a294","name":"Itu","ru":"Itu","country":"8c26bfe0-eca9-4b9b-ad25-24346aace9a8","countryCode":"NG","state":"3d1de98b-6daa-4b4c-93bd-1d12b37594f4","stateCode":"AK","latitude":"5.20131000","longitude":"7.98373000"},{"id":"b97b1bb1-97af-4a82-a184-3282a459c6ea","name":"Uyo","ru":"Uyo","country":"8c26bfe0-eca9-4b9b-ad25-24346aace9a8","countryCode":"NG","state":"3d1de98b-6daa-4b4c-93bd-1d12b37594f4","stateCode":"AK","latitude":"5.05127000","longitude":"7.93350000"},{"id":"ed2fb851-6b8f-4c4e-ba86-d83575ccc723","name":"Agulu","ru":"Agulu","country":"8c26bfe0-eca9-4b9b-ad25-24346aace9a8","countryCode":"NG","state":"ea8b659a-df81-4b3b-8fe3-cefc32a54fe7","stateCode":"AN","latitude":"6.10045000","longitude":"7.06100000"},{"id":"e4d14a44-9eda-44e8-a40b-141ff05e2fab","name":"Atani","ru":"Atani","country":"8c26bfe0-eca9-4b9b-ad25-24346aace9a8","countryCode":"NG","state":"ea8b659a-df81-4b3b-8fe3-cefc32a54fe7","stateCode":"AN","latitude":"6.01277000","longitude":"6.74768000"},{"id":"3d735c19-1ec3-4f55-a927-4beebc16d97e","name":"Awka","ru":"Awka","country":"8c26bfe0-eca9-4b9b-ad25-24346aace9a8","countryCode":"NG","state":"ea8b659a-df81-4b3b-8fe3-cefc32a54fe7","stateCode":"AN","latitude":"6.21269000","longitude":"7.07199000"},{"id":"8909980d-2d86-48fc-89e5-e52282e47860","name":"Enugu-Ukwu","ru":"Enugu-Ukwu","country":"8c26bfe0-eca9-4b9b-ad25-24346aace9a8","countryCode":"NG","state":"ea8b659a-df81-4b3b-8fe3-cefc32a54fe7","stateCode":"AN","latitude":"6.17146000","longitude":"7.00525000"},{"id":"0ec827fc-262f-49cb-aa41-9b21ff26c9a5","name":"Igbo-Ukwu","ru":"Igbo-Ukwu","country":"8c26bfe0-eca9-4b9b-ad25-24346aace9a8","countryCode":"NG","state":"ea8b659a-df81-4b3b-8fe3-cefc32a54fe7","stateCode":"AN","latitude":"6.01798000","longitude":"7.02027000"},{"id":"ccb5dd75-1890-41e7-872c-06be6c25a52c","name":"Ihiala","ru":"Ihiala","country":"8c26bfe0-eca9-4b9b-ad25-24346aace9a8","countryCode":"NG","state":"ea8b659a-df81-4b3b-8fe3-cefc32a54fe7","stateCode":"AN","latitude":"5.85475000","longitude":"6.85944000"},{"id":"64fc3f32-4232-4026-9a94-db6fa8fd6187","name":"Nkpor","ru":"Nkpor","country":"8c26bfe0-eca9-4b9b-ad25-24346aace9a8","countryCode":"NG","state":"ea8b659a-df81-4b3b-8fe3-cefc32a54fe7","stateCode":"AN","latitude":"6.15038000","longitude":"6.83042000"},{"id":"b4a93e89-0e26-448f-ae72-d474ab95800b","name":"Nnewi","ru":"Nnewi","country":"8c26bfe0-eca9-4b9b-ad25-24346aace9a8","countryCode":"NG","state":"ea8b659a-df81-4b3b-8fe3-cefc32a54fe7","stateCode":"AN","latitude":"6.01962000","longitude":"6.91729000"},{"id":"ed529446-47cc-4572-b174-8f50bbad695e","name":"Onitsha","ru":"Onitsha","country":"8c26bfe0-eca9-4b9b-ad25-24346aace9a8","countryCode":"NG","state":"ea8b659a-df81-4b3b-8fe3-cefc32a54fe7","stateCode":"AN","latitude":"6.14978000","longitude":"6.78569000"},{"id":"f48934a6-e4f5-496f-bebe-e560d86744ad","name":"Ozubulu","ru":"Ozubulu","country":"8c26bfe0-eca9-4b9b-ad25-24346aace9a8","countryCode":"NG","state":"ea8b659a-df81-4b3b-8fe3-cefc32a54fe7","stateCode":"AN","latitude":"5.95753000","longitude":"6.85305000"},{"id":"b3f912c8-d25b-4d95-ac66-d784e7fa489a","name":"Uga","ru":"Uga","country":"8c26bfe0-eca9-4b9b-ad25-24346aace9a8","countryCode":"NG","state":"ea8b659a-df81-4b3b-8fe3-cefc32a54fe7","stateCode":"AN","latitude":"5.93576000","longitude":"7.07930000"},{"id":"880a94cb-f56b-43e1-b88f-2de4961a4bca","name":"Uruobo-Okija","ru":"Uruobo-Okija","country":"8c26bfe0-eca9-4b9b-ad25-24346aace9a8","countryCode":"NG","state":"ea8b659a-df81-4b3b-8fe3-cefc32a54fe7","stateCode":"AN","latitude":"5.90016000","longitude":"6.84312000"},{"id":"e30cac7e-f4f7-4e81-87ed-7e70acd003f8","name":"Azare","ru":"Azare","country":"8c26bfe0-eca9-4b9b-ad25-24346aace9a8","countryCode":"NG","state":"d433dd34-8246-4cc9-87f2-cd1b2f58d64c","stateCode":"BA","latitude":"11.67478000","longitude":"10.19069000"},{"id":"351c4048-00e6-4f24-a25c-45737a5c1094","name":"Bauchi","ru":"Bauchi","country":"8c26bfe0-eca9-4b9b-ad25-24346aace9a8","countryCode":"NG","state":"d433dd34-8246-4cc9-87f2-cd1b2f58d64c","stateCode":"BA","latitude":"10.31032000","longitude":"9.84388000"},{"id":"4e1e05a0-d23c-430a-b30a-1b7c0b97cafe","name":"Boi","ru":"Boi","country":"8c26bfe0-eca9-4b9b-ad25-24346aace9a8","countryCode":"NG","state":"d433dd34-8246-4cc9-87f2-cd1b2f58d64c","stateCode":"BA","latitude":"9.56109000","longitude":"9.50154000"},{"id":"4e6aae08-b559-49ae-af2f-4786c2e5d01a","name":"Bununu","ru":"Bununu","country":"8c26bfe0-eca9-4b9b-ad25-24346aace9a8","countryCode":"NG","state":"d433dd34-8246-4cc9-87f2-cd1b2f58d64c","stateCode":"BA","latitude":"9.88224000","longitude":"9.68058000"},{"id":"5b457406-5d13-4572-a217-5b05659cb80e","name":"Darazo","ru":"Darazo","country":"8c26bfe0-eca9-4b9b-ad25-24346aace9a8","countryCode":"NG","state":"d433dd34-8246-4cc9-87f2-cd1b2f58d64c","stateCode":"BA","latitude":"10.99920000","longitude":"10.41062000"},{"id":"767f0cd4-2c83-42cd-9453-04746673c572","name":"Dass","ru":"Dass","country":"8c26bfe0-eca9-4b9b-ad25-24346aace9a8","countryCode":"NG","state":"d433dd34-8246-4cc9-87f2-cd1b2f58d64c","stateCode":"BA","latitude":"10.00065000","longitude":"9.51596000"},{"id":"43e373fe-271b-4acb-95a3-37ce1381f1b2","name":"Dindima","ru":"Dindima","country":"8c26bfe0-eca9-4b9b-ad25-24346aace9a8","countryCode":"NG","state":"d433dd34-8246-4cc9-87f2-cd1b2f58d64c","stateCode":"BA","latitude":"10.22629000","longitude":"10.15132000"},{"id":"613c20ea-5d52-4069-b1d8-18f5e0707e85","name":"Disina","ru":"Disina","country":"8c26bfe0-eca9-4b9b-ad25-24346aace9a8","countryCode":"NG","state":"d433dd34-8246-4cc9-87f2-cd1b2f58d64c","stateCode":"BA","latitude":"11.48135000","longitude":"9.91903000"},{"id":"64b59c3c-420e-4da0-b1c1-2c7f2337b6a3","name":"Gabarin","ru":"Gabarin","country":"8c26bfe0-eca9-4b9b-ad25-24346aace9a8","countryCode":"NG","state":"d433dd34-8246-4cc9-87f2-cd1b2f58d64c","stateCode":"BA","latitude":"11.10930000","longitude":"10.44410000"},{"id":"96b6f357-da20-4cda-893a-2481ffae09e1","name":"Gwaram","ru":"Gwaram","country":"8c26bfe0-eca9-4b9b-ad25-24346aace9a8","countryCode":"NG","state":"d433dd34-8246-4cc9-87f2-cd1b2f58d64c","stateCode":"BA","latitude":"10.23295000","longitude":"10.28572000"},{"id":"479f73ce-d63d-4705-9bf5-1020545d2553","name":"Kari","ru":"Kari","country":"8c26bfe0-eca9-4b9b-ad25-24346aace9a8","countryCode":"NG","state":"d433dd34-8246-4cc9-87f2-cd1b2f58d64c","stateCode":"BA","latitude":"11.24710000","longitude":"10.56100000"},{"id":"f97b57a0-9fea-437a-9a08-3ba994ee139a","name":"Lame","ru":"Lame","country":"8c26bfe0-eca9-4b9b-ad25-24346aace9a8","countryCode":"NG","state":"d433dd34-8246-4cc9-87f2-cd1b2f58d64c","stateCode":"BA","latitude":"10.44154000","longitude":"9.23955000"},{"id":"5fd0b005-6708-4bd6-8fdb-4daf4bbcf01e","name":"Lere","ru":"Lere","country":"8c26bfe0-eca9-4b9b-ad25-24346aace9a8","countryCode":"NG","state":"d433dd34-8246-4cc9-87f2-cd1b2f58d64c","stateCode":"BA","latitude":"9.71052000","longitude":"9.34029000"},{"id":"9960c470-eafa-4ee6-9691-04ee8c1dac9d","name":"Madara","ru":"Madara","country":"8c26bfe0-eca9-4b9b-ad25-24346aace9a8","countryCode":"NG","state":"d433dd34-8246-4cc9-87f2-cd1b2f58d64c","stateCode":"BA","latitude":"11.77980000","longitude":"10.44790000"},{"id":"bcdd52a6-fb43-4ae2-8915-aebfb0595c6a","name":"Misau","ru":"Misau","country":"8c26bfe0-eca9-4b9b-ad25-24346aace9a8","countryCode":"NG","state":"d433dd34-8246-4cc9-87f2-cd1b2f58d64c","stateCode":"BA","latitude":"11.31370000","longitude":"10.46664000"},{"id":"44822f94-c38b-47f3-a805-75cb1d46e08e","name":"Sade","ru":"Sade","country":"8c26bfe0-eca9-4b9b-ad25-24346aace9a8","countryCode":"NG","state":"d433dd34-8246-4cc9-87f2-cd1b2f58d64c","stateCode":"BA","latitude":"11.35950000","longitude":"10.67320000"},{"id":"3cb2da55-db0a-4219-80db-b9358189d201","name":"Yamrat","ru":"Yamrat","country":"8c26bfe0-eca9-4b9b-ad25-24346aace9a8","countryCode":"NG","state":"d433dd34-8246-4cc9-87f2-cd1b2f58d64c","stateCode":"BA","latitude":"10.11161000","longitude":"9.82604000"},{"id":"8e5514a0-ac97-4eab-97fa-700672f543a1","name":"Yanda Bayo","ru":"Yanda Bayo","country":"8c26bfe0-eca9-4b9b-ad25-24346aace9a8","countryCode":"NG","state":"d433dd34-8246-4cc9-87f2-cd1b2f58d64c","stateCode":"BA","latitude":"11.50710000","longitude":"10.74590000"},{"id":"76bdb599-6ff7-4494-9ea0-fd2dc6ec6ccb","name":"Yuli","ru":"Yuli","country":"8c26bfe0-eca9-4b9b-ad25-24346aace9a8","countryCode":"NG","state":"d433dd34-8246-4cc9-87f2-cd1b2f58d64c","stateCode":"BA","latitude":"9.69707000","longitude":"10.27350000"},{"id":"66077223-2f90-447c-a40f-dbac7025d555","name":"Zadawa","ru":"Zadawa","country":"8c26bfe0-eca9-4b9b-ad25-24346aace9a8","countryCode":"NG","state":"d433dd34-8246-4cc9-87f2-cd1b2f58d64c","stateCode":"BA","latitude":"11.44960000","longitude":"10.36720000"},{"id":"d168dd71-3fee-44fe-8e38-fc17550354b1","name":"Zalanga","ru":"Zalanga","country":"8c26bfe0-eca9-4b9b-ad25-24346aace9a8","countryCode":"NG","state":"d433dd34-8246-4cc9-87f2-cd1b2f58d64c","stateCode":"BA","latitude":"10.61432000","longitude":"10.17647000"},{"id":"bfe65f55-1e23-4211-b049-630354c480ca","name":"Amassoma","ru":"Amassoma","country":"8c26bfe0-eca9-4b9b-ad25-24346aace9a8","countryCode":"NG","state":"31aeb2c8-2ef6-48f8-b8a9-c90a863a8e6f","stateCode":"BY","latitude":"4.97032000","longitude":"6.10915000"},{"id":"aed457fd-3b6c-4029-a8eb-c90bf9b9e34e","name":"Twon-Brass","ru":"Twon-Brass","country":"8c26bfe0-eca9-4b9b-ad25-24346aace9a8","countryCode":"NG","state":"31aeb2c8-2ef6-48f8-b8a9-c90a863a8e6f","stateCode":"BY","latitude":"4.31231000","longitude":"6.24091000"},{"id":"4fe75fad-afc7-4406-84ce-9ea17f869c23","name":"Yenagoa","ru":"Yenagoa","country":"8c26bfe0-eca9-4b9b-ad25-24346aace9a8","countryCode":"NG","state":"31aeb2c8-2ef6-48f8-b8a9-c90a863a8e6f","stateCode":"BY","latitude":"4.92675000","longitude":"6.26764000"},{"id":"30c39c7d-34d1-4354-b868-fbaead58ca58","name":"Aliade","ru":"Aliade","country":"8c26bfe0-eca9-4b9b-ad25-24346aace9a8","countryCode":"NG","state":"010e2407-3d5b-45b8-ba1b-08a803fc029a","stateCode":"BE","latitude":"7.29627000","longitude":"8.48278000"},{"id":"50821e50-efaf-4bfa-9c64-b9cd24b7dd13","name":"Boju","ru":"Boju","country":"8c26bfe0-eca9-4b9b-ad25-24346aace9a8","countryCode":"NG","state":"010e2407-3d5b-45b8-ba1b-08a803fc029a","stateCode":"BE","latitude":"7.35572000","longitude":"7.89303000"},{"id":"3490c74c-515a-482b-9063-edd925f0829f","name":"Igbor","ru":"Igbor","country":"8c26bfe0-eca9-4b9b-ad25-24346aace9a8","countryCode":"NG","state":"010e2407-3d5b-45b8-ba1b-08a803fc029a","stateCode":"BE","latitude":"7.45123000","longitude":"8.60805000"},{"id":"6a2e6cd7-e5f9-4555-8a4e-45a5da3cad91","name":"Makurdi","ru":"Makurdi","country":"8c26bfe0-eca9-4b9b-ad25-24346aace9a8","countryCode":"NG","state":"010e2407-3d5b-45b8-ba1b-08a803fc029a","stateCode":"BE","latitude":"7.73375000","longitude":"8.52139000"},{"id":"2068f6d2-7b44-45f6-b96b-362b6b13cf13","name":"Ochobo","ru":"Ochobo","country":"8c26bfe0-eca9-4b9b-ad25-24346aace9a8","countryCode":"NG","state":"010e2407-3d5b-45b8-ba1b-08a803fc029a","stateCode":"BE","latitude":"7.18045000","longitude":"7.98240000"},{"id":"7ab55370-72b3-461d-a769-cffde26f4dbd","name":"Otukpa","ru":"Otukpa","country":"8c26bfe0-eca9-4b9b-ad25-24346aace9a8","countryCode":"NG","state":"010e2407-3d5b-45b8-ba1b-08a803fc029a","stateCode":"BE","latitude":"7.10168000","longitude":"7.65945000"},{"id":"648ce08d-e34f-405e-9469-419b394a2ac9","name":"Takum","ru":"Takum","country":"8c26bfe0-eca9-4b9b-ad25-24346aace9a8","countryCode":"NG","state":"010e2407-3d5b-45b8-ba1b-08a803fc029a","stateCode":"BE","latitude":"7.26667000","longitude":"9.98333000"},{"id":"555c1471-b4b1-4909-bc91-a734eb98996a","name":"Ugbokpo","ru":"Ugbokpo","country":"8c26bfe0-eca9-4b9b-ad25-24346aace9a8","countryCode":"NG","state":"010e2407-3d5b-45b8-ba1b-08a803fc029a","stateCode":"BE","latitude":"7.65321000","longitude":"7.88410000"},{"id":"4ec798a6-5129-41b6-b7c1-a76a31bf4d76","name":"Yandev","ru":"Yandev","country":"8c26bfe0-eca9-4b9b-ad25-24346aace9a8","countryCode":"NG","state":"010e2407-3d5b-45b8-ba1b-08a803fc029a","stateCode":"BE","latitude":"7.36308000","longitude":"9.04235000"},{"id":"2e464fbf-9111-411c-a0da-d12d0a98f859","name":"Zaki Biam","ru":"Zaki Biam","country":"8c26bfe0-eca9-4b9b-ad25-24346aace9a8","countryCode":"NG","state":"010e2407-3d5b-45b8-ba1b-08a803fc029a","stateCode":"BE","latitude":"7.50671000","longitude":"9.61040000"},{"id":"4509e65c-99e9-4c96-906d-b5e5ce63e927","name":"Bama","ru":"Bama","country":"8c26bfe0-eca9-4b9b-ad25-24346aace9a8","countryCode":"NG","state":"9928f6ae-7338-46dc-b6bd-93d631d3a444","stateCode":"BO","latitude":"11.52134000","longitude":"13.68952000"},{"id":"76ab9a86-00a2-4374-ac21-6b001c9c495e","name":"Benisheikh","ru":"Benisheikh","country":"8c26bfe0-eca9-4b9b-ad25-24346aace9a8","countryCode":"NG","state":"9928f6ae-7338-46dc-b6bd-93d631d3a444","stateCode":"BO","latitude":"11.80919000","longitude":"12.49151000"},{"id":"217a22ff-e1ab-4d76-a91f-148797a7d48f","name":"Biu","ru":"Biu","country":"8c26bfe0-eca9-4b9b-ad25-24346aace9a8","countryCode":"NG","state":"9928f6ae-7338-46dc-b6bd-93d631d3a444","stateCode":"BO","latitude":"10.61285000","longitude":"12.19458000"},{"id":"9b642147-283c-4808-8239-942ae912eb9b","name":"Bornu Yassu","ru":"Bornu Yassu","country":"8c26bfe0-eca9-4b9b-ad25-24346aace9a8","countryCode":"NG","state":"9928f6ae-7338-46dc-b6bd-93d631d3a444","stateCode":"BO","latitude":"12.27503000","longitude":"12.56856000"},{"id":"cbb293d6-c80e-4201-ac79-45e6e3ff18b3","name":"Damasak","ru":"Damasak","country":"8c26bfe0-eca9-4b9b-ad25-24346aace9a8","countryCode":"NG","state":"9928f6ae-7338-46dc-b6bd-93d631d3a444","stateCode":"BO","latitude":"13.10518000","longitude":"12.50854000"},{"id":"4edf0f36-4571-470d-8bcf-b35c61028188","name":"Damboa","ru":"Damboa","country":"8c26bfe0-eca9-4b9b-ad25-24346aace9a8","countryCode":"NG","state":"9928f6ae-7338-46dc-b6bd-93d631d3a444","stateCode":"BO","latitude":"11.15534000","longitude":"12.75638000"},{"id":"b33732e8-a91f-4c72-a54e-77418409fcba","name":"Dikwa","ru":"Dikwa","country":"8c26bfe0-eca9-4b9b-ad25-24346aace9a8","countryCode":"NG","state":"9928f6ae-7338-46dc-b6bd-93d631d3a444","stateCode":"BO","latitude":"12.03609000","longitude":"13.91815000"},{"id":"ef981b52-a49e-4f0c-a4f4-94c5c85085ba","name":"Gamboru","ru":"Gamboru","country":"8c26bfe0-eca9-4b9b-ad25-24346aace9a8","countryCode":"NG","state":"9928f6ae-7338-46dc-b6bd-93d631d3a444","stateCode":"BO","latitude":"12.37299000","longitude":"14.20690000"},{"id":"fe29872d-6cbf-40bb-b414-7aa148702b43","name":"Gwoza","ru":"Gwoza","country":"8c26bfe0-eca9-4b9b-ad25-24346aace9a8","countryCode":"NG","state":"9928f6ae-7338-46dc-b6bd-93d631d3a444","stateCode":"BO","latitude":"11.08313000","longitude":"13.69595000"},{"id":"a5eb5330-7e81-422e-acb4-6cf985c912ea","name":"Kukawa","ru":"Kukawa","country":"8c26bfe0-eca9-4b9b-ad25-24346aace9a8","countryCode":"NG","state":"9928f6ae-7338-46dc-b6bd-93d631d3a444","stateCode":"BO","latitude":"12.92475000","longitude":"13.56617000"},{"id":"b18977fe-3383-458a-afbb-75ec2553a405","name":"Magumeri","ru":"Magumeri","country":"8c26bfe0-eca9-4b9b-ad25-24346aace9a8","countryCode":"NG","state":"9928f6ae-7338-46dc-b6bd-93d631d3a444","stateCode":"BO","latitude":"12.11451000","longitude":"12.82620000"},{"id":"862492eb-bd33-46dd-b106-0d0f7df9b6b4","name":"Maiduguri","ru":"Maiduguri","country":"8c26bfe0-eca9-4b9b-ad25-24346aace9a8","countryCode":"NG","state":"9928f6ae-7338-46dc-b6bd-93d631d3a444","stateCode":"BO","latitude":"11.84692000","longitude":"13.15712000"},{"id":"183950da-f5ea-4dbc-b653-f21238e967b7","name":"Marte","ru":"Marte","country":"8c26bfe0-eca9-4b9b-ad25-24346aace9a8","countryCode":"NG","state":"9928f6ae-7338-46dc-b6bd-93d631d3a444","stateCode":"BO","latitude":"12.36532000","longitude":"13.82930000"},{"id":"459d2e2a-8ac5-436b-aece-d62820d3b032","name":"Miringa","ru":"Miringa","country":"8c26bfe0-eca9-4b9b-ad25-24346aace9a8","countryCode":"NG","state":"9928f6ae-7338-46dc-b6bd-93d631d3a444","stateCode":"BO","latitude":"10.73115000","longitude":"12.14626000"},{"id":"75c8fbf5-f413-4abc-be30-c721bf974906","name":"Monguno","ru":"Monguno","country":"8c26bfe0-eca9-4b9b-ad25-24346aace9a8","countryCode":"NG","state":"9928f6ae-7338-46dc-b6bd-93d631d3a444","stateCode":"BO","latitude":"12.67059000","longitude":"13.61224000"},{"id":"81016d9e-da75-4b9a-9457-a7bf914472e6","name":"Ngala","ru":"Ngala","country":"8c26bfe0-eca9-4b9b-ad25-24346aace9a8","countryCode":"NG","state":"9928f6ae-7338-46dc-b6bd-93d631d3a444","stateCode":"BO","latitude":"12.34053000","longitude":"14.18670000"},{"id":"784e15a9-1f52-4b64-b613-02cadf6133a4","name":"Shaffa","ru":"Shaffa","country":"8c26bfe0-eca9-4b9b-ad25-24346aace9a8","countryCode":"NG","state":"9928f6ae-7338-46dc-b6bd-93d631d3a444","stateCode":"BO","latitude":"10.50673000","longitude":"12.33315000"},{"id":"e69f8ce3-f89d-497a-a16e-6b27a03dd58f","name":"Shani","ru":"Shani","country":"8c26bfe0-eca9-4b9b-ad25-24346aace9a8","countryCode":"NG","state":"9928f6ae-7338-46dc-b6bd-93d631d3a444","stateCode":"BO","latitude":"10.21824000","longitude":"12.06059000"},{"id":"9e842a1b-be35-4b69-bc6a-ee6b00e4eb41","name":"Tokombere","ru":"Tokombere","country":"8c26bfe0-eca9-4b9b-ad25-24346aace9a8","countryCode":"NG","state":"9928f6ae-7338-46dc-b6bd-93d631d3a444","stateCode":"BO","latitude":"11.22135000","longitude":"13.48783000"},{"id":"610550c9-c606-4f87-9a6f-8d716621cf1e","name":"Uba","ru":"Uba","country":"8c26bfe0-eca9-4b9b-ad25-24346aace9a8","countryCode":"NG","state":"9928f6ae-7338-46dc-b6bd-93d631d3a444","stateCode":"BO","latitude":"10.45509000","longitude":"13.22233000"},{"id":"dc9cf047-4887-4213-a2d3-8d6fab06bda3","name":"Wuyo","ru":"Wuyo","country":"8c26bfe0-eca9-4b9b-ad25-24346aace9a8","countryCode":"NG","state":"9928f6ae-7338-46dc-b6bd-93d631d3a444","stateCode":"BO","latitude":"10.38522000","longitude":"11.69678000"},{"id":"134b48a5-a67d-459a-bd1d-5bb28bb940ed","name":"Yajiwa","ru":"Yajiwa","country":"8c26bfe0-eca9-4b9b-ad25-24346aace9a8","countryCode":"NG","state":"9928f6ae-7338-46dc-b6bd-93d631d3a444","stateCode":"BO","latitude":"11.38623000","longitude":"12.71992000"},{"id":"892fd210-d5e7-4df0-a410-a26d88c80514","name":"Akankpa","ru":"Akankpa","country":"8c26bfe0-eca9-4b9b-ad25-24346aace9a8","countryCode":"NG","state":"603b9754-cc6b-43b5-a0ab-5d372331bc2d","stateCode":"CR","latitude":"5.12640000","longitude":"8.18980000"},{"id":"d4610983-ef7a-4c96-912d-8b1ea63d021e","name":"Calabar","ru":"Calabar","country":"8c26bfe0-eca9-4b9b-ad25-24346aace9a8","countryCode":"NG","state":"603b9754-cc6b-43b5-a0ab-5d372331bc2d","stateCode":"CR","latitude":"4.95893000","longitude":"8.32695000"},{"id":"11e1da87-82b5-4900-aa0e-36c2b3ce10d0","name":"Gakem","ru":"Gakem","country":"8c26bfe0-eca9-4b9b-ad25-24346aace9a8","countryCode":"NG","state":"603b9754-cc6b-43b5-a0ab-5d372331bc2d","stateCode":"CR","latitude":"6.76963000","longitude":"8.99120000"},{"id":"46a3495d-4a45-4371-823d-8950e7d0d69e","name":"Ikang","ru":"Ikang","country":"8c26bfe0-eca9-4b9b-ad25-24346aace9a8","countryCode":"NG","state":"603b9754-cc6b-43b5-a0ab-5d372331bc2d","stateCode":"CR","latitude":"4.78978000","longitude":"8.53160000"},{"id":"a24bc1e5-2b78-49d1-9e27-4066f508c83d","name":"Ugep","ru":"Ugep","country":"8c26bfe0-eca9-4b9b-ad25-24346aace9a8","countryCode":"NG","state":"603b9754-cc6b-43b5-a0ab-5d372331bc2d","stateCode":"CR","latitude":"5.80865000","longitude":"8.08098000"},{"id":"e55c2602-80e1-454f-86a5-02913e79acec","name":"Abraka","ru":"Abraka","country":"8c26bfe0-eca9-4b9b-ad25-24346aace9a8","countryCode":"NG","state":"08cd9bc1-b52c-4ac5-9250-31a6864081ba","stateCode":"DE","latitude":"5.79023000","longitude":"6.10473000"},{"id":"4428deb2-406d-4b81-a044-353576581839","name":"Agbor","ru":"Agbor","country":"8c26bfe0-eca9-4b9b-ad25-24346aace9a8","countryCode":"NG","state":"08cd9bc1-b52c-4ac5-9250-31a6864081ba","stateCode":"DE","latitude":"6.25375000","longitude":"6.19420000"},{"id":"e97cd5bb-05a5-469a-8061-0b54f50d4abf","name":"Asaba","ru":"Asaba","country":"8c26bfe0-eca9-4b9b-ad25-24346aace9a8","countryCode":"NG","state":"08cd9bc1-b52c-4ac5-9250-31a6864081ba","stateCode":"DE","latitude":"6.19824000","longitude":"6.73187000"},{"id":"640f38a9-526e-4091-8630-973e3bbdaa3a","name":"Bomadi","ru":"Bomadi","country":"8c26bfe0-eca9-4b9b-ad25-24346aace9a8","countryCode":"NG","state":"08cd9bc1-b52c-4ac5-9250-31a6864081ba","stateCode":"DE","latitude":"5.16073000","longitude":"5.92375000"},{"id":"f861a53a-dfc3-4423-a490-c1f5439f2e12","name":"Burutu","ru":"Burutu","country":"8c26bfe0-eca9-4b9b-ad25-24346aace9a8","countryCode":"NG","state":"08cd9bc1-b52c-4ac5-9250-31a6864081ba","stateCode":"DE","latitude":"5.35328000","longitude":"5.50826000"},{"id":"e2d6de05-66fa-4d48-9705-b18ebf71fdc6","name":"Kwale","ru":"Kwale","country":"8c26bfe0-eca9-4b9b-ad25-24346aace9a8","countryCode":"NG","state":"08cd9bc1-b52c-4ac5-9250-31a6864081ba","stateCode":"DE","latitude":"5.70773000","longitude":"6.43402000"},{"id":"9550b838-5e72-4482-938b-3b5ad50a3a83","name":"Obiaruku","ru":"Obiaruku","country":"8c26bfe0-eca9-4b9b-ad25-24346aace9a8","countryCode":"NG","state":"08cd9bc1-b52c-4ac5-9250-31a6864081ba","stateCode":"DE","latitude":"5.84672000","longitude":"6.15290000"},{"id":"95a42cea-23dc-4245-856a-37917cd102d3","name":"Ogwashi-Uku","ru":"Ogwashi-Uku","country":"8c26bfe0-eca9-4b9b-ad25-24346aace9a8","countryCode":"NG","state":"08cd9bc1-b52c-4ac5-9250-31a6864081ba","stateCode":"DE","latitude":"6.17811000","longitude":"6.52461000"},{"id":"2fb56c42-09fe-4a2d-b744-91d82a0f4d78","name":"Orerokpe","ru":"Orerokpe","country":"8c26bfe0-eca9-4b9b-ad25-24346aace9a8","countryCode":"NG","state":"08cd9bc1-b52c-4ac5-9250-31a6864081ba","stateCode":"DE","latitude":"5.63747000","longitude":"5.89013000"},{"id":"57a654f1-4243-43fb-9a2b-28f78cf69264","name":"Patani","ru":"Patani","country":"8c26bfe0-eca9-4b9b-ad25-24346aace9a8","countryCode":"NG","state":"08cd9bc1-b52c-4ac5-9250-31a6864081ba","stateCode":"DE","latitude":"5.22885000","longitude":"6.19139000"},{"id":"29ebac29-f90c-4fba-b95c-ed0cc4b0babe","name":"Sapele","ru":"Sapele","country":"8c26bfe0-eca9-4b9b-ad25-24346aace9a8","countryCode":"NG","state":"08cd9bc1-b52c-4ac5-9250-31a6864081ba","stateCode":"DE","latitude":"5.89405000","longitude":"5.67666000"},{"id":"c8abb724-0b41-4145-b063-c9417f9e1093","name":"Ughelli","ru":"Ughelli","country":"8c26bfe0-eca9-4b9b-ad25-24346aace9a8","countryCode":"NG","state":"08cd9bc1-b52c-4ac5-9250-31a6864081ba","stateCode":"DE","latitude":"5.48956000","longitude":"6.00407000"},{"id":"84287a32-bb35-4f3f-9531-8e2a16fb6294","name":"Umunede","ru":"Umunede","country":"8c26bfe0-eca9-4b9b-ad25-24346aace9a8","countryCode":"NG","state":"08cd9bc1-b52c-4ac5-9250-31a6864081ba","stateCode":"DE","latitude":"6.26549000","longitude":"6.30962000"},{"id":"6b85cb7e-f793-4823-a04c-886e51bdde24","name":"Warri","ru":"Warri","country":"8c26bfe0-eca9-4b9b-ad25-24346aace9a8","countryCode":"NG","state":"08cd9bc1-b52c-4ac5-9250-31a6864081ba","stateCode":"DE","latitude":"5.51737000","longitude":"5.75006000"},{"id":"2f51e4ff-a2ff-4c72-a34f-40a57a3d3df9","name":"Abakaliki","ru":"Abakaliki","country":"8c26bfe0-eca9-4b9b-ad25-24346aace9a8","countryCode":"NG","state":"dea7131c-ac31-4a9f-98a3-c34260ff2e43","stateCode":"EB","latitude":"6.32485000","longitude":"8.11368000"},{"id":"a57fa94c-7c17-427d-b359-9ecebd2c2c36","name":"Afikpo","ru":"Afikpo","country":"8c26bfe0-eca9-4b9b-ad25-24346aace9a8","countryCode":"NG","state":"dea7131c-ac31-4a9f-98a3-c34260ff2e43","stateCode":"EB","latitude":"5.89258000","longitude":"7.93534000"},{"id":"f7b6b430-3796-4e96-9911-80cb73c0f115","name":"Effium","ru":"Effium","country":"8c26bfe0-eca9-4b9b-ad25-24346aace9a8","countryCode":"NG","state":"dea7131c-ac31-4a9f-98a3-c34260ff2e43","stateCode":"EB","latitude":"6.63105000","longitude":"8.05814000"},{"id":"7ccdc581-9588-4c3f-9444-b2a1d5adbba4","name":"Ezza-Ohu","ru":"Ezza-Ohu","country":"8c26bfe0-eca9-4b9b-ad25-24346aace9a8","countryCode":"NG","state":"dea7131c-ac31-4a9f-98a3-c34260ff2e43","stateCode":"EB","latitude":"6.44094000","longitude":"8.08432000"},{"id":"a7a03d3c-ef08-4ddb-b2ec-dbba4871533a","name":"Isieke","ru":"Isieke","country":"8c26bfe0-eca9-4b9b-ad25-24346aace9a8","countryCode":"NG","state":"dea7131c-ac31-4a9f-98a3-c34260ff2e43","stateCode":"EB","latitude":"6.38186000","longitude":"8.03736000"},{"id":"e48b2b9f-dd43-4a93-aa26-3e11d055300e","name":"Agenebode","ru":"Agenebode","country":"8c26bfe0-eca9-4b9b-ad25-24346aace9a8","countryCode":"NG","state":"459cd4ad-132f-4de8-9ddf-47b115be3474","stateCode":"ED","latitude":"7.10512000","longitude":"6.69381000"},{"id":"27b0e306-e7d5-471c-a98b-f02af87acff0","name":"Auchi","ru":"Auchi","country":"8c26bfe0-eca9-4b9b-ad25-24346aace9a8","countryCode":"NG","state":"459cd4ad-132f-4de8-9ddf-47b115be3474","stateCode":"ED","latitude":"7.06756000","longitude":"6.26360000"},{"id":"2c3b4974-1770-4996-bdc0-8dadc95293d3","name":"Benin City","ru":"Benin City","country":"8c26bfe0-eca9-4b9b-ad25-24346aace9a8","countryCode":"NG","state":"459cd4ad-132f-4de8-9ddf-47b115be3474","stateCode":"ED","latitude":"6.33815000","longitude":"5.62575000"},{"id":"7b8417ca-378d-418a-b50d-cb5a9b001a8f","name":"Ekpoma","ru":"Ekpoma","country":"8c26bfe0-eca9-4b9b-ad25-24346aace9a8","countryCode":"NG","state":"459cd4ad-132f-4de8-9ddf-47b115be3474","stateCode":"ED","latitude":"6.74300000","longitude":"6.14029000"},{"id":"a4f18530-17d8-40a7-988d-d352c8fe5443","name":"Igarra","ru":"Igarra","country":"8c26bfe0-eca9-4b9b-ad25-24346aace9a8","countryCode":"NG","state":"459cd4ad-132f-4de8-9ddf-47b115be3474","stateCode":"ED","latitude":"7.29366000","longitude":"6.10432000"},{"id":"6fc77083-abef-4cfb-994a-e3e3ed6fa767","name":"Illushi","ru":"Illushi","country":"8c26bfe0-eca9-4b9b-ad25-24346aace9a8","countryCode":"NG","state":"459cd4ad-132f-4de8-9ddf-47b115be3474","stateCode":"ED","latitude":"6.67033000","longitude":"6.62907000"},{"id":"5e29f85c-e36e-483e-99dc-f7d047204769","name":"Siluko","ru":"Siluko","country":"8c26bfe0-eca9-4b9b-ad25-24346aace9a8","countryCode":"NG","state":"459cd4ad-132f-4de8-9ddf-47b115be3474","stateCode":"ED","latitude":"6.53589000","longitude":"5.16005000"},{"id":"df6f3250-6f63-4787-9cd5-205691046b6f","name":"Ubiaja","ru":"Ubiaja","country":"8c26bfe0-eca9-4b9b-ad25-24346aace9a8","countryCode":"NG","state":"459cd4ad-132f-4de8-9ddf-47b115be3474","stateCode":"ED","latitude":"6.65581000","longitude":"6.38494000"},{"id":"ed2d419f-24c5-46b4-a06b-4a118e505796","name":"Uromi","ru":"Uromi","country":"8c26bfe0-eca9-4b9b-ad25-24346aace9a8","countryCode":"NG","state":"459cd4ad-132f-4de8-9ddf-47b115be3474","stateCode":"ED","latitude":"6.70000000","longitude":"6.33333000"},{"id":"57542d9d-9afd-404b-aff6-fb5cef2b89e1","name":"Ado-Ekiti","ru":"Ado-Ekiti","country":"8c26bfe0-eca9-4b9b-ad25-24346aace9a8","countryCode":"NG","state":"f6039deb-97f7-4b8d-8168-fc502d086abc","stateCode":"EK","latitude":"7.62329000","longitude":"5.22087000"},{"id":"3cc86249-8dfd-4829-ab8d-ebb90b09d8c8","name":"Aramoko-Ekiti","ru":"Aramoko-Ekiti","country":"8c26bfe0-eca9-4b9b-ad25-24346aace9a8","countryCode":"NG","state":"f6039deb-97f7-4b8d-8168-fc502d086abc","stateCode":"EK","latitude":"7.70483000","longitude":"5.04054000"},{"id":"e929602b-54e4-413e-92a6-6249732d1b9e","name":"Efon-Alaaye","ru":"Efon-Alaaye","country":"8c26bfe0-eca9-4b9b-ad25-24346aace9a8","countryCode":"NG","state":"f6039deb-97f7-4b8d-8168-fc502d086abc","stateCode":"EK","latitude":"7.65649000","longitude":"4.92235000"},{"id":"a3b8cb6b-3674-4a8d-bdb4-8a9f8d7dcabe","name":"Emure-Ekiti","ru":"Emure-Ekiti","country":"8c26bfe0-eca9-4b9b-ad25-24346aace9a8","countryCode":"NG","state":"f6039deb-97f7-4b8d-8168-fc502d086abc","stateCode":"EK","latitude":"7.43636000","longitude":"5.45925000"},{"id":"4e75c29a-8d73-4c88-9955-6aaf5cc3faec","name":"Ifaki","ru":"Ifaki","country":"8c26bfe0-eca9-4b9b-ad25-24346aace9a8","countryCode":"NG","state":"f6039deb-97f7-4b8d-8168-fc502d086abc","stateCode":"EK","latitude":"7.78942000","longitude":"5.24852000"},{"id":"6a0406c4-44a0-4103-b497-3141ff19ae6e","name":"Igbara-Odo","ru":"Igbara-Odo","country":"8c26bfe0-eca9-4b9b-ad25-24346aace9a8","countryCode":"NG","state":"f6039deb-97f7-4b8d-8168-fc502d086abc","stateCode":"EK","latitude":"7.50251000","longitude":"5.06258000"},{"id":"4bde0b5a-3ef3-4c64-9600-a899ebb9f0d7","name":"Igede-Ekiti","ru":"Igede-Ekiti","country":"8c26bfe0-eca9-4b9b-ad25-24346aace9a8","countryCode":"NG","state":"f6039deb-97f7-4b8d-8168-fc502d086abc","stateCode":"EK","latitude":"7.66850000","longitude":"5.12627000"},{"id":"3234253a-6fc8-4fa9-bd32-8fabcd86b3b7","name":"Ijero-Ekiti","ru":"Ijero-Ekiti","country":"8c26bfe0-eca9-4b9b-ad25-24346aace9a8","countryCode":"NG","state":"f6039deb-97f7-4b8d-8168-fc502d086abc","stateCode":"EK","latitude":"7.81514000","longitude":"5.06716000"},{"id":"23d8ea87-e51b-4b8c-8fb6-a45282ff0274","name":"Ikere-Ekiti","ru":"Ikere-Ekiti","country":"8c26bfe0-eca9-4b9b-ad25-24346aace9a8","countryCode":"NG","state":"f6039deb-97f7-4b8d-8168-fc502d086abc","stateCode":"EK","latitude":"7.49748000","longitude":"5.23041000"},{"id":"e82c9710-6910-4add-8a81-e5890d3bd0a9","name":"Ipoti","ru":"Ipoti","country":"8c26bfe0-eca9-4b9b-ad25-24346aace9a8","countryCode":"NG","state":"f6039deb-97f7-4b8d-8168-fc502d086abc","stateCode":"EK","latitude":"7.87377000","longitude":"5.07691000"},{"id":"444807bc-deb6-4713-945a-e08b1929c4e1","name":"Ise-Ekiti","ru":"Ise-Ekiti","country":"8c26bfe0-eca9-4b9b-ad25-24346aace9a8","countryCode":"NG","state":"f6039deb-97f7-4b8d-8168-fc502d086abc","stateCode":"EK","latitude":"7.46478000","longitude":"5.42333000"},{"id":"d2246bd9-0b30-4254-8a10-28160c1b1f7e","name":"Oke Ila","ru":"Oke Ila","country":"8c26bfe0-eca9-4b9b-ad25-24346aace9a8","countryCode":"NG","state":"f6039deb-97f7-4b8d-8168-fc502d086abc","stateCode":"EK","latitude":"7.95000000","longitude":"4.98333000"},{"id":"0d384cb4-994e-43af-9c75-4cc6268766dc","name":"Omuo-Ekiti","ru":"Omuo-Ekiti","country":"8c26bfe0-eca9-4b9b-ad25-24346aace9a8","countryCode":"NG","state":"f6039deb-97f7-4b8d-8168-fc502d086abc","stateCode":"EK","latitude":"7.75833000","longitude":"5.72227000"},{"id":"022f12ff-00c9-4443-9a09-888b3c2291c7","name":"Adani","ru":"Adani","country":"8c26bfe0-eca9-4b9b-ad25-24346aace9a8","countryCode":"NG","state":"74626fc5-a0ba-45ca-b255-65c90f300223","stateCode":"EN","latitude":"6.73971000","longitude":"7.01117000"},{"id":"9228cd7f-5ebc-4954-a985-4fb883881947","name":"Ake-Eze","ru":"Ake-Eze","country":"8c26bfe0-eca9-4b9b-ad25-24346aace9a8","countryCode":"NG","state":"74626fc5-a0ba-45ca-b255-65c90f300223","stateCode":"EN","latitude":"5.91677000","longitude":"7.67615000"},{"id":"aa5afc0c-0e31-4771-ad95-3e6a2dde0e14","name":"Aku","ru":"Aku","country":"8c26bfe0-eca9-4b9b-ad25-24346aace9a8","countryCode":"NG","state":"74626fc5-a0ba-45ca-b255-65c90f300223","stateCode":"EN","latitude":"6.70902000","longitude":"7.31826000"},{"id":"2a246fc3-4c67-45b8-b2e2-6c4c525dfeb2","name":"Amagunze","ru":"Amagunze","country":"8c26bfe0-eca9-4b9b-ad25-24346aace9a8","countryCode":"NG","state":"74626fc5-a0ba-45ca-b255-65c90f300223","stateCode":"EN","latitude":"6.33063000","longitude":"7.65247000"},{"id":"2305c341-879d-4141-a6bc-594865acf1ce","name":"Awgu","ru":"Awgu","country":"8c26bfe0-eca9-4b9b-ad25-24346aace9a8","countryCode":"NG","state":"74626fc5-a0ba-45ca-b255-65c90f300223","stateCode":"EN","latitude":"6.07278000","longitude":"7.47739000"},{"id":"a1c71191-4df9-4a47-bc8d-c80be4d20779","name":"Eha Amufu","ru":"Eha Amufu","country":"8c26bfe0-eca9-4b9b-ad25-24346aace9a8","countryCode":"NG","state":"74626fc5-a0ba-45ca-b255-65c90f300223","stateCode":"EN","latitude":"6.65915000","longitude":"7.75961000"},{"id":"35e809bb-fcdd-43e9-b62a-d61a91f44a79","name":"Enugu","ru":"Enugu","country":"8c26bfe0-eca9-4b9b-ad25-24346aace9a8","countryCode":"NG","state":"74626fc5-a0ba-45ca-b255-65c90f300223","stateCode":"EN","latitude":"6.44132000","longitude":"7.49883000"},{"id":"774d4cfa-d934-4905-af9f-1a90a1b0b06b","name":"Enugu-Ezike","ru":"Enugu-Ezike","country":"8c26bfe0-eca9-4b9b-ad25-24346aace9a8","countryCode":"NG","state":"74626fc5-a0ba-45ca-b255-65c90f300223","stateCode":"EN","latitude":"6.98270000","longitude":"7.45534000"},{"id":"87c7d069-61a2-45fe-9b61-67b0ac6431fb","name":"Ete","ru":"Ete","country":"8c26bfe0-eca9-4b9b-ad25-24346aace9a8","countryCode":"NG","state":"74626fc5-a0ba-45ca-b255-65c90f300223","stateCode":"EN","latitude":"7.08956000","longitude":"7.45341000"},{"id":"514bbcf7-e8b1-4bb5-a9da-0d10e4da49a3","name":"Ikem","ru":"Ikem","country":"8c26bfe0-eca9-4b9b-ad25-24346aace9a8","countryCode":"NG","state":"74626fc5-a0ba-45ca-b255-65c90f300223","stateCode":"EN","latitude":"6.77993000","longitude":"7.71484000"},{"id":"1e283dfa-0c0d-47e9-b477-fd451fe01dd9","name":"Mberubu","ru":"Mberubu","country":"8c26bfe0-eca9-4b9b-ad25-24346aace9a8","countryCode":"NG","state":"74626fc5-a0ba-45ca-b255-65c90f300223","stateCode":"EN","latitude":"6.17310000","longitude":"7.63017000"},{"id":"cded7c04-4820-4e54-ae0d-4c6987626629","name":"Nsukka","ru":"Nsukka","country":"8c26bfe0-eca9-4b9b-ad25-24346aace9a8","countryCode":"NG","state":"74626fc5-a0ba-45ca-b255-65c90f300223","stateCode":"EN","latitude":"6.85783000","longitude":"7.39577000"},{"id":"c3a45b17-1bff-4ff1-ad6d-446a289dcb0a","name":"Obolo-Eke (1)","ru":"Obolo-Eke (1)","country":"8c26bfe0-eca9-4b9b-ad25-24346aace9a8","countryCode":"NG","state":"74626fc5-a0ba-45ca-b255-65c90f300223","stateCode":"EN","latitude":"6.88333000","longitude":"7.63333000"},{"id":"8fc65fc1-d543-43f4-923e-0428c7c5d29e","name":"Opi","ru":"Opi","country":"8c26bfe0-eca9-4b9b-ad25-24346aace9a8","countryCode":"NG","state":"74626fc5-a0ba-45ca-b255-65c90f300223","stateCode":"EN","latitude":"6.78223000","longitude":"7.43319000"},{"id":"971de0be-e2b8-46c9-8602-22cfd8cc3648","name":"Udi","ru":"Udi","country":"8c26bfe0-eca9-4b9b-ad25-24346aace9a8","countryCode":"NG","state":"74626fc5-a0ba-45ca-b255-65c90f300223","stateCode":"EN","latitude":"6.31592000","longitude":"7.42086000"},{"id":"e813115b-62a0-4cb7-bc0a-afd29b324363","name":"Abuja","ru":"Abuja","country":"8c26bfe0-eca9-4b9b-ad25-24346aace9a8","countryCode":"NG","state":"e4ff1c6b-82e5-44db-af49-00b462128f85","stateCode":"FC","latitude":"9.05785000","longitude":"7.49508000"},{"id":"01211843-c2f4-44cd-95f3-704dd54d80ee","name":"Kuje","ru":"Kuje","country":"8c26bfe0-eca9-4b9b-ad25-24346aace9a8","countryCode":"NG","state":"e4ff1c6b-82e5-44db-af49-00b462128f85","stateCode":"FC","latitude":"8.87952000","longitude":"7.22756000"},{"id":"05387a64-c0a6-4508-abce-46c37258ba1f","name":"Kwali","ru":"Kwali","country":"8c26bfe0-eca9-4b9b-ad25-24346aace9a8","countryCode":"NG","state":"e4ff1c6b-82e5-44db-af49-00b462128f85","stateCode":"FC","latitude":"8.88346000","longitude":"7.01858000"},{"id":"969e9765-4db5-4767-8d6a-88517f0117f8","name":"Madala","ru":"Madala","country":"8c26bfe0-eca9-4b9b-ad25-24346aace9a8","countryCode":"NG","state":"e4ff1c6b-82e5-44db-af49-00b462128f85","stateCode":"FC","latitude":"9.10444000","longitude":"7.21333000"},{"id":"cb463e3d-2009-47c2-9e1f-91dba6e55d1c","name":"Akko","ru":"Akko","country":"8c26bfe0-eca9-4b9b-ad25-24346aace9a8","countryCode":"NG","state":"f00d3431-7d89-47bb-95fb-8bcdc8caf9a4","stateCode":"GO","latitude":"10.28899000","longitude":"10.97320000"},{"id":"2e46fc32-d38f-469a-ada7-ddcb2a785332","name":"Bara","ru":"Bara","country":"8c26bfe0-eca9-4b9b-ad25-24346aace9a8","countryCode":"NG","state":"f00d3431-7d89-47bb-95fb-8bcdc8caf9a4","stateCode":"GO","latitude":"10.37444000","longitude":"10.72884000"},{"id":"e331d519-6943-40d4-bdbf-5ffe3e03bbe0","name":"Billiri","ru":"Billiri","country":"8c26bfe0-eca9-4b9b-ad25-24346aace9a8","countryCode":"NG","state":"f00d3431-7d89-47bb-95fb-8bcdc8caf9a4","stateCode":"GO","latitude":"9.86545000","longitude":"11.22624000"},{"id":"f4f05bdb-8716-4765-a29c-ad6d863b8a17","name":"Dadiya","ru":"Dadiya","country":"8c26bfe0-eca9-4b9b-ad25-24346aace9a8","countryCode":"NG","state":"f00d3431-7d89-47bb-95fb-8bcdc8caf9a4","stateCode":"GO","latitude":"9.61667000","longitude":"11.43333000"},{"id":"458e7334-d00e-4206-bb5c-eaba8fb6fbdf","name":"Deba","ru":"Deba","country":"8c26bfe0-eca9-4b9b-ad25-24346aace9a8","countryCode":"NG","state":"f00d3431-7d89-47bb-95fb-8bcdc8caf9a4","stateCode":"GO","latitude":"10.21187000","longitude":"11.38710000"},{"id":"9eb09eb0-27ba-4bf8-ad7f-93473aa84f4d","name":"Dukku","ru":"Dukku","country":"8c26bfe0-eca9-4b9b-ad25-24346aace9a8","countryCode":"NG","state":"f00d3431-7d89-47bb-95fb-8bcdc8caf9a4","stateCode":"GO","latitude":"10.82379000","longitude":"10.77221000"},{"id":"27091a74-f5c1-457e-9f14-883d2c33d52f","name":"Garko","ru":"Garko","country":"8c26bfe0-eca9-4b9b-ad25-24346aace9a8","countryCode":"NG","state":"f00d3431-7d89-47bb-95fb-8bcdc8caf9a4","stateCode":"GO","latitude":"10.17506000","longitude":"11.16458000"},{"id":"3afc8590-7c33-4710-8280-db0a198a830a","name":"Gombe","ru":"Gombe","country":"8c26bfe0-eca9-4b9b-ad25-24346aace9a8","countryCode":"NG","state":"f00d3431-7d89-47bb-95fb-8bcdc8caf9a4","stateCode":"GO","latitude":"10.28969000","longitude":"11.16729000"},{"id":"1755cd76-629d-4c5d-9542-a91027d49fd9","name":"Hinna","ru":"Hinna","country":"8c26bfe0-eca9-4b9b-ad25-24346aace9a8","countryCode":"NG","state":"f00d3431-7d89-47bb-95fb-8bcdc8caf9a4","stateCode":"GO","latitude":"10.30426000","longitude":"11.49905000"},{"id":"74dab92a-bf9f-4c28-90ae-e53230750d2c","name":"Kafarati","ru":"Kafarati","country":"8c26bfe0-eca9-4b9b-ad25-24346aace9a8","countryCode":"NG","state":"f00d3431-7d89-47bb-95fb-8bcdc8caf9a4","stateCode":"GO","latitude":"10.38304000","longitude":"11.09567000"},{"id":"858580c7-2f67-40f5-95b8-32cada2dd795","name":"Kaltungo","ru":"Kaltungo","country":"8c26bfe0-eca9-4b9b-ad25-24346aace9a8","countryCode":"NG","state":"f00d3431-7d89-47bb-95fb-8bcdc8caf9a4","stateCode":"GO","latitude":"9.81998000","longitude":"11.30871000"},{"id":"6cc23f8e-8f29-4f84-b96f-66ce01831072","name":"Kumo","ru":"Kumo","country":"8c26bfe0-eca9-4b9b-ad25-24346aace9a8","countryCode":"NG","state":"f00d3431-7d89-47bb-95fb-8bcdc8caf9a4","stateCode":"GO","latitude":"10.04807000","longitude":"11.21055000"},{"id":"eba97409-9fcc-495d-b76a-5ecbf7b25278","name":"Nafada","ru":"Nafada","country":"8c26bfe0-eca9-4b9b-ad25-24346aace9a8","countryCode":"NG","state":"f00d3431-7d89-47bb-95fb-8bcdc8caf9a4","stateCode":"GO","latitude":"11.09596000","longitude":"11.33261000"},{"id":"1d0203d8-2e7a-4ba1-aa46-214dfff88a61","name":"Pindiga","ru":"Pindiga","country":"8c26bfe0-eca9-4b9b-ad25-24346aace9a8","countryCode":"NG","state":"f00d3431-7d89-47bb-95fb-8bcdc8caf9a4","stateCode":"GO","latitude":"9.98433000","longitude":"10.95229000"},{"id":"decbc7eb-13d8-406b-a5db-fa6e17cf1e72","name":"Iho","ru":"Iho","country":"8c26bfe0-eca9-4b9b-ad25-24346aace9a8","countryCode":"NG","state":"829c8f76-710c-4e89-a77d-0cc06f060d24","stateCode":"IM","latitude":"5.58225000","longitude":"7.09896000"},{"id":"b03d2879-4f54-4c0c-8d4a-679e765d1509","name":"Oguta","ru":"Oguta","country":"8c26bfe0-eca9-4b9b-ad25-24346aace9a8","countryCode":"NG","state":"829c8f76-710c-4e89-a77d-0cc06f060d24","stateCode":"IM","latitude":"5.71044000","longitude":"6.80936000"},{"id":"27eb45a9-1137-4c50-80b5-a32c5a37dd4e","name":"Okigwe","ru":"Okigwe","country":"8c26bfe0-eca9-4b9b-ad25-24346aace9a8","countryCode":"NG","state":"829c8f76-710c-4e89-a77d-0cc06f060d24","stateCode":"IM","latitude":"5.82917000","longitude":"7.35056000"},{"id":"0a1ea5af-d272-4e2d-a1c6-e3dc1ceddd26","name":"Orlu","ru":"Orlu","country":"8c26bfe0-eca9-4b9b-ad25-24346aace9a8","countryCode":"NG","state":"829c8f76-710c-4e89-a77d-0cc06f060d24","stateCode":"IM","latitude":"5.79565000","longitude":"7.03513000"},{"id":"4d1c22e9-0a6e-455f-b5d2-dc0554f2cf5c","name":"Orodo","ru":"Orodo","country":"8c26bfe0-eca9-4b9b-ad25-24346aace9a8","countryCode":"NG","state":"829c8f76-710c-4e89-a77d-0cc06f060d24","stateCode":"IM","latitude":"5.61667000","longitude":"7.03333000"},{"id":"c7d60ba7-1ed3-4421-812d-2816992a6090","name":"Owerri","ru":"Owerri","country":"8c26bfe0-eca9-4b9b-ad25-24346aace9a8","countryCode":"NG","state":"829c8f76-710c-4e89-a77d-0cc06f060d24","stateCode":"IM","latitude":"5.48363000","longitude":"7.03325000"},{"id":"1cdf4132-ff77-4d8e-afea-fbc5e27e6692","name":"Babura","ru":"Babura","country":"8c26bfe0-eca9-4b9b-ad25-24346aace9a8","countryCode":"NG","state":"20fcf3a4-9116-4df3-b531-8109e8ecef31","stateCode":"JI","latitude":"12.77256000","longitude":"9.01525000"},{"id":"ac7aae35-c14a-4750-a063-25f6147b5918","name":"Birnin Kudu","ru":"Birnin Kudu","country":"8c26bfe0-eca9-4b9b-ad25-24346aace9a8","countryCode":"NG","state":"20fcf3a4-9116-4df3-b531-8109e8ecef31","stateCode":"JI","latitude":"11.45207000","longitude":"9.47856000"},{"id":"f658fb80-5be7-499d-88cd-adec53a0b385","name":"Birniwa","ru":"Birniwa","country":"8c26bfe0-eca9-4b9b-ad25-24346aace9a8","countryCode":"NG","state":"20fcf3a4-9116-4df3-b531-8109e8ecef31","stateCode":"JI","latitude":"12.79070000","longitude":"10.23614000"},{"id":"348a2c26-3fb0-4fbe-bcb7-26ab553db8cf","name":"Dutse","ru":"Dutse","country":"8c26bfe0-eca9-4b9b-ad25-24346aace9a8","countryCode":"NG","state":"20fcf3a4-9116-4df3-b531-8109e8ecef31","stateCode":"JI","latitude":"11.75618000","longitude":"9.33896000"},{"id":"45381f98-65cc-4d72-bab7-70b5216d12e3","name":"Gagarawa","ru":"Gagarawa","country":"8c26bfe0-eca9-4b9b-ad25-24346aace9a8","countryCode":"NG","state":"20fcf3a4-9116-4df3-b531-8109e8ecef31","stateCode":"JI","latitude":"12.40848000","longitude":"9.52881000"},{"id":"122b6015-c669-49d0-b7d9-bc6a73478554","name":"Gumel","ru":"Gumel","country":"8c26bfe0-eca9-4b9b-ad25-24346aace9a8","countryCode":"NG","state":"20fcf3a4-9116-4df3-b531-8109e8ecef31","stateCode":"JI","latitude":"12.62690000","longitude":"9.38807000"},{"id":"65050d4d-0094-43ec-9787-741f5e6521b0","name":"Gwaram","ru":"Gwaram","country":"8c26bfe0-eca9-4b9b-ad25-24346aace9a8","countryCode":"NG","state":"20fcf3a4-9116-4df3-b531-8109e8ecef31","stateCode":"JI","latitude":"11.27727000","longitude":"9.88385000"},{"id":"e28fe74b-1ab2-4ec7-952b-b555338bca71","name":"Hadejia","ru":"Hadejia","country":"8c26bfe0-eca9-4b9b-ad25-24346aace9a8","countryCode":"NG","state":"20fcf3a4-9116-4df3-b531-8109e8ecef31","stateCode":"JI","latitude":"12.45347000","longitude":"10.04115000"},{"id":"8970cf6c-0f39-4cb1-987e-9fb4af172cd7","name":"Kafin Hausa","ru":"Kafin Hausa","country":"8c26bfe0-eca9-4b9b-ad25-24346aace9a8","countryCode":"NG","state":"20fcf3a4-9116-4df3-b531-8109e8ecef31","stateCode":"JI","latitude":"12.23933000","longitude":"9.91105000"},{"id":"39e9d40d-688e-4e90-9e8b-73567f987d8d","name":"Kazaure","ru":"Kazaure","country":"8c26bfe0-eca9-4b9b-ad25-24346aace9a8","countryCode":"NG","state":"20fcf3a4-9116-4df3-b531-8109e8ecef31","stateCode":"JI","latitude":"12.64846000","longitude":"8.41178000"},{"id":"e6e30de3-2bca-4515-a405-273e77916e48","name":"Kiyawa","ru":"Kiyawa","country":"8c26bfe0-eca9-4b9b-ad25-24346aace9a8","countryCode":"NG","state":"20fcf3a4-9116-4df3-b531-8109e8ecef31","stateCode":"JI","latitude":"11.78442000","longitude":"9.60690000"},{"id":"640f0c85-581f-46d2-9d36-59d79bc3e321","name":"Mallammaduri","ru":"Mallammaduri","country":"8c26bfe0-eca9-4b9b-ad25-24346aace9a8","countryCode":"NG","state":"20fcf3a4-9116-4df3-b531-8109e8ecef31","stateCode":"JI","latitude":"12.56427000","longitude":"9.95727000"},{"id":"e2538182-94e3-445f-90ed-dd3207f36222","name":"Ringim","ru":"Ringim","country":"8c26bfe0-eca9-4b9b-ad25-24346aace9a8","countryCode":"NG","state":"20fcf3a4-9116-4df3-b531-8109e8ecef31","stateCode":"JI","latitude":"12.15143000","longitude":"9.16216000"},{"id":"95f95c13-aa0a-42f3-acb1-3c37fd8f0faa","name":"Samamiya","ru":"Samamiya","country":"8c26bfe0-eca9-4b9b-ad25-24346aace9a8","countryCode":"NG","state":"20fcf3a4-9116-4df3-b531-8109e8ecef31","stateCode":"JI","latitude":"11.34873000","longitude":"9.63989000"},{"id":"0abc7963-dc1c-4d5d-b2cf-4f9e76759032","name":"Anchau","ru":"Anchau","country":"8c26bfe0-eca9-4b9b-ad25-24346aace9a8","countryCode":"NG","state":"56a53ea8-a8a0-4fe7-bc48-5079e0537273","stateCode":"KD","latitude":"10.96245000","longitude":"8.39233000"},{"id":"e087402d-de6e-4953-bac0-7378602e120a","name":"Burumburum","ru":"Burumburum","country":"8c26bfe0-eca9-4b9b-ad25-24346aace9a8","countryCode":"NG","state":"56a53ea8-a8a0-4fe7-bc48-5079e0537273","stateCode":"KD","latitude":"11.39106000","longitude":"8.72341000"},{"id":"4695667e-a7ed-4384-aace-ac0ccd649351","name":"Dutsen Wai","ru":"Dutsen Wai","country":"8c26bfe0-eca9-4b9b-ad25-24346aace9a8","countryCode":"NG","state":"56a53ea8-a8a0-4fe7-bc48-5079e0537273","stateCode":"KD","latitude":"10.85009000","longitude":"8.19900000"},{"id":"6d56963b-0174-4155-88a8-e9570623687d","name":"Hunkuyi","ru":"Hunkuyi","country":"8c26bfe0-eca9-4b9b-ad25-24346aace9a8","countryCode":"NG","state":"56a53ea8-a8a0-4fe7-bc48-5079e0537273","stateCode":"KD","latitude":"11.26680000","longitude":"7.64916000"},{"id":"127421cb-e2ef-4038-9ed0-9b6e5e68c654","name":"Kachia","ru":"Kachia","country":"8c26bfe0-eca9-4b9b-ad25-24346aace9a8","countryCode":"NG","state":"56a53ea8-a8a0-4fe7-bc48-5079e0537273","stateCode":"KD","latitude":"9.87342000","longitude":"7.95407000"},{"id":"100c0d69-d6fa-4599-b489-39c53d63d6ae","name":"Kaduna","ru":"Kaduna","country":"8c26bfe0-eca9-4b9b-ad25-24346aace9a8","countryCode":"NG","state":"56a53ea8-a8a0-4fe7-bc48-5079e0537273","stateCode":"KD","latitude":"10.52641000","longitude":"7.43879000"},{"id":"069c9135-9113-44ee-b903-c032e9d7d1b9","name":"Kafanchan","ru":"Kafanchan","country":"8c26bfe0-eca9-4b9b-ad25-24346aace9a8","countryCode":"NG","state":"56a53ea8-a8a0-4fe7-bc48-5079e0537273","stateCode":"KD","latitude":"9.58126000","longitude":"8.29260000"},{"id":"4ede31c7-3541-41a3-b2b7-ca816cfa53df","name":"Kagoro","ru":"Kagoro","country":"8c26bfe0-eca9-4b9b-ad25-24346aace9a8","countryCode":"NG","state":"56a53ea8-a8a0-4fe7-bc48-5079e0537273","stateCode":"KD","latitude":"9.60776000","longitude":"8.39043000"},{"id":"88b36678-4fbd-4bb0-8414-9ac60d28044c","name":"Kajuru","ru":"Kajuru","country":"8c26bfe0-eca9-4b9b-ad25-24346aace9a8","countryCode":"NG","state":"56a53ea8-a8a0-4fe7-bc48-5079e0537273","stateCode":"KD","latitude":"10.32281000","longitude":"7.68462000"},{"id":"7480ab1e-a9a3-4466-8c29-ccb5620f7bec","name":"Kujama","ru":"Kujama","country":"8c26bfe0-eca9-4b9b-ad25-24346aace9a8","countryCode":"NG","state":"56a53ea8-a8a0-4fe7-bc48-5079e0537273","stateCode":"KD","latitude":"10.45767000","longitude":"7.63808000"},{"id":"9ec25222-4f58-4638-a1f6-554214e19db6","name":"Lere","ru":"Lere","country":"8c26bfe0-eca9-4b9b-ad25-24346aace9a8","countryCode":"NG","state":"56a53ea8-a8a0-4fe7-bc48-5079e0537273","stateCode":"KD","latitude":"10.38584000","longitude":"8.57286000"},{"id":"c98fa77d-0546-4823-ba67-494786cf50f7","name":"Mando","ru":"Mando","country":"8c26bfe0-eca9-4b9b-ad25-24346aace9a8","countryCode":"NG","state":"56a53ea8-a8a0-4fe7-bc48-5079e0537273","stateCode":"KD","latitude":"10.71667000","longitude":"6.56667000"},{"id":"1e14c150-aaa4-40a6-bbff-80e305564154","name":"Saminaka","ru":"Saminaka","country":"8c26bfe0-eca9-4b9b-ad25-24346aace9a8","countryCode":"NG","state":"56a53ea8-a8a0-4fe7-bc48-5079e0537273","stateCode":"KD","latitude":"10.41227000","longitude":"8.68748000"},{"id":"ea288374-f984-485c-bad8-c2afe3265249","name":"Soba","ru":"Soba","country":"8c26bfe0-eca9-4b9b-ad25-24346aace9a8","countryCode":"NG","state":"56a53ea8-a8a0-4fe7-bc48-5079e0537273","stateCode":"KD","latitude":"10.98133000","longitude":"8.05749000"},{"id":"44719840-d5ff-4c25-b5f4-37fb57b24706","name":"Sofo-Birnin-Gwari","ru":"Sofo-Birnin-Gwari","country":"8c26bfe0-eca9-4b9b-ad25-24346aace9a8","countryCode":"NG","state":"56a53ea8-a8a0-4fe7-bc48-5079e0537273","stateCode":"KD","latitude":"11.01537000","longitude":"6.78036000"},{"id":"a481648d-8528-4f3b-bf35-74133acdcae7","name":"Zaria","ru":"Zaria","country":"8c26bfe0-eca9-4b9b-ad25-24346aace9a8","countryCode":"NG","state":"56a53ea8-a8a0-4fe7-bc48-5079e0537273","stateCode":"KD","latitude":"11.11128000","longitude":"7.72270000"},{"id":"2529cc22-19ee-456e-9188-23ac42a003c7","name":"Dan Gora","ru":"Dan Gora","country":"8c26bfe0-eca9-4b9b-ad25-24346aace9a8","countryCode":"NG","state":"12a4e141-04ff-4021-be1b-9c58a27e9e6c","stateCode":"KN","latitude":"11.53485000","longitude":"8.15224000"},{"id":"361d4517-582e-4f50-9b14-02c8d7fc5fff","name":"Gaya","ru":"Gaya","country":"8c26bfe0-eca9-4b9b-ad25-24346aace9a8","countryCode":"NG","state":"12a4e141-04ff-4021-be1b-9c58a27e9e6c","stateCode":"KN","latitude":"11.86064000","longitude":"9.00270000"},{"id":"c9e6c59c-68cc-40f4-98a7-101d4b4b824e","name":"Kano","ru":"Kano","country":"8c26bfe0-eca9-4b9b-ad25-24346aace9a8","countryCode":"NG","state":"12a4e141-04ff-4021-be1b-9c58a27e9e6c","stateCode":"KN","latitude":"12.00012000","longitude":"8.51672000"},{"id":"5cad4071-85ee-45ca-b715-ec955cedecf1","name":"Danja","ru":"Danja","country":"8c26bfe0-eca9-4b9b-ad25-24346aace9a8","countryCode":"NG","state":"d2d4514a-e246-49e5-a93d-0aad4e4dbef4","stateCode":"KT","latitude":"11.37710000","longitude":"7.56097000"},{"id":"fb591008-de0c-4170-926e-c7b0510825de","name":"Dankama","ru":"Dankama","country":"8c26bfe0-eca9-4b9b-ad25-24346aace9a8","countryCode":"NG","state":"d2d4514a-e246-49e5-a93d-0aad4e4dbef4","stateCode":"KT","latitude":"13.29782000","longitude":"7.79492000"},{"id":"342c4540-ba7e-419a-b27b-70d1c07e5f49","name":"Daura","ru":"Daura","country":"8c26bfe0-eca9-4b9b-ad25-24346aace9a8","countryCode":"NG","state":"d2d4514a-e246-49e5-a93d-0aad4e4dbef4","stateCode":"KT","latitude":"13.03299000","longitude":"8.32351000"},{"id":"e7ecfcc7-7134-4da6-8eb4-454ab94358f6","name":"Dutsin-Ma","ru":"Dutsin-Ma","country":"8c26bfe0-eca9-4b9b-ad25-24346aace9a8","countryCode":"NG","state":"d2d4514a-e246-49e5-a93d-0aad4e4dbef4","stateCode":"KT","latitude":"12.45392000","longitude":"7.49723000"},{"id":"4104a462-7a99-4ab4-8a06-f32968455e81","name":"Funtua","ru":"Funtua","country":"8c26bfe0-eca9-4b9b-ad25-24346aace9a8","countryCode":"NG","state":"d2d4514a-e246-49e5-a93d-0aad4e4dbef4","stateCode":"KT","latitude":"11.47196000","longitude":"7.30699000"},{"id":"34beaca5-dbc7-41f4-a9cd-ef84f7408e84","name":"Gora","ru":"Gora","country":"8c26bfe0-eca9-4b9b-ad25-24346aace9a8","countryCode":"NG","state":"d2d4514a-e246-49e5-a93d-0aad4e4dbef4","stateCode":"KT","latitude":"11.91294000","longitude":"7.66531000"},{"id":"23d50b4b-9d61-48bb-a37a-c549c22429a0","name":"Jibia","ru":"Jibia","country":"8c26bfe0-eca9-4b9b-ad25-24346aace9a8","countryCode":"NG","state":"d2d4514a-e246-49e5-a93d-0aad4e4dbef4","stateCode":"KT","latitude":"13.09378000","longitude":"7.22624000"},{"id":"dd227b5c-ceca-4eff-a7a3-3d340135b77c","name":"Jikamshi","ru":"Jikamshi","country":"8c26bfe0-eca9-4b9b-ad25-24346aace9a8","countryCode":"NG","state":"d2d4514a-e246-49e5-a93d-0aad4e4dbef4","stateCode":"KT","latitude":"12.17328000","longitude":"7.77424000"},{"id":"925562dd-3635-41df-bc17-4ca18b40ebe1","name":"Kankara","ru":"Kankara","country":"8c26bfe0-eca9-4b9b-ad25-24346aace9a8","countryCode":"NG","state":"d2d4514a-e246-49e5-a93d-0aad4e4dbef4","stateCode":"KT","latitude":"11.93114000","longitude":"7.41115000"},{"id":"aa8436bb-d3a9-496e-8811-1eee8dfb16da","name":"Katsina","ru":"Katsina","country":"8c26bfe0-eca9-4b9b-ad25-24346aace9a8","countryCode":"NG","state":"d2d4514a-e246-49e5-a93d-0aad4e4dbef4","stateCode":"KT","latitude":"12.99082000","longitude":"7.60177000"},{"id":"bc525fd7-354e-465d-842c-1f5665a2d2cb","name":"Mashi","ru":"Mashi","country":"8c26bfe0-eca9-4b9b-ad25-24346aace9a8","countryCode":"NG","state":"d2d4514a-e246-49e5-a93d-0aad4e4dbef4","stateCode":"KT","latitude":"12.98044000","longitude":"7.94703000"},{"id":"66c5dbe8-5ced-4909-a091-8bcb296126fb","name":"Ruma","ru":"Ruma","country":"8c26bfe0-eca9-4b9b-ad25-24346aace9a8","countryCode":"NG","state":"d2d4514a-e246-49e5-a93d-0aad4e4dbef4","stateCode":"KT","latitude":"12.86260000","longitude":"7.23469000"},{"id":"3b4eb734-9943-4e73-badd-f7917a7d5ed6","name":"Runka","ru":"Runka","country":"8c26bfe0-eca9-4b9b-ad25-24346aace9a8","countryCode":"NG","state":"d2d4514a-e246-49e5-a93d-0aad4e4dbef4","stateCode":"KT","latitude":"12.44788000","longitude":"7.30918000"},{"id":"6be31b55-3927-40dc-bc9c-cb49435981af","name":"Wagini","ru":"Wagini","country":"8c26bfe0-eca9-4b9b-ad25-24346aace9a8","countryCode":"NG","state":"d2d4514a-e246-49e5-a93d-0aad4e4dbef4","stateCode":"KT","latitude":"12.68781000","longitude":"7.19579000"},{"id":"a8594c26-0297-46c7-9115-e0433b3111c9","name":"Argungu","ru":"Argungu","country":"8c26bfe0-eca9-4b9b-ad25-24346aace9a8","countryCode":"NG","state":"6765d6df-2ed3-4e4f-8c8e-b2d5a07b84eb","stateCode":"KE","latitude":"12.74482000","longitude":"4.52514000"},{"id":"e44bf1c9-d101-4d65-a831-18c2db859a13","name":"Bagudo","ru":"Bagudo","country":"8c26bfe0-eca9-4b9b-ad25-24346aace9a8","countryCode":"NG","state":"6765d6df-2ed3-4e4f-8c8e-b2d5a07b84eb","stateCode":"KE","latitude":"11.40351000","longitude":"4.22571000"},{"id":"24bf15d0-8109-4cc2-81d9-26ee52901915","name":"Bena","ru":"Bena","country":"8c26bfe0-eca9-4b9b-ad25-24346aace9a8","countryCode":"NG","state":"6765d6df-2ed3-4e4f-8c8e-b2d5a07b84eb","stateCode":"KE","latitude":"11.28444000","longitude":"5.93472000"},{"id":"5567279f-918e-4327-ba7b-95e41d3299b2","name":"Bin Yauri","ru":"Bin Yauri","country":"8c26bfe0-eca9-4b9b-ad25-24346aace9a8","countryCode":"NG","state":"6765d6df-2ed3-4e4f-8c8e-b2d5a07b84eb","stateCode":"KE","latitude":"10.78230000","longitude":"4.81135000"},{"id":"664dc8a0-53af-4e2d-bfda-1fe0c11f56bc","name":"Birnin Kebbi","ru":"Birnin Kebbi","country":"8c26bfe0-eca9-4b9b-ad25-24346aace9a8","countryCode":"NG","state":"6765d6df-2ed3-4e4f-8c8e-b2d5a07b84eb","stateCode":"KE","latitude":"12.45389000","longitude":"4.19750000"},{"id":"504de419-cc48-4cfe-adfa-299d524d70c0","name":"Dabai","ru":"Dabai","country":"8c26bfe0-eca9-4b9b-ad25-24346aace9a8","countryCode":"NG","state":"6765d6df-2ed3-4e4f-8c8e-b2d5a07b84eb","stateCode":"KE","latitude":"11.47651000","longitude":"5.20625000"},{"id":"e5ba7087-15f7-4f7f-9cba-d80c63492703","name":"Dakingari","ru":"Dakingari","country":"8c26bfe0-eca9-4b9b-ad25-24346aace9a8","countryCode":"NG","state":"6765d6df-2ed3-4e4f-8c8e-b2d5a07b84eb","stateCode":"KE","latitude":"11.64809000","longitude":"4.06177000"},{"id":"7e601e4e-70f7-4f20-8b51-69846c53f12b","name":"Gulma","ru":"Gulma","country":"8c26bfe0-eca9-4b9b-ad25-24346aace9a8","countryCode":"NG","state":"6765d6df-2ed3-4e4f-8c8e-b2d5a07b84eb","stateCode":"KE","latitude":"12.64231000","longitude":"4.35545000"},{"id":"9f7cb935-bb75-44fa-aa91-57bb956d4e37","name":"Gwandu","ru":"Gwandu","country":"8c26bfe0-eca9-4b9b-ad25-24346aace9a8","countryCode":"NG","state":"6765d6df-2ed3-4e4f-8c8e-b2d5a07b84eb","stateCode":"KE","latitude":"12.50204000","longitude":"4.64295000"},{"id":"92fe0ffe-de2d-4b56-9396-62f382fd9a86","name":"Jega","ru":"Jega","country":"8c26bfe0-eca9-4b9b-ad25-24346aace9a8","countryCode":"NG","state":"6765d6df-2ed3-4e4f-8c8e-b2d5a07b84eb","stateCode":"KE","latitude":"12.22336000","longitude":"4.37971000"},{"id":"d97b5e12-3eae-4c11-b29a-8e64250d1057","name":"Kamba","ru":"Kamba","country":"8c26bfe0-eca9-4b9b-ad25-24346aace9a8","countryCode":"NG","state":"6765d6df-2ed3-4e4f-8c8e-b2d5a07b84eb","stateCode":"KE","latitude":"11.85172000","longitude":"3.65478000"},{"id":"6ff4b8dc-49d4-4cdc-85d9-7ce33928b08f","name":"Kangiwa","ru":"Kangiwa","country":"8c26bfe0-eca9-4b9b-ad25-24346aace9a8","countryCode":"NG","state":"6765d6df-2ed3-4e4f-8c8e-b2d5a07b84eb","stateCode":"KE","latitude":"12.55339000","longitude":"3.81814000"},{"id":"766fe0e8-6b44-433c-be15-bca0f322fe81","name":"Kende","ru":"Kende","country":"8c26bfe0-eca9-4b9b-ad25-24346aace9a8","countryCode":"NG","state":"6765d6df-2ed3-4e4f-8c8e-b2d5a07b84eb","stateCode":"KE","latitude":"11.51966000","longitude":"4.26030000"},{"id":"b496c326-edf6-47b0-a8ba-3976d7206007","name":"Mahuta","ru":"Mahuta","country":"8c26bfe0-eca9-4b9b-ad25-24346aace9a8","countryCode":"NG","state":"6765d6df-2ed3-4e4f-8c8e-b2d5a07b84eb","stateCode":"KE","latitude":"11.55338000","longitude":"4.98138000"},{"id":"a560d570-5574-40a5-9d07-0a249c30271b","name":"Maiyama","ru":"Maiyama","country":"8c26bfe0-eca9-4b9b-ad25-24346aace9a8","countryCode":"NG","state":"6765d6df-2ed3-4e4f-8c8e-b2d5a07b84eb","stateCode":"KE","latitude":"12.08225000","longitude":"4.36907000"},{"id":"d191a290-c283-4c46-827f-7e4ea5603fa7","name":"Shanga","ru":"Shanga","country":"8c26bfe0-eca9-4b9b-ad25-24346aace9a8","countryCode":"NG","state":"6765d6df-2ed3-4e4f-8c8e-b2d5a07b84eb","stateCode":"KE","latitude":"11.21374000","longitude":"4.57941000"},{"id":"2297f507-a6d4-4017-90ad-b3db56385c94","name":"Wasagu","ru":"Wasagu","country":"8c26bfe0-eca9-4b9b-ad25-24346aace9a8","countryCode":"NG","state":"6765d6df-2ed3-4e4f-8c8e-b2d5a07b84eb","stateCode":"KE","latitude":"11.37640000","longitude":"5.79536000"},{"id":"15eaeb89-3bf8-44d0-a278-41d80dfa099d","name":"Zuru","ru":"Zuru","country":"8c26bfe0-eca9-4b9b-ad25-24346aace9a8","countryCode":"NG","state":"6765d6df-2ed3-4e4f-8c8e-b2d5a07b84eb","stateCode":"KE","latitude":"11.43522000","longitude":"5.23494000"},{"id":"808a8821-6644-4e45-b5f2-5a1fe5993e97","name":"Abocho","ru":"Abocho","country":"8c26bfe0-eca9-4b9b-ad25-24346aace9a8","countryCode":"NG","state":"b0315d8d-f99b-4d6a-9e7b-aa8db6fb4469","stateCode":"KO","latitude":"7.56770000","longitude":"6.98630000"},{"id":"f3eaef69-d4b9-4388-930c-e88243fff325","name":"Adoru","ru":"Adoru","country":"8c26bfe0-eca9-4b9b-ad25-24346aace9a8","countryCode":"NG","state":"b0315d8d-f99b-4d6a-9e7b-aa8db6fb4469","stateCode":"KO","latitude":"6.97694000","longitude":"7.16262000"},{"id":"262a9a74-a8af-4735-b659-ab201a96fa61","name":"Ankpa","ru":"Ankpa","country":"8c26bfe0-eca9-4b9b-ad25-24346aace9a8","countryCode":"NG","state":"b0315d8d-f99b-4d6a-9e7b-aa8db6fb4469","stateCode":"KO","latitude":"7.40249000","longitude":"7.63196000"},{"id":"db81bbb0-6595-49ad-abed-1a569de4720c","name":"Bugana","ru":"Bugana","country":"8c26bfe0-eca9-4b9b-ad25-24346aace9a8","countryCode":"NG","state":"b0315d8d-f99b-4d6a-9e7b-aa8db6fb4469","stateCode":"KO","latitude":"7.99917000","longitude":"7.58361000"},{"id":"e818f888-e45a-40b2-a554-30afd2cd278c","name":"Dekina","ru":"Dekina","country":"8c26bfe0-eca9-4b9b-ad25-24346aace9a8","countryCode":"NG","state":"b0315d8d-f99b-4d6a-9e7b-aa8db6fb4469","stateCode":"KO","latitude":"7.68967000","longitude":"7.04380000"},{"id":"07bc33c3-51f6-470e-aca5-0b678a3f17ab","name":"Egbe","ru":"Egbe","country":"8c26bfe0-eca9-4b9b-ad25-24346aace9a8","countryCode":"NG","state":"b0315d8d-f99b-4d6a-9e7b-aa8db6fb4469","stateCode":"KO","latitude":"8.21667000","longitude":"5.51667000"},{"id":"28b80521-f5f0-432d-b80d-e3a3f04a9597","name":"Icheu","ru":"Icheu","country":"8c26bfe0-eca9-4b9b-ad25-24346aace9a8","countryCode":"NG","state":"b0315d8d-f99b-4d6a-9e7b-aa8db6fb4469","stateCode":"KO","latitude":"7.70670000","longitude":"6.77180000"},{"id":"2b325029-9b42-4551-9c0b-1b9d76bbc17e","name":"Idah","ru":"Idah","country":"8c26bfe0-eca9-4b9b-ad25-24346aace9a8","countryCode":"NG","state":"b0315d8d-f99b-4d6a-9e7b-aa8db6fb4469","stateCode":"KO","latitude":"7.11345000","longitude":"6.73866000"},{"id":"1d5b04e2-8466-48ed-931a-4c08b08ffc3a","name":"Isanlu-Itedoijowa","ru":"Isanlu-Itedoijowa","country":"8c26bfe0-eca9-4b9b-ad25-24346aace9a8","countryCode":"NG","state":"b0315d8d-f99b-4d6a-9e7b-aa8db6fb4469","stateCode":"KO","latitude":"8.27445000","longitude":"5.83528000"},{"id":"4a8e8088-cf31-49f3-a2ed-2c2ee362eb7b","name":"Kabba","ru":"Kabba","country":"8c26bfe0-eca9-4b9b-ad25-24346aace9a8","countryCode":"NG","state":"b0315d8d-f99b-4d6a-9e7b-aa8db6fb4469","stateCode":"KO","latitude":"7.82719000","longitude":"6.07502000"},{"id":"afdcf864-a95e-4273-bf8e-525f2c51e50c","name":"Koton-Karfe","ru":"Koton-Karfe","country":"8c26bfe0-eca9-4b9b-ad25-24346aace9a8","countryCode":"NG","state":"b0315d8d-f99b-4d6a-9e7b-aa8db6fb4469","stateCode":"KO","latitude":"8.09120000","longitude":"6.79782000"},{"id":"9165566a-7435-4a79-b51b-ce95346a5606","name":"Lokoja","ru":"Lokoja","country":"8c26bfe0-eca9-4b9b-ad25-24346aace9a8","countryCode":"NG","state":"b0315d8d-f99b-4d6a-9e7b-aa8db6fb4469","stateCode":"KO","latitude":"7.79688000","longitude":"6.74048000"},{"id":"53a81f0f-4ef4-4ae9-9ffe-450d868fae9a","name":"Ogaminana","ru":"Ogaminana","country":"8c26bfe0-eca9-4b9b-ad25-24346aace9a8","countryCode":"NG","state":"b0315d8d-f99b-4d6a-9e7b-aa8db6fb4469","stateCode":"KO","latitude":"7.59383000","longitude":"6.21798000"},{"id":"76088ce6-31d9-491a-b99c-f7d6ad704aa8","name":"Ogurugu","ru":"Ogurugu","country":"8c26bfe0-eca9-4b9b-ad25-24346aace9a8","countryCode":"NG","state":"b0315d8d-f99b-4d6a-9e7b-aa8db6fb4469","stateCode":"KO","latitude":"6.78636000","longitude":"6.95017000"},{"id":"78bdb93f-a4da-4228-a540-b201640331ab","name":"Okene","ru":"Okene","country":"8c26bfe0-eca9-4b9b-ad25-24346aace9a8","countryCode":"NG","state":"b0315d8d-f99b-4d6a-9e7b-aa8db6fb4469","stateCode":"KO","latitude":"7.55122000","longitude":"6.23589000"},{"id":"3557df44-28c9-4cc6-8819-ef1ef50df289","name":"Ajasse Ipo","ru":"Ajasse Ipo","country":"8c26bfe0-eca9-4b9b-ad25-24346aace9a8","countryCode":"NG","state":"7eeaab96-632f-40fb-991e-fe1efdd4e4a6","stateCode":"KW","latitude":"8.23333000","longitude":"4.81667000"},{"id":"7a123623-bd86-4eeb-9746-6710363d291f","name":"Bode Saadu","ru":"Bode Saadu","country":"8c26bfe0-eca9-4b9b-ad25-24346aace9a8","countryCode":"NG","state":"7eeaab96-632f-40fb-991e-fe1efdd4e4a6","stateCode":"KW","latitude":"8.93900000","longitude":"4.78227000"},{"id":"fd830f43-b653-4df8-babf-ce7d5d42b858","name":"Gwasero","ru":"Gwasero","country":"8c26bfe0-eca9-4b9b-ad25-24346aace9a8","countryCode":"NG","state":"7eeaab96-632f-40fb-991e-fe1efdd4e4a6","stateCode":"KW","latitude":"9.48333000","longitude":"3.50000000"},{"id":"3d3696b1-f0d2-454c-a52f-1cd9b8001e94","name":"Ilorin","ru":"Ilorin","country":"8c26bfe0-eca9-4b9b-ad25-24346aace9a8","countryCode":"NG","state":"7eeaab96-632f-40fb-991e-fe1efdd4e4a6","stateCode":"KW","latitude":"8.49664000","longitude":"4.54214000"},{"id":"4388d1e5-c10f-474d-997c-4dd1051052e1","name":"Jebba","ru":"Jebba","country":"8c26bfe0-eca9-4b9b-ad25-24346aace9a8","countryCode":"NG","state":"7eeaab96-632f-40fb-991e-fe1efdd4e4a6","stateCode":"KW","latitude":"9.11972000","longitude":"4.82360000"},{"id":"89818ed3-01bc-44ba-b242-3751892f08ea","name":"Kaiama","ru":"Kaiama","country":"8c26bfe0-eca9-4b9b-ad25-24346aace9a8","countryCode":"NG","state":"7eeaab96-632f-40fb-991e-fe1efdd4e4a6","stateCode":"KW","latitude":"9.60530000","longitude":"3.94101000"},{"id":"03a11bdb-24d1-4880-a978-ab5063ef0b47","name":"Lafiagi","ru":"Lafiagi","country":"8c26bfe0-eca9-4b9b-ad25-24346aace9a8","countryCode":"NG","state":"7eeaab96-632f-40fb-991e-fe1efdd4e4a6","stateCode":"KW","latitude":"8.85299000","longitude":"5.41641000"},{"id":"1ac9e3f2-f593-47f2-be52-5b68d370cb35","name":"Offa","ru":"Offa","country":"8c26bfe0-eca9-4b9b-ad25-24346aace9a8","countryCode":"NG","state":"7eeaab96-632f-40fb-991e-fe1efdd4e4a6","stateCode":"KW","latitude":"8.14911000","longitude":"4.72074000"},{"id":"9248d943-1d69-4d06-83a0-c1ec01828f16","name":"Okuta","ru":"Okuta","country":"8c26bfe0-eca9-4b9b-ad25-24346aace9a8","countryCode":"NG","state":"7eeaab96-632f-40fb-991e-fe1efdd4e4a6","stateCode":"KW","latitude":"9.21667000","longitude":"3.18333000"},{"id":"5280ddcb-3596-4c27-827f-3be2a00d30a9","name":"Omu-Aran","ru":"Omu-Aran","country":"8c26bfe0-eca9-4b9b-ad25-24346aace9a8","countryCode":"NG","state":"7eeaab96-632f-40fb-991e-fe1efdd4e4a6","stateCode":"KW","latitude":"8.13857000","longitude":"5.10260000"},{"id":"be5ae968-617d-4b49-9a6c-94ef574017aa","name":"Patigi","ru":"Patigi","country":"8c26bfe0-eca9-4b9b-ad25-24346aace9a8","countryCode":"NG","state":"7eeaab96-632f-40fb-991e-fe1efdd4e4a6","stateCode":"KW","latitude":"8.72851000","longitude":"5.75561000"},{"id":"7757fde5-f531-46af-a2ec-1cf82c2470cd","name":"Suya","ru":"Suya","country":"8c26bfe0-eca9-4b9b-ad25-24346aace9a8","countryCode":"NG","state":"7eeaab96-632f-40fb-991e-fe1efdd4e4a6","stateCode":"KW","latitude":"9.46667000","longitude":"3.18333000"},{"id":"99c5eb2b-d9cc-4a42-b68f-53e6e9bf0fba","name":"Yashikera","ru":"Yashikera","country":"8c26bfe0-eca9-4b9b-ad25-24346aace9a8","countryCode":"NG","state":"7eeaab96-632f-40fb-991e-fe1efdd4e4a6","stateCode":"KW","latitude":"9.76667000","longitude":"3.40000000"},{"id":"05753ebc-a62e-4504-8453-db806423f5f3","name":"Apapa","ru":"Apapa","country":"8c26bfe0-eca9-4b9b-ad25-24346aace9a8","countryCode":"NG","state":"a5d5620e-a473-4127-a305-b9dff3526e1c","stateCode":"LA","latitude":"6.44880000","longitude":"3.35901000"},{"id":"3115340a-4e5e-41f7-b671-7115ecf15bcd","name":"Badagry","ru":"Badagry","country":"8c26bfe0-eca9-4b9b-ad25-24346aace9a8","countryCode":"NG","state":"a5d5620e-a473-4127-a305-b9dff3526e1c","stateCode":"LA","latitude":"6.41502000","longitude":"2.88132000"},{"id":"7cb61924-2438-447e-a23d-b182cc6de5e0","name":"Ebute Ikorodu","ru":"Ebute Ikorodu","country":"8c26bfe0-eca9-4b9b-ad25-24346aace9a8","countryCode":"NG","state":"a5d5620e-a473-4127-a305-b9dff3526e1c","stateCode":"LA","latitude":"6.60086000","longitude":"3.48818000"},{"id":"2a5adb67-2f18-4645-a817-62e8c6b58d50","name":"Ejirin","ru":"Ejirin","country":"8c26bfe0-eca9-4b9b-ad25-24346aace9a8","countryCode":"NG","state":"a5d5620e-a473-4127-a305-b9dff3526e1c","stateCode":"LA","latitude":"6.61423000","longitude":"3.90019000"},{"id":"552ac7ba-728d-48ba-a24d-f5a7e0b4b043","name":"Epe","ru":"Epe","country":"8c26bfe0-eca9-4b9b-ad25-24346aace9a8","countryCode":"NG","state":"a5d5620e-a473-4127-a305-b9dff3526e1c","stateCode":"LA","latitude":"6.58412000","longitude":"3.98336000"},{"id":"be4d0252-221c-4e37-8e4e-3bac8687522b","name":"Ikeja","ru":"Ikeja","country":"8c26bfe0-eca9-4b9b-ad25-24346aace9a8","countryCode":"NG","state":"a5d5620e-a473-4127-a305-b9dff3526e1c","stateCode":"LA","latitude":"6.59651000","longitude":"3.34205000"},{"id":"f597a0bc-c2d3-4c3e-9294-591f6e4e0b7d","name":"Lagos","ru":"Lagos","country":"8c26bfe0-eca9-4b9b-ad25-24346aace9a8","countryCode":"NG","state":"a5d5620e-a473-4127-a305-b9dff3526e1c","stateCode":"LA","latitude":"6.45407000","longitude":"3.39467000"},{"id":"e09449a0-ac3c-4703-883d-27fb2567e19b","name":"Makoko","ru":"Makoko","country":"8c26bfe0-eca9-4b9b-ad25-24346aace9a8","countryCode":"NG","state":"a5d5620e-a473-4127-a305-b9dff3526e1c","stateCode":"LA","latitude":"6.49611000","longitude":"3.38778000"},{"id":"f2c46f02-af9a-484e-83bc-423935851d9f","name":"Buga","ru":"Buga","country":"8c26bfe0-eca9-4b9b-ad25-24346aace9a8","countryCode":"NG","state":"171a466a-f8a7-4a27-b413-87036ffef090","stateCode":"NA","latitude":"8.49056000","longitude":"7.34139000"},{"id":"d0166fbb-ed04-4603-b3df-8c7aef6999a0","name":"Doma","ru":"Doma","country":"8c26bfe0-eca9-4b9b-ad25-24346aace9a8","countryCode":"NG","state":"171a466a-f8a7-4a27-b413-87036ffef090","stateCode":"NA","latitude":"8.39307000","longitude":"8.35544000"},{"id":"a727af55-cb6f-473f-9fa0-57bbb77ccc3e","name":"Keffi","ru":"Keffi","country":"8c26bfe0-eca9-4b9b-ad25-24346aace9a8","countryCode":"NG","state":"171a466a-f8a7-4a27-b413-87036ffef090","stateCode":"NA","latitude":"8.84651000","longitude":"7.87354000"},{"id":"ba408790-78eb-4656-9b77-a8a15686810d","name":"Lafia","ru":"Lafia","country":"8c26bfe0-eca9-4b9b-ad25-24346aace9a8","countryCode":"NG","state":"171a466a-f8a7-4a27-b413-87036ffef090","stateCode":"NA","latitude":"8.49390000","longitude":"8.51532000"},{"id":"22c26a5c-3adf-4778-b0fb-8af6545f9f0b","name":"Nasarawa","ru":"Nasarawa","country":"8c26bfe0-eca9-4b9b-ad25-24346aace9a8","countryCode":"NG","state":"171a466a-f8a7-4a27-b413-87036ffef090","stateCode":"NA","latitude":"8.53895000","longitude":"7.70821000"},{"id":"78cc5cd5-acb5-485d-a726-a3ead519464f","name":"Wamba","ru":"Wamba","country":"8c26bfe0-eca9-4b9b-ad25-24346aace9a8","countryCode":"NG","state":"171a466a-f8a7-4a27-b413-87036ffef090","stateCode":"NA","latitude":"8.94153000","longitude":"8.60315000"},{"id":"8b70d136-fdf5-462e-a605-0c914853ab34","name":"Auna","ru":"Auna","country":"8c26bfe0-eca9-4b9b-ad25-24346aace9a8","countryCode":"NG","state":"12a52a01-65b4-4874-97ae-e812dc047452","stateCode":"NI","latitude":"10.18805000","longitude":"4.72318000"},{"id":"8c24a4d8-79f0-40f9-a0f3-342b1ff4f030","name":"Babana","ru":"Babana","country":"8c26bfe0-eca9-4b9b-ad25-24346aace9a8","countryCode":"NG","state":"12a52a01-65b4-4874-97ae-e812dc047452","stateCode":"NI","latitude":"10.42949000","longitude":"3.81495000"},{"id":"0dc7a4a7-7664-472f-9fbf-182b5977776f","name":"Badeggi","ru":"Badeggi","country":"8c26bfe0-eca9-4b9b-ad25-24346aace9a8","countryCode":"NG","state":"12a52a01-65b4-4874-97ae-e812dc047452","stateCode":"NI","latitude":"9.05630000","longitude":"6.14300000"},{"id":"9501073b-1e27-441f-a98d-9cb2395cee61","name":"Baro","ru":"Baro","country":"8c26bfe0-eca9-4b9b-ad25-24346aace9a8","countryCode":"NG","state":"12a52a01-65b4-4874-97ae-e812dc047452","stateCode":"NI","latitude":"8.61565000","longitude":"6.41850000"},{"id":"4882fdf5-3d17-4410-ae67-7a796c9d2012","name":"Bokani","ru":"Bokani","country":"8c26bfe0-eca9-4b9b-ad25-24346aace9a8","countryCode":"NG","state":"12a52a01-65b4-4874-97ae-e812dc047452","stateCode":"NI","latitude":"9.43333000","longitude":"5.20000000"},{"id":"c652cfea-0232-4002-b527-2707963777f2","name":"Duku","ru":"Duku","country":"8c26bfe0-eca9-4b9b-ad25-24346aace9a8","countryCode":"NG","state":"12a52a01-65b4-4874-97ae-e812dc047452","stateCode":"NI","latitude":"11.23610000","longitude":"4.90727000"},{"id":"6c0aa14b-2b50-4461-8dd9-8094e5856a60","name":"Ibeto","ru":"Ibeto","country":"8c26bfe0-eca9-4b9b-ad25-24346aace9a8","countryCode":"NG","state":"12a52a01-65b4-4874-97ae-e812dc047452","stateCode":"NI","latitude":"10.48536000","longitude":"5.14501000"},{"id":"50c0a890-7312-4ca1-bbb5-885b0da335f9","name":"Konkwesso","ru":"Konkwesso","country":"8c26bfe0-eca9-4b9b-ad25-24346aace9a8","countryCode":"NG","state":"12a52a01-65b4-4874-97ae-e812dc047452","stateCode":"NI","latitude":"10.84686000","longitude":"4.09835000"},{"id":"2cdc23fe-15eb-4e50-aec0-319b00cf2149","name":"Kontagora","ru":"Kontagora","country":"8c26bfe0-eca9-4b9b-ad25-24346aace9a8","countryCode":"NG","state":"12a52a01-65b4-4874-97ae-e812dc047452","stateCode":"NI","latitude":"10.40319000","longitude":"5.47080000"},{"id":"d0a10b0d-a19c-4357-83f3-8bfadd3b5625","name":"Kusheriki","ru":"Kusheriki","country":"8c26bfe0-eca9-4b9b-ad25-24346aace9a8","countryCode":"NG","state":"12a52a01-65b4-4874-97ae-e812dc047452","stateCode":"NI","latitude":"10.53283000","longitude":"6.44222000"},{"id":"d6b3ebb3-85a6-4d68-af6d-13dd880d4dd2","name":"Kuta","ru":"Kuta","country":"8c26bfe0-eca9-4b9b-ad25-24346aace9a8","countryCode":"NG","state":"12a52a01-65b4-4874-97ae-e812dc047452","stateCode":"NI","latitude":"9.86864000","longitude":"6.71042000"},{"id":"5f7635a4-a4cc-4638-9353-b6401f66568a","name":"Lapai","ru":"Lapai","country":"8c26bfe0-eca9-4b9b-ad25-24346aace9a8","countryCode":"NG","state":"12a52a01-65b4-4874-97ae-e812dc047452","stateCode":"NI","latitude":"9.04439000","longitude":"6.57089000"},{"id":"2f31ccbd-c487-419c-94de-ea25105d21cb","name":"Minna","ru":"Minna","country":"8c26bfe0-eca9-4b9b-ad25-24346aace9a8","countryCode":"NG","state":"12a52a01-65b4-4874-97ae-e812dc047452","stateCode":"NI","latitude":"9.61524000","longitude":"6.54776000"},{"id":"6fa43ba7-519d-4bbc-8f76-0b6234ea4b69","name":"New Shagunnu","ru":"New Shagunnu","country":"8c26bfe0-eca9-4b9b-ad25-24346aace9a8","countryCode":"NG","state":"12a52a01-65b4-4874-97ae-e812dc047452","stateCode":"NI","latitude":"10.33957000","longitude":"4.46880000"},{"id":"15f95962-4adb-4000-8bfd-e0fbd2f12393","name":"Suleja","ru":"Suleja","country":"8c26bfe0-eca9-4b9b-ad25-24346aace9a8","countryCode":"NG","state":"12a52a01-65b4-4874-97ae-e812dc047452","stateCode":"NI","latitude":"9.18059000","longitude":"7.17939000"},{"id":"6903384c-76f9-43a8-9c4a-d5f0ae7f3653","name":"Tegina","ru":"Tegina","country":"8c26bfe0-eca9-4b9b-ad25-24346aace9a8","countryCode":"NG","state":"12a52a01-65b4-4874-97ae-e812dc047452","stateCode":"NI","latitude":"10.07060000","longitude":"6.19060000"},{"id":"c7e87723-bdba-4aa9-861b-3b2f18e9ecf0","name":"Ukata","ru":"Ukata","country":"8c26bfe0-eca9-4b9b-ad25-24346aace9a8","countryCode":"NG","state":"12a52a01-65b4-4874-97ae-e812dc047452","stateCode":"NI","latitude":"10.83122000","longitude":"5.82494000"},{"id":"4fe092a5-222e-4ace-83f0-6afe8163cab8","name":"Wawa","ru":"Wawa","country":"8c26bfe0-eca9-4b9b-ad25-24346aace9a8","countryCode":"NG","state":"12a52a01-65b4-4874-97ae-e812dc047452","stateCode":"NI","latitude":"9.90222000","longitude":"4.41917000"},{"id":"f40f3e30-b621-4ea2-830f-f0de3809b4b8","name":"Zungeru","ru":"Zungeru","country":"8c26bfe0-eca9-4b9b-ad25-24346aace9a8","countryCode":"NG","state":"12a52a01-65b4-4874-97ae-e812dc047452","stateCode":"NI","latitude":"9.80726000","longitude":"6.15238000"},{"id":"60ef4675-6ca2-416c-a3cc-dd2d5748f20f","name":"Abeokuta","ru":"Abeokuta","country":"8c26bfe0-eca9-4b9b-ad25-24346aace9a8","countryCode":"NG","state":"e12dbade-6e94-4f8c-b6ac-0be284d64e8c","stateCode":"OG","latitude":"7.15571000","longitude":"3.34509000"},{"id":"ad5f4460-c3c5-4977-9a73-68e307b2992b","name":"Ado Odo","ru":"Ado Odo","country":"8c26bfe0-eca9-4b9b-ad25-24346aace9a8","countryCode":"NG","state":"e12dbade-6e94-4f8c-b6ac-0be284d64e8c","stateCode":"OG","latitude":"6.60000000","longitude":"2.93333000"},{"id":"8d15f737-608e-4e12-8f44-f40c7334e53d","name":"Idi Iroko","ru":"Idi Iroko","country":"8c26bfe0-eca9-4b9b-ad25-24346aace9a8","countryCode":"NG","state":"e12dbade-6e94-4f8c-b6ac-0be284d64e8c","stateCode":"OG","latitude":"6.63333000","longitude":"2.73333000"},{"id":"65eafa68-a2d6-4ab6-9f35-41f4bf7a9056","name":"Ifo","ru":"Ifo","country":"8c26bfe0-eca9-4b9b-ad25-24346aace9a8","countryCode":"NG","state":"e12dbade-6e94-4f8c-b6ac-0be284d64e8c","stateCode":"OG","latitude":"6.81491000","longitude":"3.19518000"},{"id":"de7c3c4d-beda-4770-b14a-d59e334f8291","name":"Ijebu-Ife","ru":"Ijebu-Ife","country":"8c26bfe0-eca9-4b9b-ad25-24346aace9a8","countryCode":"NG","state":"e12dbade-6e94-4f8c-b6ac-0be284d64e8c","stateCode":"OG","latitude":"6.77837000","longitude":"4.03386000"},{"id":"18a76f1b-93ce-49eb-8979-316b5794358d","name":"Ijebu-Igbo","ru":"Ijebu-Igbo","country":"8c26bfe0-eca9-4b9b-ad25-24346aace9a8","countryCode":"NG","state":"e12dbade-6e94-4f8c-b6ac-0be284d64e8c","stateCode":"OG","latitude":"6.97198000","longitude":"3.99938000"},{"id":"b7da3071-c541-49a4-a49c-6a2cae020453","name":"Ijebu-Ode","ru":"Ijebu-Ode","country":"8c26bfe0-eca9-4b9b-ad25-24346aace9a8","countryCode":"NG","state":"e12dbade-6e94-4f8c-b6ac-0be284d64e8c","stateCode":"OG","latitude":"6.81944000","longitude":"3.91731000"},{"id":"3f756f66-39b3-4b58-8a13-67f57d4af39f","name":"Ilaro","ru":"Ilaro","country":"8c26bfe0-eca9-4b9b-ad25-24346aace9a8","countryCode":"NG","state":"e12dbade-6e94-4f8c-b6ac-0be284d64e8c","stateCode":"OG","latitude":"6.88901000","longitude":"3.01416000"},{"id":"d7096228-5884-471e-9557-7b02fac2fcf6","name":"Imeko","ru":"Imeko","country":"8c26bfe0-eca9-4b9b-ad25-24346aace9a8","countryCode":"NG","state":"e12dbade-6e94-4f8c-b6ac-0be284d64e8c","stateCode":"OG","latitude":"7.44888000","longitude":"2.84289000"},{"id":"879a3f9b-6d58-4e88-bbb2-8b00509faceb","name":"Iperu","ru":"Iperu","country":"8c26bfe0-eca9-4b9b-ad25-24346aace9a8","countryCode":"NG","state":"e12dbade-6e94-4f8c-b6ac-0be284d64e8c","stateCode":"OG","latitude":"6.91002000","longitude":"3.66557000"},{"id":"b214525d-ff47-4143-84fa-bc24b9c4341f","name":"Isara","ru":"Isara","country":"8c26bfe0-eca9-4b9b-ad25-24346aace9a8","countryCode":"NG","state":"e12dbade-6e94-4f8c-b6ac-0be284d64e8c","stateCode":"OG","latitude":"6.99345000","longitude":"3.68148000"},{"id":"f2993cee-74d4-4ea4-a8ef-f22e879915af","name":"Owode","ru":"Owode","country":"8c26bfe0-eca9-4b9b-ad25-24346aace9a8","countryCode":"NG","state":"e12dbade-6e94-4f8c-b6ac-0be284d64e8c","stateCode":"OG","latitude":"6.94851000","longitude":"3.50561000"},{"id":"91c73dc6-1703-48de-bfbc-845f778ed490","name":"Agbabu","ru":"Agbabu","country":"8c26bfe0-eca9-4b9b-ad25-24346aace9a8","countryCode":"NG","state":"e7841008-f5e9-4af6-9e0b-91df73ce35d8","stateCode":"ON","latitude":"6.58862000","longitude":"4.83430000"},{"id":"33d85cfe-3a5c-4133-95e4-433a5ce59263","name":"Akure","ru":"Akure","country":"8c26bfe0-eca9-4b9b-ad25-24346aace9a8","countryCode":"NG","state":"e7841008-f5e9-4af6-9e0b-91df73ce35d8","stateCode":"ON","latitude":"7.25256000","longitude":"5.19312000"},{"id":"50e0317d-1cf9-432a-81f4-808b44a00441","name":"Idanre","ru":"Idanre","country":"8c26bfe0-eca9-4b9b-ad25-24346aace9a8","countryCode":"NG","state":"e7841008-f5e9-4af6-9e0b-91df73ce35d8","stateCode":"ON","latitude":"7.11270000","longitude":"5.11590000"},{"id":"2cf2b4df-3879-409e-976a-60b4861c9fd8","name":"Ifon","ru":"Ifon","country":"8c26bfe0-eca9-4b9b-ad25-24346aace9a8","countryCode":"NG","state":"e7841008-f5e9-4af6-9e0b-91df73ce35d8","stateCode":"ON","latitude":"6.92973000","longitude":"5.77368000"},{"id":"d151b2b9-8987-406d-8979-ff0e0cb7663f","name":"Ilare","ru":"Ilare","country":"8c26bfe0-eca9-4b9b-ad25-24346aace9a8","countryCode":"NG","state":"e7841008-f5e9-4af6-9e0b-91df73ce35d8","stateCode":"ON","latitude":"7.35067000","longitude":"5.11333000"},{"id":"d21487ed-370a-49d6-aa14-fef06267e6f1","name":"Ode","ru":"Ode","country":"8c26bfe0-eca9-4b9b-ad25-24346aace9a8","countryCode":"NG","state":"e7841008-f5e9-4af6-9e0b-91df73ce35d8","stateCode":"ON","latitude":"7.78990000","longitude":"5.71170000"},{"id":"ab0e4c47-d4e4-4e25-855a-29dcafe8816c","name":"Ondo","ru":"Ondo","country":"8c26bfe0-eca9-4b9b-ad25-24346aace9a8","countryCode":"NG","state":"e7841008-f5e9-4af6-9e0b-91df73ce35d8","stateCode":"ON","latitude":"7.09316000","longitude":"4.83528000"},{"id":"34f75e95-5504-4cc0-95da-5ffc840ff67c","name":"Ore","ru":"Ore","country":"8c26bfe0-eca9-4b9b-ad25-24346aace9a8","countryCode":"NG","state":"e7841008-f5e9-4af6-9e0b-91df73ce35d8","stateCode":"ON","latitude":"6.74716000","longitude":"4.87610000"},{"id":"2e634f5c-8c59-425f-b195-e461426a0517","name":"Owo","ru":"Owo","country":"8c26bfe0-eca9-4b9b-ad25-24346aace9a8","countryCode":"NG","state":"e7841008-f5e9-4af6-9e0b-91df73ce35d8","stateCode":"ON","latitude":"7.19620000","longitude":"5.58681000"},{"id":"79b47beb-a66f-49c5-bdd5-6884a1d12c30","name":"Apomu","ru":"Apomu","country":"8c26bfe0-eca9-4b9b-ad25-24346aace9a8","countryCode":"NG","state":"c9ea2d6e-405e-4986-8492-5d00aa54689d","stateCode":"OS","latitude":"7.35156000","longitude":"4.18335000"},{"id":"6ebd4515-d722-4082-b27f-cb90cb023043","name":"Ejigbo","ru":"Ejigbo","country":"8c26bfe0-eca9-4b9b-ad25-24346aace9a8","countryCode":"NG","state":"c9ea2d6e-405e-4986-8492-5d00aa54689d","stateCode":"OS","latitude":"7.90292000","longitude":"4.31419000"},{"id":"87d6764c-5e60-4076-beba-32c7281041e6","name":"Gbongan","ru":"Gbongan","country":"8c26bfe0-eca9-4b9b-ad25-24346aace9a8","countryCode":"NG","state":"c9ea2d6e-405e-4986-8492-5d00aa54689d","stateCode":"OS","latitude":"7.47734000","longitude":"4.35351000"},{"id":"fc75708b-98b1-4990-b58a-0d1b3ed75a83","name":"Ijebu-Jesa","ru":"Ijebu-Jesa","country":"8c26bfe0-eca9-4b9b-ad25-24346aace9a8","countryCode":"NG","state":"c9ea2d6e-405e-4986-8492-5d00aa54689d","stateCode":"OS","latitude":"7.68287000","longitude":"4.81769000"},{"id":"ec805bae-5567-44ab-8fd4-6c4b44ee89a5","name":"Ikire","ru":"Ikire","country":"8c26bfe0-eca9-4b9b-ad25-24346aace9a8","countryCode":"NG","state":"c9ea2d6e-405e-4986-8492-5d00aa54689d","stateCode":"OS","latitude":"7.36983000","longitude":"4.18630000"},{"id":"2c1235e0-af57-4ffa-8c93-2ad025762e04","name":"Ikirun","ru":"Ikirun","country":"8c26bfe0-eca9-4b9b-ad25-24346aace9a8","countryCode":"NG","state":"c9ea2d6e-405e-4986-8492-5d00aa54689d","stateCode":"OS","latitude":"7.91283000","longitude":"4.66741000"},{"id":"d1e438b1-1c04-438a-9dd9-36ab4279adc0","name":"Ila Orangun","ru":"Ila Orangun","country":"8c26bfe0-eca9-4b9b-ad25-24346aace9a8","countryCode":"NG","state":"c9ea2d6e-405e-4986-8492-5d00aa54689d","stateCode":"OS","latitude":"8.01714000","longitude":"4.90421000"},{"id":"ea7d6ecb-6112-4835-a730-326c9208ea27","name":"Ile-Ife","ru":"Ile-Ife","country":"8c26bfe0-eca9-4b9b-ad25-24346aace9a8","countryCode":"NG","state":"c9ea2d6e-405e-4986-8492-5d00aa54689d","stateCode":"OS","latitude":"7.48240000","longitude":"4.56032000"},{"id":"8bb4204e-78c3-4b5a-89bb-ace9e6874ad4","name":"Ilesa","ru":"Ilesa","country":"8c26bfe0-eca9-4b9b-ad25-24346aace9a8","countryCode":"NG","state":"c9ea2d6e-405e-4986-8492-5d00aa54689d","stateCode":"OS","latitude":"7.62789000","longitude":"4.74161000"},{"id":"ce91e82c-c3ec-4883-9893-ec22dc667e92","name":"Ilobu","ru":"Ilobu","country":"8c26bfe0-eca9-4b9b-ad25-24346aace9a8","countryCode":"NG","state":"c9ea2d6e-405e-4986-8492-5d00aa54689d","stateCode":"OS","latitude":"7.84036000","longitude":"4.48557000"},{"id":"639a7190-6ce4-4da4-8364-e05cf1b07052","name":"Inisa","ru":"Inisa","country":"8c26bfe0-eca9-4b9b-ad25-24346aace9a8","countryCode":"NG","state":"c9ea2d6e-405e-4986-8492-5d00aa54689d","stateCode":"OS","latitude":"7.85000000","longitude":"4.33333000"},{"id":"ca53513a-a84b-4884-bea3-48c0111dccbb","name":"Iwo","ru":"Iwo","country":"8c26bfe0-eca9-4b9b-ad25-24346aace9a8","countryCode":"NG","state":"c9ea2d6e-405e-4986-8492-5d00aa54689d","stateCode":"OS","latitude":"7.63527000","longitude":"4.18156000"},{"id":"c2765286-acf9-4271-b664-8b6376d3d959","name":"Modakeke","ru":"Modakeke","country":"8c26bfe0-eca9-4b9b-ad25-24346aace9a8","countryCode":"NG","state":"c9ea2d6e-405e-4986-8492-5d00aa54689d","stateCode":"OS","latitude":"7.38299000","longitude":"4.26031000"},{"id":"71cfa7b3-5177-4245-8ff3-c86a2b8f6ca3","name":"Oke Mesi","ru":"Oke Mesi","country":"8c26bfe0-eca9-4b9b-ad25-24346aace9a8","countryCode":"NG","state":"c9ea2d6e-405e-4986-8492-5d00aa54689d","stateCode":"OS","latitude":"7.81667000","longitude":"4.91667000"},{"id":"17ab5e22-1a0b-4965-bbe1-fc324dbfac5f","name":"Olupona","ru":"Olupona","country":"8c26bfe0-eca9-4b9b-ad25-24346aace9a8","countryCode":"NG","state":"c9ea2d6e-405e-4986-8492-5d00aa54689d","stateCode":"OS","latitude":"7.60000000","longitude":"4.18333000"},{"id":"408a5e98-cc8e-43d9-a930-f8266a6bb98a","name":"Osogbo","ru":"Osogbo","country":"8c26bfe0-eca9-4b9b-ad25-24346aace9a8","countryCode":"NG","state":"c9ea2d6e-405e-4986-8492-5d00aa54689d","stateCode":"OS","latitude":"7.77104000","longitude":"4.55698000"},{"id":"b3338718-848b-4b3b-9004-c63a9e1165c3","name":"Otan Ayegbaju","ru":"Otan Ayegbaju","country":"8c26bfe0-eca9-4b9b-ad25-24346aace9a8","countryCode":"NG","state":"c9ea2d6e-405e-4986-8492-5d00aa54689d","stateCode":"OS","latitude":"7.94783000","longitude":"4.78836000"},{"id":"0deb7530-1a06-4dd2-b724-03e1eeafba10","name":"Oyan","ru":"Oyan","country":"8c26bfe0-eca9-4b9b-ad25-24346aace9a8","countryCode":"NG","state":"c9ea2d6e-405e-4986-8492-5d00aa54689d","stateCode":"OS","latitude":"8.05000000","longitude":"4.76667000"},{"id":"c42be19e-4530-4012-b3f8-ce9ac9fb3d65","name":"Ago Are","ru":"Ago Are","country":"8c26bfe0-eca9-4b9b-ad25-24346aace9a8","countryCode":"NG","state":"9d69bf33-a4de-4b5c-9e11-3d9346195b0d","stateCode":"OY","latitude":"8.50000000","longitude":"3.41667000"},{"id":"8ac58b72-bf98-44fe-a741-f8c0935c8f26","name":"Alapa","ru":"Alapa","country":"8c26bfe0-eca9-4b9b-ad25-24346aace9a8","countryCode":"NG","state":"9d69bf33-a4de-4b5c-9e11-3d9346195b0d","stateCode":"OY","latitude":"8.61667000","longitude":"4.38333000"},{"id":"b511cc2c-4063-4183-b911-985cff72298c","name":"Fiditi","ru":"Fiditi","country":"8c26bfe0-eca9-4b9b-ad25-24346aace9a8","countryCode":"NG","state":"9d69bf33-a4de-4b5c-9e11-3d9346195b0d","stateCode":"OY","latitude":"7.71361000","longitude":"3.91722000"},{"id":"0333b3fd-31ce-4588-869d-073c47787938","name":"Ibadan","ru":"Ibadan","country":"8c26bfe0-eca9-4b9b-ad25-24346aace9a8","countryCode":"NG","state":"9d69bf33-a4de-4b5c-9e11-3d9346195b0d","stateCode":"OY","latitude":"7.37756000","longitude":"3.90591000"},{"id":"2b27d19c-da4a-4420-88ff-74fe5feb84cc","name":"Igbeti","ru":"Igbeti","country":"8c26bfe0-eca9-4b9b-ad25-24346aace9a8","countryCode":"NG","state":"9d69bf33-a4de-4b5c-9e11-3d9346195b0d","stateCode":"OY","latitude":"8.74921000","longitude":"4.13113000"},{"id":"b91c360d-266a-4140-bad3-b393b7faa179","name":"Igbo-Ora","ru":"Igbo-Ora","country":"8c26bfe0-eca9-4b9b-ad25-24346aace9a8","countryCode":"NG","state":"9d69bf33-a4de-4b5c-9e11-3d9346195b0d","stateCode":"OY","latitude":"7.43383000","longitude":"3.28788000"},{"id":"27164c7d-94fb-4920-b932-8040b33adfe7","name":"Igboho","ru":"Igboho","country":"8c26bfe0-eca9-4b9b-ad25-24346aace9a8","countryCode":"NG","state":"9d69bf33-a4de-4b5c-9e11-3d9346195b0d","stateCode":"OY","latitude":"8.83784000","longitude":"3.75628000"},{"id":"a938ec33-d5ec-438f-9558-d01467279f5d","name":"Kisi","ru":"Kisi","country":"8c26bfe0-eca9-4b9b-ad25-24346aace9a8","countryCode":"NG","state":"9d69bf33-a4de-4b5c-9e11-3d9346195b0d","stateCode":"OY","latitude":"9.08297000","longitude":"3.85196000"},{"id":"bbc476da-a836-4101-bede-d26d09251fc5","name":"Lalupon","ru":"Lalupon","country":"8c26bfe0-eca9-4b9b-ad25-24346aace9a8","countryCode":"NG","state":"9d69bf33-a4de-4b5c-9e11-3d9346195b0d","stateCode":"OY","latitude":"7.46791000","longitude":"4.06594000"},{"id":"1f8d44cc-6c60-45f7-8eae-d3152690f681","name":"Ogbomoso","ru":"Ogbomoso","country":"8c26bfe0-eca9-4b9b-ad25-24346aace9a8","countryCode":"NG","state":"9d69bf33-a4de-4b5c-9e11-3d9346195b0d","stateCode":"OY","latitude":"8.13373000","longitude":"4.24014000"},{"id":"c0225dbf-de36-4052-aacd-f25c17e09eb9","name":"Okeho","ru":"Okeho","country":"8c26bfe0-eca9-4b9b-ad25-24346aace9a8","countryCode":"NG","state":"9d69bf33-a4de-4b5c-9e11-3d9346195b0d","stateCode":"OY","latitude":"8.03386000","longitude":"3.34759000"},{"id":"f5f4305f-9ee1-458d-a531-8b70390c4433","name":"Orita Eruwa","ru":"Orita Eruwa","country":"8c26bfe0-eca9-4b9b-ad25-24346aace9a8","countryCode":"NG","state":"9d69bf33-a4de-4b5c-9e11-3d9346195b0d","stateCode":"OY","latitude":"7.55000000","longitude":"3.43333000"},{"id":"8a32d3ad-2523-49f9-bee0-708db6b49d0a","name":"Oyo","ru":"Oyo","country":"8c26bfe0-eca9-4b9b-ad25-24346aace9a8","countryCode":"NG","state":"9d69bf33-a4de-4b5c-9e11-3d9346195b0d","stateCode":"OY","latitude":"7.85257000","longitude":"3.93125000"},{"id":"07c17dea-5c6c-4f0f-b368-33e3220bfcce","name":"Saki","ru":"Saki","country":"8c26bfe0-eca9-4b9b-ad25-24346aace9a8","countryCode":"NG","state":"9d69bf33-a4de-4b5c-9e11-3d9346195b0d","stateCode":"OY","latitude":"8.66762000","longitude":"3.39393000"},{"id":"a9dc6d84-2a5d-44d8-89e9-0d8044e44aa2","name":"Amper","ru":"Amper","country":"8c26bfe0-eca9-4b9b-ad25-24346aace9a8","countryCode":"NG","state":"3502031c-9f4c-4f02-b37b-59203e3d78a9","stateCode":"PL","latitude":"9.35509000","longitude":"9.70121000"},{"id":"70cc2ba8-8b03-498b-b45e-ea67b3e89c0c","name":"Bukuru","ru":"Bukuru","country":"8c26bfe0-eca9-4b9b-ad25-24346aace9a8","countryCode":"NG","state":"3502031c-9f4c-4f02-b37b-59203e3d78a9","stateCode":"PL","latitude":"9.79399000","longitude":"8.86397000"},{"id":"ad5f5619-6f25-4759-be43-b238523be655","name":"Dengi","ru":"Dengi","country":"8c26bfe0-eca9-4b9b-ad25-24346aace9a8","countryCode":"NG","state":"3502031c-9f4c-4f02-b37b-59203e3d78a9","stateCode":"PL","latitude":"9.36872000","longitude":"9.96223000"},{"id":"ed5f65d5-b0e7-4077-923c-f1d1725f12b5","name":"Jos","ru":"Jos","country":"8c26bfe0-eca9-4b9b-ad25-24346aace9a8","countryCode":"NG","state":"3502031c-9f4c-4f02-b37b-59203e3d78a9","stateCode":"PL","latitude":"9.92849000","longitude":"8.89212000"},{"id":"c211436b-0e7d-4cae-9bc2-d118bc82dcdf","name":"Kwolla","ru":"Kwolla","country":"8c26bfe0-eca9-4b9b-ad25-24346aace9a8","countryCode":"NG","state":"3502031c-9f4c-4f02-b37b-59203e3d78a9","stateCode":"PL","latitude":"8.90361000","longitude":"9.29086000"},{"id":"0ae3ae34-4bad-48c5-8085-a881d01862c0","name":"Langtang","ru":"Langtang","country":"8c26bfe0-eca9-4b9b-ad25-24346aace9a8","countryCode":"NG","state":"3502031c-9f4c-4f02-b37b-59203e3d78a9","stateCode":"PL","latitude":"9.14164000","longitude":"9.79101000"},{"id":"4cdd4c52-fade-4709-8b66-720ca0eb5f2d","name":"Pankshin","ru":"Pankshin","country":"8c26bfe0-eca9-4b9b-ad25-24346aace9a8","countryCode":"NG","state":"3502031c-9f4c-4f02-b37b-59203e3d78a9","stateCode":"PL","latitude":"9.32541000","longitude":"9.43520000"},{"id":"4c10f0c1-952c-496a-ad14-df41c6c93b2d","name":"Panyam","ru":"Panyam","country":"8c26bfe0-eca9-4b9b-ad25-24346aace9a8","countryCode":"NG","state":"3502031c-9f4c-4f02-b37b-59203e3d78a9","stateCode":"PL","latitude":"9.40756000","longitude":"9.21481000"},{"id":"f75f1e25-a204-4a62-8221-beeba7f90897","name":"Vom","ru":"Vom","country":"8c26bfe0-eca9-4b9b-ad25-24346aace9a8","countryCode":"NG","state":"3502031c-9f4c-4f02-b37b-59203e3d78a9","stateCode":"PL","latitude":"9.72910000","longitude":"8.79138000"},{"id":"bdd1c663-8631-4043-81bd-233a6c79aba5","name":"Yelwa","ru":"Yelwa","country":"8c26bfe0-eca9-4b9b-ad25-24346aace9a8","countryCode":"NG","state":"3502031c-9f4c-4f02-b37b-59203e3d78a9","stateCode":"PL","latitude":"8.83333000","longitude":"9.63333000"},{"id":"913a71e4-de05-489c-b3e3-13eb6a70d21a","name":"Binji","ru":"Binji","country":"8c26bfe0-eca9-4b9b-ad25-24346aace9a8","countryCode":"NG","state":"efc9e895-ad38-47ac-9d37-7d3dab0602e9","stateCode":"SO","latitude":"13.22294000","longitude":"4.90888000"},{"id":"a077be0c-d0bd-47c1-99b7-6cc24060fbbe","name":"Dange","ru":"Dange","country":"8c26bfe0-eca9-4b9b-ad25-24346aace9a8","countryCode":"NG","state":"efc9e895-ad38-47ac-9d37-7d3dab0602e9","stateCode":"SO","latitude":"12.85313000","longitude":"5.34572000"},{"id":"82d5bb9f-a71f-478e-96ba-b0f6b3036381","name":"Gandi","ru":"Gandi","country":"8c26bfe0-eca9-4b9b-ad25-24346aace9a8","countryCode":"NG","state":"efc9e895-ad38-47ac-9d37-7d3dab0602e9","stateCode":"SO","latitude":"12.96358000","longitude":"5.74337000"},{"id":"91f15eaf-cb1e-45ca-baca-2d46e5d6a1c4","name":"Goronyo","ru":"Goronyo","country":"8c26bfe0-eca9-4b9b-ad25-24346aace9a8","countryCode":"NG","state":"efc9e895-ad38-47ac-9d37-7d3dab0602e9","stateCode":"SO","latitude":"13.44226000","longitude":"5.67234000"},{"id":"cb94e89c-7701-4683-abe0-d06bdc36ccda","name":"Gwadabawa","ru":"Gwadabawa","country":"8c26bfe0-eca9-4b9b-ad25-24346aace9a8","countryCode":"NG","state":"efc9e895-ad38-47ac-9d37-7d3dab0602e9","stateCode":"SO","latitude":"13.35819000","longitude":"5.23812000"},{"id":"29851488-bc97-4f90-b44b-250b02eed2a5","name":"Illela","ru":"Illela","country":"8c26bfe0-eca9-4b9b-ad25-24346aace9a8","countryCode":"NG","state":"efc9e895-ad38-47ac-9d37-7d3dab0602e9","stateCode":"SO","latitude":"13.73064000","longitude":"5.29777000"},{"id":"ca48cf22-b1a1-49af-8e34-4a65735766f9","name":"Rabah","ru":"Rabah","country":"8c26bfe0-eca9-4b9b-ad25-24346aace9a8","countryCode":"NG","state":"efc9e895-ad38-47ac-9d37-7d3dab0602e9","stateCode":"SO","latitude":"13.12257000","longitude":"5.50762000"},{"id":"b3161cc3-e93c-447e-b322-e7ecd4caebed","name":"Sokoto","ru":"Sokoto","country":"8c26bfe0-eca9-4b9b-ad25-24346aace9a8","countryCode":"NG","state":"efc9e895-ad38-47ac-9d37-7d3dab0602e9","stateCode":"SO","latitude":"13.06269000","longitude":"5.24322000"},{"id":"0ac74d93-72cb-4889-9aab-5641f96f5a79","name":"Tambuwal","ru":"Tambuwal","country":"8c26bfe0-eca9-4b9b-ad25-24346aace9a8","countryCode":"NG","state":"efc9e895-ad38-47ac-9d37-7d3dab0602e9","stateCode":"SO","latitude":"12.40592000","longitude":"4.64605000"},{"id":"c83cf940-88fd-499c-a628-46f020b8d0a3","name":"Wurno","ru":"Wurno","country":"8c26bfe0-eca9-4b9b-ad25-24346aace9a8","countryCode":"NG","state":"efc9e895-ad38-47ac-9d37-7d3dab0602e9","stateCode":"SO","latitude":"13.29048000","longitude":"5.42373000"},{"id":"ab4b2d08-360a-438e-9eed-b375fff1c4ed","name":"Baissa","ru":"Baissa","country":"8c26bfe0-eca9-4b9b-ad25-24346aace9a8","countryCode":"NG","state":"5e7e1511-bbc0-4484-bdb7-723bdcf491df","stateCode":"TA","latitude":"7.23087000","longitude":"10.62444000"},{"id":"64cd3f1e-0f8c-49fd-a382-4f2862ea02fb","name":"Beli","ru":"Beli","country":"8c26bfe0-eca9-4b9b-ad25-24346aace9a8","countryCode":"NG","state":"5e7e1511-bbc0-4484-bdb7-723bdcf491df","stateCode":"TA","latitude":"7.85868000","longitude":"10.97187000"},{"id":"db8e7986-7efb-4528-a855-902a87ec97e9","name":"Gassol","ru":"Gassol","country":"8c26bfe0-eca9-4b9b-ad25-24346aace9a8","countryCode":"NG","state":"5e7e1511-bbc0-4484-bdb7-723bdcf491df","stateCode":"TA","latitude":"8.53535000","longitude":"10.44615000"},{"id":"d0c55c10-d0f7-425d-b723-d2b9795cdd2a","name":"Gembu","ru":"Gembu","country":"8c26bfe0-eca9-4b9b-ad25-24346aace9a8","countryCode":"NG","state":"5e7e1511-bbc0-4484-bdb7-723bdcf491df","stateCode":"TA","latitude":"6.72556000","longitude":"11.25652000"},{"id":"8cdc43ff-7eb4-41c4-8e38-8a1796b190de","name":"Ibi","ru":"Ibi","country":"8c26bfe0-eca9-4b9b-ad25-24346aace9a8","countryCode":"NG","state":"5e7e1511-bbc0-4484-bdb7-723bdcf491df","stateCode":"TA","latitude":"8.18122000","longitude":"9.74431000"},{"id":"508b16f1-3c69-48e4-828a-c6dc1614df89","name":"Jalingo","ru":"Jalingo","country":"8c26bfe0-eca9-4b9b-ad25-24346aace9a8","countryCode":"NG","state":"5e7e1511-bbc0-4484-bdb7-723bdcf491df","stateCode":"TA","latitude":"8.89367000","longitude":"11.35960000"},{"id":"327e8f28-4b1e-4a31-98b2-89b604bdead4","name":"Lau","ru":"Lau","country":"8c26bfe0-eca9-4b9b-ad25-24346aace9a8","countryCode":"NG","state":"5e7e1511-bbc0-4484-bdb7-723bdcf491df","stateCode":"TA","latitude":"9.20827000","longitude":"11.27541000"},{"id":"61fe799d-c563-412d-91df-f9899be8138b","name":"Mutum Biyu","ru":"Mutum Biyu","country":"8c26bfe0-eca9-4b9b-ad25-24346aace9a8","countryCode":"NG","state":"5e7e1511-bbc0-4484-bdb7-723bdcf491df","stateCode":"TA","latitude":"8.64138000","longitude":"10.77355000"},{"id":"97cc97a0-b9c0-412d-a35e-e2304ef0ab81","name":"Riti","ru":"Riti","country":"8c26bfe0-eca9-4b9b-ad25-24346aace9a8","countryCode":"NG","state":"5e7e1511-bbc0-4484-bdb7-723bdcf491df","stateCode":"TA","latitude":"7.90844000","longitude":"9.61688000"},{"id":"03f4d164-a6d9-48d2-a2df-467f94f8af49","name":"Wukari","ru":"Wukari","country":"8c26bfe0-eca9-4b9b-ad25-24346aace9a8","countryCode":"NG","state":"5e7e1511-bbc0-4484-bdb7-723bdcf491df","stateCode":"TA","latitude":"7.87139000","longitude":"9.77786000"},{"id":"3734d085-4cdd-4df1-b550-8630d829d93c","name":"Damaturu","ru":"Damaturu","country":"8c26bfe0-eca9-4b9b-ad25-24346aace9a8","countryCode":"NG","state":"8a6433f9-11ea-43d8-b500-8df63a082b65","stateCode":"YO","latitude":"11.74697000","longitude":"11.96083000"},{"id":"6003f6e9-6ec2-4052-b4c0-1d289960d5b7","name":"Dankalwa","ru":"Dankalwa","country":"8c26bfe0-eca9-4b9b-ad25-24346aace9a8","countryCode":"NG","state":"8a6433f9-11ea-43d8-b500-8df63a082b65","stateCode":"YO","latitude":"11.74449000","longitude":"12.18545000"},{"id":"0112dbd2-c6b6-429d-a5c7-1cd37a8231a9","name":"Dapchi","ru":"Dapchi","country":"8c26bfe0-eca9-4b9b-ad25-24346aace9a8","countryCode":"NG","state":"8a6433f9-11ea-43d8-b500-8df63a082b65","stateCode":"YO","latitude":"12.49536000","longitude":"11.49977000"},