[{"id":"f2943d23-caa2-483a-b367-f3a317184ee2","name":"Acton","ru":"Acton","country":"00a7107a-5716-414c-a258-4f586535e671","countryCode":"AU","state":"5ec1be9a-d5e2-4237-9bd8-5cbfecee82a5","stateCode":"ACT","latitude":"-35.27767000","longitude":"149.11829000"},{"id":"a210d5fc-23a6-43b6-942b-5c155d0c158a","name":"Ainslie","ru":"Ainslie","country":"00a7107a-5716-414c-a258-4f586535e671","countryCode":"AU","state":"5ec1be9a-d5e2-4237-9bd8-5cbfecee82a5","stateCode":"ACT","latitude":"-35.26255000","longitude":"149.14370000"},{"id":"342a4aad-5ead-43c0-a9e6-f4e553306c19","name":"Amaroo","ru":"Amaroo","country":"00a7107a-5716-414c-a258-4f586535e671","countryCode":"AU","state":"5ec1be9a-d5e2-4237-9bd8-5cbfecee82a5","stateCode":"ACT","latitude":"-35.16959000","longitude":"149.12802000"},{"id":"5d58b294-3206-4fbe-9782-7f9597ba8faf","name":"Aranda","ru":"Aranda","country":"00a7107a-5716-414c-a258-4f586535e671","countryCode":"AU","state":"5ec1be9a-d5e2-4237-9bd8-5cbfecee82a5","stateCode":"ACT","latitude":"-35.25817000","longitude":"149.08040000"},{"id":"077c5270-3d10-454b-b382-e52f0d83b320","name":"Banks","ru":"Banks","country":"00a7107a-5716-414c-a258-4f586535e671","countryCode":"AU","state":"5ec1be9a-d5e2-4237-9bd8-5cbfecee82a5","stateCode":"ACT","latitude":"-35.47194000","longitude":"149.09965000"},{"id":"8552f6f2-1e20-4257-b50a-c42dc4114be2","name":"Barton","ru":"Barton","country":"00a7107a-5716-414c-a258-4f586535e671","countryCode":"AU","state":"5ec1be9a-d5e2-4237-9bd8-5cbfecee82a5","stateCode":"ACT","latitude":"-35.30489000","longitude":"149.14121000"},{"id":"fa28e5c6-c0e1-41b9-a570-dc069d5c49f3","name":"Belconnen","ru":"Belconnen","country":"00a7107a-5716-414c-a258-4f586535e671","countryCode":"AU","state":"5ec1be9a-d5e2-4237-9bd8-5cbfecee82a5","stateCode":"ACT","latitude":"-35.23798000","longitude":"149.06627000"},{"id":"e09a097f-efef-470b-b3af-53e6e7b08c3d","name":"Bonner","ru":"Bonner","country":"00a7107a-5716-414c-a258-4f586535e671","countryCode":"AU","state":"5ec1be9a-d5e2-4237-9bd8-5cbfecee82a5","stateCode":"ACT","latitude":"-35.16225000","longitude":"149.13855000"},{"id":"6456f71f-c8bd-42d1-9b91-21d1ea488ba9","name":"Bonython","ru":"Bonython","country":"00a7107a-5716-414c-a258-4f586535e671","countryCode":"AU","state":"5ec1be9a-d5e2-4237-9bd8-5cbfecee82a5","stateCode":"ACT","latitude":"-35.43326000","longitude":"149.07822000"},{"id":"20c1d103-7980-490a-af67-5b08609ff1e5","name":"Braddon","ru":"Braddon","country":"00a7107a-5716-414c-a258-4f586535e671","countryCode":"AU","state":"5ec1be9a-d5e2-4237-9bd8-5cbfecee82a5","stateCode":"ACT","latitude":"-35.27078000","longitude":"149.13569000"},{"id":"57e6d498-7f77-4be4-a5f5-83ace506b6ad","name":"Bruce","ru":"Bruce","country":"00a7107a-5716-414c-a258-4f586535e671","countryCode":"AU","state":"5ec1be9a-d5e2-4237-9bd8-5cbfecee82a5","stateCode":"ACT","latitude":"-35.24405000","longitude":"149.09083000"},{"id":"8bf144c9-5fbf-437a-b2ee-9dff4959f39d","name":"Calwell","ru":"Calwell","country":"00a7107a-5716-414c-a258-4f586535e671","countryCode":"AU","state":"5ec1be9a-d5e2-4237-9bd8-5cbfecee82a5","stateCode":"ACT","latitude":"-35.44042000","longitude":"149.10707000"},{"id":"b1b14362-6936-4a10-918a-8673d1dc87dd","name":"Campbell","ru":"Campbell","country":"00a7107a-5716-414c-a258-4f586535e671","countryCode":"AU","state":"5ec1be9a-d5e2-4237-9bd8-5cbfecee82a5","stateCode":"ACT","latitude":"-35.28907000","longitude":"149.15382000"},{"id":"f7636b44-bea0-49c6-8d20-f3361a24f972","name":"Canberra","ru":"Canberra","country":"00a7107a-5716-414c-a258-4f586535e671","countryCode":"AU","state":"5ec1be9a-d5e2-4237-9bd8-5cbfecee82a5","stateCode":"ACT","latitude":"-35.28346000","longitude":"149.12807000"},{"id":"39c39a25-ae21-4e85-aaf0-d2eb0ee47e83","name":"Casey","ru":"Casey","country":"00a7107a-5716-414c-a258-4f586535e671","countryCode":"AU","state":"5ec1be9a-d5e2-4237-9bd8-5cbfecee82a5","stateCode":"ACT","latitude":"-35.16701000","longitude":"149.09470000"},{"id":"95c21070-4cb2-4070-bfcb-30af34dfa3d7","name":"Chapman","ru":"Chapman","country":"00a7107a-5716-414c-a258-4f586535e671","countryCode":"AU","state":"5ec1be9a-d5e2-4237-9bd8-5cbfecee82a5","stateCode":"ACT","latitude":"-35.35621000","longitude":"149.03742000"},{"id":"e6afc275-8770-4eed-9869-d050022afbc3","name":"Charnwood","ru":"Charnwood","country":"00a7107a-5716-414c-a258-4f586535e671","countryCode":"AU","state":"5ec1be9a-d5e2-4237-9bd8-5cbfecee82a5","stateCode":"ACT","latitude":"-35.20019000","longitude":"149.03412000"},{"id":"1d36c390-e7b3-4989-b4e4-696118310a43","name":"Chifley","ru":"Chifley","country":"00a7107a-5716-414c-a258-4f586535e671","countryCode":"AU","state":"5ec1be9a-d5e2-4237-9bd8-5cbfecee82a5","stateCode":"ACT","latitude":"-35.35340000","longitude":"149.07684000"},{"id":"f39ed338-ea5e-45ee-bd0e-1be1dae96f2d","name":"Chisholm","ru":"Chisholm","country":"00a7107a-5716-414c-a258-4f586535e671","countryCode":"AU","state":"5ec1be9a-d5e2-4237-9bd8-5cbfecee82a5","stateCode":"ACT","latitude":"-35.41249000","longitude":"149.12825000"},{"id":"2dbc2b90-4db5-4399-98bb-eba1e11de6cb","name":"City","ru":"City","country":"00a7107a-5716-414c-a258-4f586535e671","countryCode":"AU","state":"5ec1be9a-d5e2-4237-9bd8-5cbfecee82a5","stateCode":"ACT","latitude":"-35.28125000","longitude":"149.12927000"},{"id":"6c4a4a8b-838d-4c6d-a25a-3ae6995e8d09","name":"Conder","ru":"Conder","country":"00a7107a-5716-414c-a258-4f586535e671","countryCode":"AU","state":"5ec1be9a-d5e2-4237-9bd8-5cbfecee82a5","stateCode":"ACT","latitude":"-35.45926000","longitude":"149.10422000"},{"id":"1c22e4e2-e737-4f12-bcf2-22d3178050e1","name":"Cook","ru":"Cook","country":"00a7107a-5716-414c-a258-4f586535e671","countryCode":"AU","state":"5ec1be9a-d5e2-4237-9bd8-5cbfecee82a5","stateCode":"ACT","latitude":"-35.26014000","longitude":"149.06566000"},{"id":"4685352a-6bb4-42be-bddc-379ec4825cdd","name":"Coombs","ru":"Coombs","country":"00a7107a-5716-414c-a258-4f586535e671","countryCode":"AU","state":"5ec1be9a-d5e2-4237-9bd8-5cbfecee82a5","stateCode":"ACT","latitude":"-35.31634000","longitude":"149.03941000"},{"id":"1348b116-1565-4036-8880-343f79ff5f90","name":"Crace","ru":"Crace","country":"00a7107a-5716-414c-a258-4f586535e671","countryCode":"AU","state":"5ec1be9a-d5e2-4237-9bd8-5cbfecee82a5","stateCode":"ACT","latitude":"-35.20282000","longitude":"149.10736000"},{"id":"49a3dc84-a417-4b11-b509-30beaedf31c6","name":"Curtin","ru":"Curtin","country":"00a7107a-5716-414c-a258-4f586535e671","countryCode":"AU","state":"5ec1be9a-d5e2-4237-9bd8-5cbfecee82a5","stateCode":"ACT","latitude":"-35.32464000","longitude":"149.07763000"},{"id":"f4a474a7-0235-44e7-9c40-f47a12a54a70","name":"Deakin","ru":"Deakin","country":"00a7107a-5716-414c-a258-4f586535e671","countryCode":"AU","state":"5ec1be9a-d5e2-4237-9bd8-5cbfecee82a5","stateCode":"ACT","latitude":"-35.31927000","longitude":"149.10308000"},{"id":"e40541c5-7ee4-4f3c-a480-34485afe7da7","name":"Dickson","ru":"Dickson","country":"00a7107a-5716-414c-a258-4f586535e671","countryCode":"AU","state":"5ec1be9a-d5e2-4237-9bd8-5cbfecee82a5","stateCode":"ACT","latitude":"-35.25082000","longitude":"149.13932000"},{"id":"925590e1-d867-4f15-99c6-276b7ed2659b","name":"Downer","ru":"Downer","country":"00a7107a-5716-414c-a258-4f586535e671","countryCode":"AU","state":"5ec1be9a-d5e2-4237-9bd8-5cbfecee82a5","stateCode":"ACT","latitude":"-35.24457000","longitude":"149.14468000"},{"id":"23219187-fed0-4e8e-b740-49abc90d9dba","name":"Duffy","ru":"Duffy","country":"00a7107a-5716-414c-a258-4f586535e671","countryCode":"AU","state":"5ec1be9a-d5e2-4237-9bd8-5cbfecee82a5","stateCode":"ACT","latitude":"-35.33459000","longitude":"149.03188000"},{"id":"9dc27194-78d5-4309-b2e6-890197ec19c5","name":"Dunlop","ru":"Dunlop","country":"00a7107a-5716-414c-a258-4f586535e671","countryCode":"AU","state":"5ec1be9a-d5e2-4237-9bd8-5cbfecee82a5","stateCode":"ACT","latitude":"-35.19402000","longitude":"149.01984000"},{"id":"9fae2f48-51d9-4300-a297-71130976b11e","name":"Evatt","ru":"Evatt","country":"00a7107a-5716-414c-a258-4f586535e671","countryCode":"AU","state":"5ec1be9a-d5e2-4237-9bd8-5cbfecee82a5","stateCode":"ACT","latitude":"-35.21191000","longitude":"149.06891000"},{"id":"2a6fcd06-17a7-4764-8d66-f64198d79bb9","name":"Fadden","ru":"Fadden","country":"00a7107a-5716-414c-a258-4f586535e671","countryCode":"AU","state":"5ec1be9a-d5e2-4237-9bd8-5cbfecee82a5","stateCode":"ACT","latitude":"-35.40500000","longitude":"149.11662000"},{"id":"4a6c328d-a3ac-4226-84a0-de4f99a75105","name":"Farrer","ru":"Farrer","country":"00a7107a-5716-414c-a258-4f586535e671","countryCode":"AU","state":"5ec1be9a-d5e2-4237-9bd8-5cbfecee82a5","stateCode":"ACT","latitude":"-35.37673000","longitude":"149.10500000"},{"id":"74f2c169-d0da-4432-a84d-5e503ecf4a10","name":"Fisher","ru":"Fisher","country":"00a7107a-5716-414c-a258-4f586535e671","countryCode":"AU","state":"5ec1be9a-d5e2-4237-9bd8-5cbfecee82a5","stateCode":"ACT","latitude":"-35.36126000","longitude":"149.05704000"},{"id":"d63a6d4f-3e81-46b7-9c15-d9ad27c9be5a","name":"Florey","ru":"Florey","country":"00a7107a-5716-414c-a258-4f586535e671","countryCode":"AU","state":"5ec1be9a-d5e2-4237-9bd8-5cbfecee82a5","stateCode":"ACT","latitude":"-35.22588000","longitude":"149.05000000"},{"id":"9f950d1a-c27b-4b3a-8f99-36d1d93041b7","name":"Flynn","ru":"Flynn","country":"00a7107a-5716-414c-a258-4f586535e671","countryCode":"AU","state":"5ec1be9a-d5e2-4237-9bd8-5cbfecee82a5","stateCode":"ACT","latitude":"-35.20593000","longitude":"149.04389000"},{"id":"caa2fc14-23bc-4998-94a8-c73d6b30e827","name":"Forde","ru":"Forde","country":"00a7107a-5716-414c-a258-4f586535e671","countryCode":"AU","state":"5ec1be9a-d5e2-4237-9bd8-5cbfecee82a5","stateCode":"ACT","latitude":"-35.16823000","longitude":"149.14607000"},{"id":"b4a53b2d-d6ed-4c31-a683-b7e45d3faac8","name":"Forrest","ru":"Forrest","country":"00a7107a-5716-414c-a258-4f586535e671","countryCode":"AU","state":"5ec1be9a-d5e2-4237-9bd8-5cbfecee82a5","stateCode":"ACT","latitude":"-35.31499000","longitude":"149.12859000"},{"id":"5fff3acb-adea-4f58-9dc9-de503edefa1b","name":"Franklin","ru":"Franklin","country":"00a7107a-5716-414c-a258-4f586535e671","countryCode":"AU","state":"5ec1be9a-d5e2-4237-9bd8-5cbfecee82a5","stateCode":"ACT","latitude":"-35.19946000","longitude":"149.14329000"},{"id":"d1a7da36-60e6-418e-914f-17d79312f0ce","name":"Fraser","ru":"Fraser","country":"00a7107a-5716-414c-a258-4f586535e671","countryCode":"AU","state":"5ec1be9a-d5e2-4237-9bd8-5cbfecee82a5","stateCode":"ACT","latitude":"-35.19170000","longitude":"149.04534000"},{"id":"24bdeb28-7349-4a6c-9209-4e4666fcb952","name":"Garran","ru":"Garran","country":"00a7107a-5716-414c-a258-4f586535e671","countryCode":"AU","state":"5ec1be9a-d5e2-4237-9bd8-5cbfecee82a5","stateCode":"ACT","latitude":"-35.34206000","longitude":"149.10846000"},{"id":"0a95daf0-3679-462d-b83c-e0edf505414f","name":"Gilmore","ru":"Gilmore","country":"00a7107a-5716-414c-a258-4f586535e671","countryCode":"AU","state":"5ec1be9a-d5e2-4237-9bd8-5cbfecee82a5","stateCode":"ACT","latitude":"-35.41994000","longitude":"149.13481000"},{"id":"ddd1fce2-3bab-4a32-b6d1-d86304b915eb","name":"Giralang","ru":"Giralang","country":"00a7107a-5716-414c-a258-4f586535e671","countryCode":"AU","state":"5ec1be9a-d5e2-4237-9bd8-5cbfecee82a5","stateCode":"ACT","latitude":"-35.21093000","longitude":"149.09600000"},{"id":"c159fe9e-589f-47af-9588-3da954955891","name":"Gordon","ru":"Gordon","country":"00a7107a-5716-414c-a258-4f586535e671","countryCode":"AU","state":"5ec1be9a-d5e2-4237-9bd8-5cbfecee82a5","stateCode":"ACT","latitude":"-35.45676000","longitude":"149.08498000"},{"id":"42476985-5e44-47e3-8f35-8aa680a3a6d3","name":"Gowrie","ru":"Gowrie","country":"00a7107a-5716-414c-a258-4f586535e671","countryCode":"AU","state":"5ec1be9a-d5e2-4237-9bd8-5cbfecee82a5","stateCode":"ACT","latitude":"-35.41187000","longitude":"149.10903000"},{"id":"a31ed3ba-dea5-4324-a855-1a3a19cfaeac","name":"Greenway","ru":"Greenway","country":"00a7107a-5716-414c-a258-4f586535e671","countryCode":"AU","state":"5ec1be9a-d5e2-4237-9bd8-5cbfecee82a5","stateCode":"ACT","latitude":"-35.41829000","longitude":"149.06658000"},{"id":"5c841544-4bcc-4357-a5c1-40c89906cda6","name":"Griffith","ru":"Griffith","country":"00a7107a-5716-414c-a258-4f586535e671","countryCode":"AU","state":"5ec1be9a-d5e2-4237-9bd8-5cbfecee82a5","stateCode":"ACT","latitude":"-35.32533000","longitude":"149.13714000"},{"id":"8bacb6f6-6ceb-4732-8fad-ff64cc066426","name":"Gungahlin","ru":"Gungahlin","country":"00a7107a-5716-414c-a258-4f586535e671","countryCode":"AU","state":"5ec1be9a-d5e2-4237-9bd8-5cbfecee82a5","stateCode":"ACT","latitude":"-35.18674000","longitude":"149.13619000"},{"id":"b9cda422-4285-4023-ba73-c1abc4242ad9","name":"Hackett","ru":"Hackett","country":"00a7107a-5716-414c-a258-4f586535e671","countryCode":"AU","state":"5ec1be9a-d5e2-4237-9bd8-5cbfecee82a5","stateCode":"ACT","latitude":"-35.24948000","longitude":"149.16352000"},{"id":"69d6c5f1-9931-430f-abaf-6646dff1a293","name":"Harrison","ru":"Harrison","country":"00a7107a-5716-414c-a258-4f586535e671","countryCode":"AU","state":"5ec1be9a-d5e2-4237-9bd8-5cbfecee82a5","stateCode":"ACT","latitude":"-35.19906000","longitude":"149.15631000"},{"id":"c08a1131-b071-43ce-9b56-aeafa7996c9c","name":"Hawker","ru":"Hawker","country":"00a7107a-5716-414c-a258-4f586535e671","countryCode":"AU","state":"5ec1be9a-d5e2-4237-9bd8-5cbfecee82a5","stateCode":"ACT","latitude":"-35.24707000","longitude":"149.03666000"},{"id":"29954714-d652-4d0b-96a1-7fb866329489","name":"Higgins","ru":"Higgins","country":"00a7107a-5716-414c-a258-4f586535e671","countryCode":"AU","state":"5ec1be9a-d5e2-4237-9bd8-5cbfecee82a5","stateCode":"ACT","latitude":"-35.23242000","longitude":"149.02720000"},{"id":"7af46d1e-5b6a-4e7f-b7c1-648868797880","name":"Holder","ru":"Holder","country":"00a7107a-5716-414c-a258-4f586535e671","countryCode":"AU","state":"5ec1be9a-d5e2-4237-9bd8-5cbfecee82a5","stateCode":"ACT","latitude":"-35.33439000","longitude":"149.04614000"},{"id":"433a634c-a87c-46ce-88d9-de58e0a7c95e","name":"Holt","ru":"Holt","country":"00a7107a-5716-414c-a258-4f586535e671","countryCode":"AU","state":"5ec1be9a-d5e2-4237-9bd8-5cbfecee82a5","stateCode":"ACT","latitude":"-35.22441000","longitude":"149.01188000"},{"id":"1f5f4b38-83e8-409f-92ca-b256626bcb19","name":"Hughes","ru":"Hughes","country":"00a7107a-5716-414c-a258-4f586535e671","countryCode":"AU","state":"5ec1be9a-d5e2-4237-9bd8-5cbfecee82a5","stateCode":"ACT","latitude":"-35.33269000","longitude":"149.09491000"},{"id":"de30831a-4915-40fa-a909-2756464ed8a4","name":"Isaacs","ru":"Isaacs","country":"00a7107a-5716-414c-a258-4f586535e671","countryCode":"AU","state":"5ec1be9a-d5e2-4237-9bd8-5cbfecee82a5","stateCode":"ACT","latitude":"-35.36862000","longitude":"149.11555000"},{"id":"0e472aa6-8cca-4023-9349-e87fb731beb8","name":"Isabella Plains","ru":"Isabella Plains","country":"00a7107a-5716-414c-a258-4f586535e671","countryCode":"AU","state":"5ec1be9a-d5e2-4237-9bd8-5cbfecee82a5","stateCode":"ACT","latitude":"-35.42829000","longitude":"149.08795000"},{"id":"9d8cbc74-2ea6-409c-9468-1a3cdfccbe49","name":"Kaleen","ru":"Kaleen","country":"00a7107a-5716-414c-a258-4f586535e671","countryCode":"AU","state":"5ec1be9a-d5e2-4237-9bd8-5cbfecee82a5","stateCode":"ACT","latitude":"-35.21814000","longitude":"149.10516000"},{"id":"428544e1-de8d-434f-b022-e93286ed6fac","name":"Kambah","ru":"Kambah","country":"00a7107a-5716-414c-a258-4f586535e671","countryCode":"AU","state":"5ec1be9a-d5e2-4237-9bd8-5cbfecee82a5","stateCode":"ACT","latitude":"-35.38624000","longitude":"149.05804000"},{"id":"37d860af-315e-4b17-958c-39fb0622ec29","name":"Kingston","ru":"Kingston","country":"00a7107a-5716-414c-a258-4f586535e671","countryCode":"AU","state":"5ec1be9a-d5e2-4237-9bd8-5cbfecee82a5","stateCode":"ACT","latitude":"-35.31525000","longitude":"149.14658000"},{"id":"af4597a3-6dcc-4432-abcf-ee85305231a3","name":"Latham","ru":"Latham","country":"00a7107a-5716-414c-a258-4f586535e671","countryCode":"AU","state":"5ec1be9a-d5e2-4237-9bd8-5cbfecee82a5","stateCode":"ACT","latitude":"-35.21652000","longitude":"149.03144000"},{"id":"e5a6a1a6-3cb4-4fe8-b383-b69bd7fed7f0","name":"Lyneham","ru":"Lyneham","country":"00a7107a-5716-414c-a258-4f586535e671","countryCode":"AU","state":"5ec1be9a-d5e2-4237-9bd8-5cbfecee82a5","stateCode":"ACT","latitude":"-35.23980000","longitude":"149.13074000"},{"id":"dd393197-75b8-4666-b475-b86f8e528b5f","name":"Lyons","ru":"Lyons","country":"00a7107a-5716-414c-a258-4f586535e671","countryCode":"AU","state":"5ec1be9a-d5e2-4237-9bd8-5cbfecee82a5","stateCode":"ACT","latitude":"-35.34060000","longitude":"149.07396000"},{"id":"a2dcc71c-d16e-442f-adbf-f77eba822f50","name":"Macarthur","ru":"Macarthur","country":"00a7107a-5716-414c-a258-4f586535e671","countryCode":"AU","state":"5ec1be9a-d5e2-4237-9bd8-5cbfecee82a5","stateCode":"ACT","latitude":"-35.40885000","longitude":"149.12696000"},{"id":"4d0861c8-fe51-4eaf-b978-bec00b09f2a0","name":"Macgregor","ru":"Macgregor","country":"00a7107a-5716-414c-a258-4f586535e671","countryCode":"AU","state":"5ec1be9a-d5e2-4237-9bd8-5cbfecee82a5","stateCode":"ACT","latitude":"-35.20980000","longitude":"149.01101000"},{"id":"76fe6fa7-78dc-437b-b45d-b7f45d86842b","name":"Macquarie","ru":"Macquarie","country":"00a7107a-5716-414c-a258-4f586535e671","countryCode":"AU","state":"5ec1be9a-d5e2-4237-9bd8-5cbfecee82a5","stateCode":"ACT","latitude":"-35.25126000","longitude":"149.06363000"},{"id":"8337a42c-711e-46cb-8087-d6dc459d9575","name":"Mawson","ru":"Mawson","country":"00a7107a-5716-414c-a258-4f586535e671","countryCode":"AU","state":"5ec1be9a-d5e2-4237-9bd8-5cbfecee82a5","stateCode":"ACT","latitude":"-35.36340000","longitude":"149.09863000"},{"id":"fee6127a-0965-442a-8658-1ee4cfcfa702","name":"McKellar","ru":"McKellar","country":"00a7107a-5716-414c-a258-4f586535e671","countryCode":"AU","state":"5ec1be9a-d5e2-4237-9bd8-5cbfecee82a5","stateCode":"ACT","latitude":"-35.21752000","longitude":"149.07704000"},{"id":"b5a026d3-eae7-4fbc-af28-23eaf23663ac","name":"Melba","ru":"Melba","country":"00a7107a-5716-414c-a258-4f586535e671","countryCode":"AU","state":"5ec1be9a-d5e2-4237-9bd8-5cbfecee82a5","stateCode":"ACT","latitude":"-35.21016000","longitude":"149.05405000"},{"id":"be4327df-04ca-42ad-8dc5-ec8308a4a6f5","name":"Monash","ru":"Monash","country":"00a7107a-5716-414c-a258-4f586535e671","countryCode":"AU","state":"5ec1be9a-d5e2-4237-9bd8-5cbfecee82a5","stateCode":"ACT","latitude":"-35.41577000","longitude":"149.09063000"},{"id":"22fcd6fa-ae41-4969-9882-ae6e35d0ec48","name":"Narrabundah","ru":"Narrabundah","country":"00a7107a-5716-414c-a258-4f586535e671","countryCode":"AU","state":"5ec1be9a-d5e2-4237-9bd8-5cbfecee82a5","stateCode":"ACT","latitude":"-35.33570000","longitude":"149.14924000"},{"id":"676ec5d2-6519-4bd4-8e8c-19fe3e205370","name":"Ngunnawal","ru":"Ngunnawal","country":"00a7107a-5716-414c-a258-4f586535e671","countryCode":"AU","state":"5ec1be9a-d5e2-4237-9bd8-5cbfecee82a5","stateCode":"ACT","latitude":"-35.17280000","longitude":"149.11147000"},{"id":"77664589-4e1c-4c56-b513-f1785577ecc5","name":"Nicholls","ru":"Nicholls","country":"00a7107a-5716-414c-a258-4f586535e671","countryCode":"AU","state":"5ec1be9a-d5e2-4237-9bd8-5cbfecee82a5","stateCode":"ACT","latitude":"-35.18733000","longitude":"149.09648000"},{"id":"489b2ee0-0afb-4d19-b80e-c01cbecd4585","name":"O'Connor","ru":"O'Connor","country":"00a7107a-5716-414c-a258-4f586535e671","countryCode":"AU","state":"5ec1be9a-d5e2-4237-9bd8-5cbfecee82a5","stateCode":"ACT","latitude":"-35.25645000","longitude":"149.11248000"},{"id":"553f7a75-744e-4452-8151-38f0208da77d","name":"Oxley","ru":"Oxley","country":"00a7107a-5716-414c-a258-4f586535e671","countryCode":"AU","state":"5ec1be9a-d5e2-4237-9bd8-5cbfecee82a5","stateCode":"ACT","latitude":"-35.40952000","longitude":"149.07860000"},{"id":"8aec9f2c-dd50-4614-9b38-ac46cf38397f","name":"Page","ru":"Page","country":"00a7107a-5716-414c-a258-4f586535e671","countryCode":"AU","state":"5ec1be9a-d5e2-4237-9bd8-5cbfecee82a5","stateCode":"ACT","latitude":"-35.23864000","longitude":"149.04988000"},{"id":"4098f0dc-72ae-4412-901f-288a2497d4a3","name":"Palmerston","ru":"Palmerston","country":"00a7107a-5716-414c-a258-4f586535e671","countryCode":"AU","state":"5ec1be9a-d5e2-4237-9bd8-5cbfecee82a5","stateCode":"ACT","latitude":"-35.19447000","longitude":"149.11940000"},{"id":"66343f8d-9091-4b42-832e-2a4e92ea577c","name":"Pearce","ru":"Pearce","country":"00a7107a-5716-414c-a258-4f586535e671","countryCode":"AU","state":"5ec1be9a-d5e2-4237-9bd8-5cbfecee82a5","stateCode":"ACT","latitude":"-35.36222000","longitude":"149.08338000"},{"id":"3b46df5e-f37a-439b-b07d-1b09785a2d00","name":"Phillip","ru":"Phillip","country":"00a7107a-5716-414c-a258-4f586535e671","countryCode":"AU","state":"5ec1be9a-d5e2-4237-9bd8-5cbfecee82a5","stateCode":"ACT","latitude":"-35.35035000","longitude":"149.09151000"},{"id":"370cb7a2-5cd4-46de-8302-36792dadf5de","name":"Red Hill","ru":"Red Hill","country":"00a7107a-5716-414c-a258-4f586535e671","countryCode":"AU","state":"5ec1be9a-d5e2-4237-9bd8-5cbfecee82a5","stateCode":"ACT","latitude":"-35.32624000","longitude":"149.11906000"},{"id":"1f556e45-e354-4de4-a82b-74cd5b36edb7","name":"Reid","ru":"Reid","country":"00a7107a-5716-414c-a258-4f586535e671","countryCode":"AU","state":"5ec1be9a-d5e2-4237-9bd8-5cbfecee82a5","stateCode":"ACT","latitude":"-35.28578000","longitude":"149.13905000"},{"id":"f6a88d11-e744-4ae7-b280-35b8f892a9ba","name":"Richardson","ru":"Richardson","country":"00a7107a-5716-414c-a258-4f586535e671","countryCode":"AU","state":"5ec1be9a-d5e2-4237-9bd8-5cbfecee82a5","stateCode":"ACT","latitude":"-35.42787000","longitude":"149.11377000"},{"id":"407bfca9-5960-4dfe-91b3-007d984b572e","name":"Rivett","ru":"Rivett","country":"00a7107a-5716-414c-a258-4f586535e671","countryCode":"AU","state":"5ec1be9a-d5e2-4237-9bd8-5cbfecee82a5","stateCode":"ACT","latitude":"-35.34709000","longitude":"149.03790000"},{"id":"ba7d06d2-b97d-495d-b866-60c414d87ada","name":"Scullin","ru":"Scullin","country":"00a7107a-5716-414c-a258-4f586535e671","countryCode":"AU","state":"5ec1be9a-d5e2-4237-9bd8-5cbfecee82a5","stateCode":"ACT","latitude":"-35.23462000","longitude":"149.03900000"},{"id":"fbcb6bc6-76b0-4373-a0c6-27f8f4277782","name":"Spence","ru":"Spence","country":"00a7107a-5716-414c-a258-4f586535e671","countryCode":"AU","state":"5ec1be9a-d5e2-4237-9bd8-5cbfecee82a5","stateCode":"ACT","latitude":"-35.19873000","longitude":"149.06438000"},{"id":"d58f6924-aff2-4a6e-a83c-578ff2a4b5d7","name":"Stirling","ru":"Stirling","country":"00a7107a-5716-414c-a258-4f586535e671","countryCode":"AU","state":"5ec1be9a-d5e2-4237-9bd8-5cbfecee82a5","stateCode":"ACT","latitude":"-35.34969000","longitude":"149.04930000"},{"id":"da223178-41c2-4d55-8ff1-8c8ae8f1ddae","name":"Theodore","ru":"Theodore","country":"00a7107a-5716-414c-a258-4f586535e671","countryCode":"AU","state":"5ec1be9a-d5e2-4237-9bd8-5cbfecee82a5","stateCode":"ACT","latitude":"-35.44962000","longitude":"149.11971000"},{"id":"cae66867-8cfe-4d6f-b224-4a204b19613f","name":"Torrens","ru":"Torrens","country":"00a7107a-5716-414c-a258-4f586535e671","countryCode":"AU","state":"5ec1be9a-d5e2-4237-9bd8-5cbfecee82a5","stateCode":"ACT","latitude":"-35.37203000","longitude":"149.08773000"},{"id":"3c10f0ed-b060-4b4e-a8a8-c6dc2bc5500f","name":"Turner","ru":"Turner","country":"00a7107a-5716-414c-a258-4f586535e671","countryCode":"AU","state":"5ec1be9a-d5e2-4237-9bd8-5cbfecee82a5","stateCode":"ACT","latitude":"-35.26881000","longitude":"149.12465000"},{"id":"aca1ff03-e36d-4cdc-87d8-284795d32dab","name":"Wanniassa","ru":"Wanniassa","country":"00a7107a-5716-414c-a258-4f586535e671","countryCode":"AU","state":"5ec1be9a-d5e2-4237-9bd8-5cbfecee82a5","stateCode":"ACT","latitude":"-35.39783000","longitude":"149.09086000"},{"id":"39d06f94-3bf4-4ce7-b0e7-a13c36409a81","name":"Waramanga","ru":"Waramanga","country":"00a7107a-5716-414c-a258-4f586535e671","countryCode":"AU","state":"5ec1be9a-d5e2-4237-9bd8-5cbfecee82a5","stateCode":"ACT","latitude":"-35.35297000","longitude":"149.06214000"},{"id":"7f2c9b94-29a4-41b6-a3b3-332ff9173bf7","name":"Watson","ru":"Watson","country":"00a7107a-5716-414c-a258-4f586535e671","countryCode":"AU","state":"5ec1be9a-d5e2-4237-9bd8-5cbfecee82a5","stateCode":"ACT","latitude":"-35.23815000","longitude":"149.15271000"},{"id":"488584b3-79c4-4590-8689-a99dcc1e6d6e","name":"Weetangera","ru":"Weetangera","country":"00a7107a-5716-414c-a258-4f586535e671","countryCode":"AU","state":"5ec1be9a-d5e2-4237-9bd8-5cbfecee82a5","stateCode":"ACT","latitude":"-35.25000000","longitude":"149.05000000"},{"id":"afdc4d7d-6a76-4735-9cf3-c383048b3629","name":"Weston","ru":"Weston","country":"00a7107a-5716-414c-a258-4f586535e671","countryCode":"AU","state":"5ec1be9a-d5e2-4237-9bd8-5cbfecee82a5","stateCode":"ACT","latitude":"-35.33582000","longitude":"149.05929000"},{"id":"a0968c3a-ef15-4625-a786-095f7d29954e","name":"Wright","ru":"Wright","country":"00a7107a-5716-414c-a258-4f586535e671","countryCode":"AU","state":"5ec1be9a-d5e2-4237-9bd8-5cbfecee82a5","stateCode":"ACT","latitude":"-35.32239000","longitude":"149.03456000"},{"id":"dfe76e82-bfaf-44c1-8ef7-eab25e2051ae","name":"Yarralumla","ru":"Yarralumla","country":"00a7107a-5716-414c-a258-4f586535e671","countryCode":"AU","state":"5ec1be9a-d5e2-4237-9bd8-5cbfecee82a5","stateCode":"ACT","latitude":"-35.29980000","longitude":"149.10585000"},{"id":"1b88a5bc-b55c-4d69-ac5c-ed7a9f3a482f","name":"Abbotsbury","ru":"Abbotsbury","country":"00a7107a-5716-414c-a258-4f586535e671","countryCode":"AU","state":"9bc63794-994e-4549-80f3-7661323b4307","stateCode":"NSW","latitude":"-33.87010000","longitude":"150.86119000"},{"id":"722591e9-baf3-4a6d-a7fc-2f6526ac73f4","name":"Abbotsford","ru":"Abbotsford","country":"00a7107a-5716-414c-a258-4f586535e671","countryCode":"AU","state":"9bc63794-994e-4549-80f3-7661323b4307","stateCode":"NSW","latitude":"-33.84889000","longitude":"151.12801000"},{"id":"18e2bc56-4ca2-4745-adc9-4eb16103cfbb","name":"Abercrombie","ru":"Abercrombie","country":"00a7107a-5716-414c-a258-4f586535e671","countryCode":"AU","state":"9bc63794-994e-4549-80f3-7661323b4307","stateCode":"NSW","latitude":"-33.38867000","longitude":"149.54580000"},{"id":"48b7ddf3-c13a-4cd3-8d93-2216264ad039","name":"Aberdare","ru":"Aberdare","country":"00a7107a-5716-414c-a258-4f586535e671","countryCode":"AU","state":"9bc63794-994e-4549-80f3-7661323b4307","stateCode":"NSW","latitude":"-32.84112000","longitude":"151.38168000"},{"id":"d05a4fdf-9ccb-41ca-8483-050acd199c27","name":"Aberdeen","ru":"Aberdeen","country":"00a7107a-5716-414c-a258-4f586535e671","countryCode":"AU","state":"9bc63794-994e-4549-80f3-7661323b4307","stateCode":"NSW","latitude":"-32.16588000","longitude":"150.89003000"},{"id":"2e79c18e-4303-4f9f-9da6-cfe35fc6d0bd","name":"Aberglasslyn","ru":"Aberglasslyn","country":"00a7107a-5716-414c-a258-4f586535e671","countryCode":"AU","state":"9bc63794-994e-4549-80f3-7661323b4307","stateCode":"NSW","latitude":"-32.70000000","longitude":"151.53333000"},{"id":"835352d3-0bab-4580-84cf-72f332ad923e","name":"Abermain","ru":"Abermain","country":"00a7107a-5716-414c-a258-4f586535e671","countryCode":"AU","state":"9bc63794-994e-4549-80f3-7661323b4307","stateCode":"NSW","latitude":"-32.80740000","longitude":"151.42750000"},{"id":"d8c9c8ef-73d4-48f9-bd89-338edf0c66ea","name":"Acacia Gardens","ru":"Acacia Gardens","country":"00a7107a-5716-414c-a258-4f586535e671","countryCode":"AU","state":"9bc63794-994e-4549-80f3-7661323b4307","stateCode":"NSW","latitude":"-33.73159000","longitude":"150.91636000"},{"id":"a680222f-b2ab-4580-a753-5ff4ff064067","name":"Adamstown","ru":"Adamstown","country":"00a7107a-5716-414c-a258-4f586535e671","countryCode":"AU","state":"9bc63794-994e-4549-80f3-7661323b4307","stateCode":"NSW","latitude":"-32.93824000","longitude":"151.72541000"},{"id":"105b0fe2-bd1c-4c1e-95c7-99c7de5a700e","name":"Adamstown Heights","ru":"Adamstown Heights","country":"00a7107a-5716-414c-a258-4f586535e671","countryCode":"AU","state":"9bc63794-994e-4549-80f3-7661323b4307","stateCode":"NSW","latitude":"-32.94906000","longitude":"151.71009000"},{"id":"08e1469b-a5d1-419d-ba99-6844add000e5","name":"Airds","ru":"Airds","country":"00a7107a-5716-414c-a258-4f586535e671","countryCode":"AU","state":"9bc63794-994e-4549-80f3-7661323b4307","stateCode":"NSW","latitude":"-34.08599000","longitude":"150.83322000"},{"id":"7ae00b7e-655f-4966-8e6b-dbdb2b6f4bbb","name":"Albion Park","ru":"Albion Park","country":"00a7107a-5716-414c-a258-4f586535e671","countryCode":"AU","state":"9bc63794-994e-4549-80f3-7661323b4307","stateCode":"NSW","latitude":"-34.57132000","longitude":"150.77568000"},{"id":"b2b18917-828c-4d59-bd29-9d39dd80f577","name":"Albion Park Rail","ru":"Albion Park Rail","country":"00a7107a-5716-414c-a258-4f586535e671","countryCode":"AU","state":"9bc63794-994e-4549-80f3-7661323b4307","stateCode":"NSW","latitude":"-34.56634000","longitude":"150.79177000"},{"id":"ad7839d3-235d-4cd3-bebe-31badd631fe0","name":"Albury","ru":"Albury","country":"00a7107a-5716-414c-a258-4f586535e671","countryCode":"AU","state":"9bc63794-994e-4549-80f3-7661323b4307","stateCode":"NSW","latitude":"-36.07482000","longitude":"146.92401000"},{"id":"af37c279-ba0a-4408-945f-d90cd1ead1b3","name":"Albury Municipality","ru":"Albury Municipality","country":"00a7107a-5716-414c-a258-4f586535e671","countryCode":"AU","state":"9bc63794-994e-4549-80f3-7661323b4307","stateCode":"NSW","latitude":"-36.01494000","longitude":"146.95684000"},{"id":"ab841f6f-1534-4513-af98-c5818edd7be5","name":"Aldavilla","ru":"Aldavilla","country":"00a7107a-5716-414c-a258-4f586535e671","countryCode":"AU","state":"9bc63794-994e-4549-80f3-7661323b4307","stateCode":"NSW","latitude":"-31.08180000","longitude":"152.76790000"},{"id":"5e198fcb-7203-487c-9bb6-907233d1f28b","name":"Alexandria","ru":"Alexandria","country":"00a7107a-5716-414c-a258-4f586535e671","countryCode":"AU","state":"9bc63794-994e-4549-80f3-7661323b4307","stateCode":"NSW","latitude":"-33.89989000","longitude":"151.19951000"},{"id":"079ee573-79d7-44dd-879e-7cf39bac960c","name":"Alfords Point","ru":"Alfords Point","country":"00a7107a-5716-414c-a258-4f586535e671","countryCode":"AU","state":"9bc63794-994e-4549-80f3-7661323b4307","stateCode":"NSW","latitude":"-33.98744000","longitude":"151.02526000"},{"id":"08ba85a0-4464-4a12-adbb-544a773916cc","name":"Allambie Heights","ru":"Allambie Heights","country":"00a7107a-5716-414c-a258-4f586535e671","countryCode":"AU","state":"9bc63794-994e-4549-80f3-7661323b4307","stateCode":"NSW","latitude":"-33.76655000","longitude":"151.24981000"},{"id":"71ac41a1-8981-480f-80cd-47a253d9fc8a","name":"Allawah","ru":"Allawah","country":"00a7107a-5716-414c-a258-4f586535e671","countryCode":"AU","state":"9bc63794-994e-4549-80f3-7661323b4307","stateCode":"NSW","latitude":"-33.97257000","longitude":"151.11440000"},{"id":"bc970e9a-549d-4efc-afe3-af70019651d4","name":"Alstonville","ru":"Alstonville","country":"00a7107a-5716-414c-a258-4f586535e671","countryCode":"AU","state":"9bc63794-994e-4549-80f3-7661323b4307","stateCode":"NSW","latitude":"-28.84186000","longitude":"153.44022000"},{"id":"fc1f070e-fcc0-430b-9c2b-14593c585f02","name":"Ambarvale","ru":"Ambarvale","country":"00a7107a-5716-414c-a258-4f586535e671","countryCode":"AU","state":"9bc63794-994e-4549-80f3-7661323b4307","stateCode":"NSW","latitude":"-34.08942000","longitude":"150.79656000"},{"id":"9c66551e-a727-42a5-9b90-fd27ba2cd26e","name":"Anna Bay","ru":"Anna Bay","country":"00a7107a-5716-414c-a258-4f586535e671","countryCode":"AU","state":"9bc63794-994e-4549-80f3-7661323b4307","stateCode":"NSW","latitude":"-32.78135000","longitude":"152.08586000"},{"id":"6beef306-1628-49d9-8e77-2d9b0bba2583","name":"Annandale","ru":"Annandale","country":"00a7107a-5716-414c-a258-4f586535e671","countryCode":"AU","state":"9bc63794-994e-4549-80f3-7661323b4307","stateCode":"NSW","latitude":"-33.88333000","longitude":"151.16667000"},{"id":"a531b9d6-9246-43be-8791-198e0c8bcaac","name":"Annangrove","ru":"Annangrove","country":"00a7107a-5716-414c-a258-4f586535e671","countryCode":"AU","state":"9bc63794-994e-4549-80f3-7661323b4307","stateCode":"NSW","latitude":"-33.65758000","longitude":"150.94755000"},{"id":"56ac31ba-7d09-4dd0-a8d6-559cc98ac511","name":"Appin","ru":"Appin","country":"00a7107a-5716-414c-a258-4f586535e671","countryCode":"AU","state":"9bc63794-994e-4549-80f3-7661323b4307","stateCode":"NSW","latitude":"-34.20347000","longitude":"150.78644000"},{"id":"5f5baf7f-ec4e-436a-ad09-7f2eb04ed122","name":"Arcadia","ru":"Arcadia","country":"00a7107a-5716-414c-a258-4f586535e671","countryCode":"AU","state":"9bc63794-994e-4549-80f3-7661323b4307","stateCode":"NSW","latitude":"-33.61667000","longitude":"151.03333000"},{"id":"dc835ad9-bb83-4f36-be9c-9ff96699107e","name":"Arcadia vale","ru":"Arcadia vale","country":"00a7107a-5716-414c-a258-4f586535e671","countryCode":"AU","state":"9bc63794-994e-4549-80f3-7661323b4307","stateCode":"NSW","latitude":"-33.06052000","longitude":"151.58408000"},{"id":"5471dbc1-f343-486f-97b6-bb386977fc00","name":"Argenton","ru":"Argenton","country":"00a7107a-5716-414c-a258-4f586535e671","countryCode":"AU","state":"9bc63794-994e-4549-80f3-7661323b4307","stateCode":"NSW","latitude":"-32.93505000","longitude":"151.63064000"},{"id":"0b6600a2-198d-4fd1-9249-d667ec6781a2","name":"Armidale","ru":"Armidale","country":"00a7107a-5716-414c-a258-4f586535e671","countryCode":"AU","state":"9bc63794-994e-4549-80f3-7661323b4307","stateCode":"NSW","latitude":"-30.50123000","longitude":"151.66553000"},{"id":"8ac2496a-db39-4585-af7c-0299b4c85d5a","name":"Arncliffe","ru":"Arncliffe","country":"00a7107a-5716-414c-a258-4f586535e671","countryCode":"AU","state":"9bc63794-994e-4549-80f3-7661323b4307","stateCode":"NSW","latitude":"-33.93627000","longitude":"151.14819000"},{"id":"11d5d37e-5377-42ad-958d-0fa0a4e0a442","name":"Artarmon","ru":"Artarmon","country":"00a7107a-5716-414c-a258-4f586535e671","countryCode":"AU","state":"9bc63794-994e-4549-80f3-7661323b4307","stateCode":"NSW","latitude":"-33.81667000","longitude":"151.18333000"},{"id":"8ff8c3b7-2ddf-475e-a6fa-2214ea3f2ab1","name":"Ashbury","ru":"Ashbury","country":"00a7107a-5716-414c-a258-4f586535e671","countryCode":"AU","state":"9bc63794-994e-4549-80f3-7661323b4307","stateCode":"NSW","latitude":"-33.89785000","longitude":"151.11960000"},{"id":"a701fbb6-c06d-43e5-8648-3a875bbe629b","name":"Ashcroft","ru":"Ashcroft","country":"00a7107a-5716-414c-a258-4f586535e671","countryCode":"AU","state":"9bc63794-994e-4549-80f3-7661323b4307","stateCode":"NSW","latitude":"-33.91598000","longitude":"150.89985000"},{"id":"5f32e95c-b439-4ced-95db-8aa1eec914df","name":"Ashfield","ru":"Ashfield","country":"00a7107a-5716-414c-a258-4f586535e671","countryCode":"AU","state":"9bc63794-994e-4549-80f3-7661323b4307","stateCode":"NSW","latitude":"-33.88834000","longitude":"151.12274000"},{"id":"4293cd0a-e805-468f-b093-041844237c7a","name":"Ashmont","ru":"Ashmont","country":"00a7107a-5716-414c-a258-4f586535e671","countryCode":"AU","state":"9bc63794-994e-4549-80f3-7661323b4307","stateCode":"NSW","latitude":"-35.12491000","longitude":"147.33172000"},{"id":"73b8b222-3b86-45e0-a455-d3bb3fe93d62","name":"Ashtonfield","ru":"Ashtonfield","country":"00a7107a-5716-414c-a258-4f586535e671","countryCode":"AU","state":"9bc63794-994e-4549-80f3-7661323b4307","stateCode":"NSW","latitude":"-32.77331000","longitude":"151.60583000"},{"id":"14d820b8-3d46-48ff-b532-dc575320261d","name":"Asquith","ru":"Asquith","country":"00a7107a-5716-414c-a258-4f586535e671","countryCode":"AU","state":"9bc63794-994e-4549-80f3-7661323b4307","stateCode":"NSW","latitude":"-33.68705000","longitude":"151.11630000"},{"id":"d2b87015-7cef-4e26-98fa-3723bc02e1b2","name":"Auburn","ru":"Auburn","country":"00a7107a-5716-414c-a258-4f586535e671","countryCode":"AU","state":"9bc63794-994e-4549-80f3-7661323b4307","stateCode":"NSW","latitude":"-33.85000000","longitude":"151.03333000"},{"id":"23b1c123-82de-4630-8e8c-59e85504b0c6","name":"Austinmer","ru":"Austinmer","country":"00a7107a-5716-414c-a258-4f586535e671","countryCode":"AU","state":"9bc63794-994e-4549-80f3-7661323b4307","stateCode":"NSW","latitude":"-34.30516000","longitude":"150.93335000"},{"id":"240443e1-1e1f-4a6b-8358-1399f000934d","name":"Austral","ru":"Austral","country":"00a7107a-5716-414c-a258-4f586535e671","countryCode":"AU","state":"9bc63794-994e-4549-80f3-7661323b4307","stateCode":"NSW","latitude":"-33.92745000","longitude":"150.80811000"},{"id":"46b94d48-e4e6-44c3-a5cb-ea00e984b90e","name":"Avoca Beach","ru":"Avoca Beach","country":"00a7107a-5716-414c-a258-4f586535e671","countryCode":"AU","state":"9bc63794-994e-4549-80f3-7661323b4307","stateCode":"NSW","latitude":"-33.46818000","longitude":"151.43390000"},{"id":"146c9e7c-1da9-4a13-a28f-47e5ef1d9db5","name":"Avondale","ru":"Avondale","country":"00a7107a-5716-414c-a258-4f586535e671","countryCode":"AU","state":"9bc63794-994e-4549-80f3-7661323b4307","stateCode":"NSW","latitude":"-34.51750000","longitude":"150.75010000"},{"id":"077e39b2-08f5-4df7-b4fb-85077e0fca6d","name":"Balgowlah","ru":"Balgowlah","country":"00a7107a-5716-414c-a258-4f586535e671","countryCode":"AU","state":"9bc63794-994e-4549-80f3-7661323b4307","stateCode":"NSW","latitude":"-33.79494000","longitude":"151.25720000"},{"id":"e438317c-2192-476f-98de-852c95512b23","name":"Balgowlah Heights","ru":"Balgowlah Heights","country":"00a7107a-5716-414c-a258-4f586535e671","countryCode":"AU","state":"9bc63794-994e-4549-80f3-7661323b4307","stateCode":"NSW","latitude":"-33.80661000","longitude":"151.26243000"},{"id":"49b9c2a9-3c64-433e-b545-a9f6421d39a7","name":"Balgownie","ru":"Balgownie","country":"00a7107a-5716-414c-a258-4f586535e671","countryCode":"AU","state":"9bc63794-994e-4549-80f3-7661323b4307","stateCode":"NSW","latitude":"-34.39505000","longitude":"150.88051000"},{"id":"68ef737c-4e1b-42a7-ab43-ef0cdc60eb2e","name":"Ballina","ru":"Ballina","country":"00a7107a-5716-414c-a258-4f586535e671","countryCode":"AU","state":"9bc63794-994e-4549-80f3-7661323b4307","stateCode":"NSW","latitude":"-28.85273000","longitude":"153.48568000"},{"id":"fce036d6-dec1-4b34-ac0e-9ce4899d1035","name":"Balmain","ru":"Balmain","country":"00a7107a-5716-414c-a258-4f586535e671","countryCode":"AU","state":"9bc63794-994e-4549-80f3-7661323b4307","stateCode":"NSW","latitude":"-33.85481000","longitude":"151.18330000"},{"id":"01c6056d-acc6-4842-be5c-b4655daa3f74","name":"Balmain East","ru":"Balmain East","country":"00a7107a-5716-414c-a258-4f586535e671","countryCode":"AU","state":"9bc63794-994e-4549-80f3-7661323b4307","stateCode":"NSW","latitude":"-33.85710000","longitude":"151.19282000"},{"id":"64bb8452-d464-49f8-a850-6f55d933c1ff","name":"Balranald","ru":"Balranald","country":"00a7107a-5716-414c-a258-4f586535e671","countryCode":"AU","state":"9bc63794-994e-4549-80f3-7661323b4307","stateCode":"NSW","latitude":"-34.67839000","longitude":"143.56384000"},{"id":"d38b8e57-fe55-458e-b90f-6324c54819de","name":"Bangalow","ru":"Bangalow","country":"00a7107a-5716-414c-a258-4f586535e671","countryCode":"AU","state":"9bc63794-994e-4549-80f3-7661323b4307","stateCode":"NSW","latitude":"-28.68634000","longitude":"153.52153000"},{"id":"0e81d5e0-2c3e-489f-8691-31c05330f63a","name":"Bangor","ru":"Bangor","country":"00a7107a-5716-414c-a258-4f586535e671","countryCode":"AU","state":"9bc63794-994e-4549-80f3-7661323b4307","stateCode":"NSW","latitude":"-34.01667000","longitude":"151.03333000"},{"id":"f9e5db34-30d5-47b6-adf9-5e3ce9ece293","name":"Banksia","ru":"Banksia","country":"00a7107a-5716-414c-a258-4f586535e671","countryCode":"AU","state":"9bc63794-994e-4549-80f3-7661323b4307","stateCode":"NSW","latitude":"-33.94601000","longitude":"151.14304000"},{"id":"d52d1473-0406-4bc9-b045-56bd32d91572","name":"Bankstown","ru":"Bankstown","country":"00a7107a-5716-414c-a258-4f586535e671","countryCode":"AU","state":"9bc63794-994e-4549-80f3-7661323b4307","stateCode":"NSW","latitude":"-33.91667000","longitude":"151.03333000"},{"id":"371c4653-4301-49b5-8174-6d615aa9eca8","name":"Banora Point","ru":"Banora Point","country":"00a7107a-5716-414c-a258-4f586535e671","countryCode":"AU","state":"9bc63794-994e-4549-80f3-7661323b4307","stateCode":"NSW","latitude":"-28.21298000","longitude":"153.53634000"},{"id":"0b9e4127-10d0-431b-8c3f-e541aae9f387","name":"Bar Beach","ru":"Bar Beach","country":"00a7107a-5716-414c-a258-4f586535e671","countryCode":"AU","state":"9bc63794-994e-4549-80f3-7661323b4307","stateCode":"NSW","latitude":"-32.94128000","longitude":"151.76544000"},{"id":"51c4640c-4424-4f0a-a757-cea43cf730c2","name":"Barden Ridge","ru":"Barden Ridge","country":"00a7107a-5716-414c-a258-4f586535e671","countryCode":"AU","state":"9bc63794-994e-4549-80f3-7661323b4307","stateCode":"NSW","latitude":"-34.03413000","longitude":"151.01194000"},{"id":"ce005e38-6ab7-4db0-8aef-80caa4a6610f","name":"Bardia","ru":"Bardia","country":"00a7107a-5716-414c-a258-4f586535e671","countryCode":"AU","state":"9bc63794-994e-4549-80f3-7661323b4307","stateCode":"NSW","latitude":"-33.97789000","longitude":"150.86306000"},{"id":"e0efee08-3ab2-49d7-b17d-05212c6805be","name":"Bardwell Park","ru":"Bardwell Park","country":"00a7107a-5716-414c-a258-4f586535e671","countryCode":"AU","state":"9bc63794-994e-4549-80f3-7661323b4307","stateCode":"NSW","latitude":"-33.93534000","longitude":"151.12571000"},{"id":"cb7bc549-f79b-470b-8716-986c9af1fed6","name":"Bardwell Valley","ru":"Bardwell Valley","country":"00a7107a-5716-414c-a258-4f586535e671","countryCode":"AU","state":"9bc63794-994e-4549-80f3-7661323b4307","stateCode":"NSW","latitude":"-33.93344000","longitude":"151.13668000"},{"id":"34bb86af-90e7-4d92-ab06-0557829cf761","name":"Bargo","ru":"Bargo","country":"00a7107a-5716-414c-a258-4f586535e671","countryCode":"AU","state":"9bc63794-994e-4549-80f3-7661323b4307","stateCode":"NSW","latitude":"-34.29301000","longitude":"150.57806000"},{"id":"dafc7aa7-cefa-4566-86b4-85d0d1cb5982","name":"Barham","ru":"Barham","country":"00a7107a-5716-414c-a258-4f586535e671","countryCode":"AU","state":"9bc63794-994e-4549-80f3-7661323b4307","stateCode":"NSW","latitude":"-35.62647000","longitude":"144.12895000"},{"id":"b7a21aa4-6e34-4ca2-8027-aac4e929823c","name":"Barnsley","ru":"Barnsley","country":"00a7107a-5716-414c-a258-4f586535e671","countryCode":"AU","state":"9bc63794-994e-4549-80f3-7661323b4307","stateCode":"NSW","latitude":"-32.93333000","longitude":"151.58333000"},{"id":"e16582f6-ff87-4e53-b4ac-ffe184b38da0","name":"Barooga","ru":"Barooga","country":"00a7107a-5716-414c-a258-4f586535e671","countryCode":"AU","state":"9bc63794-994e-4549-80f3-7661323b4307","stateCode":"NSW","latitude":"-35.90602000","longitude":"145.69585000"},{"id":"5292b876-56cc-42d9-bd1c-e81fd1cdcbd2","name":"Barraba","ru":"Barraba","country":"00a7107a-5716-414c-a258-4f586535e671","countryCode":"AU","state":"9bc63794-994e-4549-80f3-7661323b4307","stateCode":"NSW","latitude":"-30.38547000","longitude":"150.60901000"},{"id":"3907c594-b8e0-40a3-b37f-103eccfb9ff3","name":"Barrack Heights","ru":"Barrack Heights","country":"00a7107a-5716-414c-a258-4f586535e671","countryCode":"AU","state":"9bc63794-994e-4549-80f3-7661323b4307","stateCode":"NSW","latitude":"-34.56464000","longitude":"150.85692000"},{"id":"7950af42-b890-45f6-a2ba-37f0d7606490","name":"Basin View","ru":"Basin View","country":"00a7107a-5716-414c-a258-4f586535e671","countryCode":"AU","state":"9bc63794-994e-4549-80f3-7661323b4307","stateCode":"NSW","latitude":"-35.08833000","longitude":"150.55534000"},{"id":"d0e32ed9-5d63-42ca-9662-27aa93eb26ba","name":"Bass Hill","ru":"Bass Hill","country":"00a7107a-5716-414c-a258-4f586535e671","countryCode":"AU","state":"9bc63794-994e-4549-80f3-7661323b4307","stateCode":"NSW","latitude":"-33.89863000","longitude":"150.99541000"},{"id":"9a1c04b1-fc6c-4265-8696-69be77360405","name":"Bateau Bay","ru":"Bateau Bay","country":"00a7107a-5716-414c-a258-4f586535e671","countryCode":"AU","state":"9bc63794-994e-4549-80f3-7661323b4307","stateCode":"NSW","latitude":"-33.38334000","longitude":"151.46671000"},{"id":"d44389bc-9bfb-44ce-9040-1e726fe4d5a6","name":"Batehaven","ru":"Batehaven","country":"00a7107a-5716-414c-a258-4f586535e671","countryCode":"AU","state":"9bc63794-994e-4549-80f3-7661323b4307","stateCode":"NSW","latitude":"-35.73757000","longitude":"150.19836000"},{"id":"cb06f8c2-80c7-47fb-aaa8-302136104523","name":"Batemans Bay","ru":"Batemans Bay","country":"00a7107a-5716-414c-a258-4f586535e671","countryCode":"AU","state":"9bc63794-994e-4549-80f3-7661323b4307","stateCode":"NSW","latitude":"-35.70658000","longitude":"150.17541000"},{"id":"58ff3555-ccf0-4834-96dc-3781b1578a4a","name":"Bathurst","ru":"Bathurst","country":"00a7107a-5716-414c-a258-4f586535e671","countryCode":"AU","state":"9bc63794-994e-4549-80f3-7661323b4307","stateCode":"NSW","latitude":"-33.41665000","longitude":"149.58060000"},{"id":"cb9d4762-966b-4737-ad40-6cd11bde4cb6","name":"Bathurst city centre","ru":"Bathurst city centre","country":"00a7107a-5716-414c-a258-4f586535e671","countryCode":"AU","state":"9bc63794-994e-4549-80f3-7661323b4307","stateCode":"NSW","latitude":"-33.41816000","longitude":"149.57621000"},{"id":"39ce4a8d-caf4-4eb2-92b0-62412623a205","name":"Bathurst Regional","ru":"Bathurst Regional","country":"00a7107a-5716-414c-a258-4f586535e671","countryCode":"AU","state":"9bc63794-994e-4549-80f3-7661323b4307","stateCode":"NSW","latitude":"-33.47310000","longitude":"149.51956000"},{"id":"2d014548-f24a-486a-a4ab-26633424be6b","name":"Batlow","ru":"Batlow","country":"00a7107a-5716-414c-a258-4f586535e671","countryCode":"AU","state":"9bc63794-994e-4549-80f3-7661323b4307","stateCode":"NSW","latitude":"-35.51987000","longitude":"148.14727000"},{"id":"9cb12694-fb3d-4330-a816-a4b89acc9720","name":"Baulkham Hills","ru":"Baulkham Hills","country":"00a7107a-5716-414c-a258-4f586535e671","countryCode":"AU","state":"9bc63794-994e-4549-80f3-7661323b4307","stateCode":"NSW","latitude":"-33.75881000","longitude":"150.99292000"},{"id":"4f44b7e5-b777-41cb-9298-d97c929403b2","name":"Bay View","ru":"Bay View","country":"00a7107a-5716-414c-a258-4f586535e671","countryCode":"AU","state":"9bc63794-994e-4549-80f3-7661323b4307","stateCode":"NSW","latitude":"-33.65982000","longitude":"151.29878000"},{"id":"52265028-9207-44e4-893f-d2750b04e395","name":"Beacon Hill","ru":"Beacon Hill","country":"00a7107a-5716-414c-a258-4f586535e671","countryCode":"AU","state":"9bc63794-994e-4549-80f3-7661323b4307","stateCode":"NSW","latitude":"-33.75280000","longitude":"151.25857000"},{"id":"fd889bb6-7e3d-4941-be4e-7b3b33262f4b","name":"Beaumont Hills","ru":"Beaumont Hills","country":"00a7107a-5716-414c-a258-4f586535e671","countryCode":"AU","state":"9bc63794-994e-4549-80f3-7661323b4307","stateCode":"NSW","latitude":"-33.69993000","longitude":"150.94110000"},{"id":"01b268aa-4530-42fd-9159-574c0e42103e","name":"Beecroft","ru":"Beecroft","country":"00a7107a-5716-414c-a258-4f586535e671","countryCode":"AU","state":"9bc63794-994e-4549-80f3-7661323b4307","stateCode":"NSW","latitude":"-33.74954000","longitude":"151.06480000"},{"id":"b27a9b71-9e67-4fc5-9859-44a8e2c48337","name":"Bega","ru":"Bega","country":"00a7107a-5716-414c-a258-4f586535e671","countryCode":"AU","state":"9bc63794-994e-4549-80f3-7661323b4307","stateCode":"NSW","latitude":"-36.67392000","longitude":"149.84178000"},{"id":"a32a2b86-5806-4e03-a99f-c3f50635c480","name":"Bega Valley","ru":"Bega Valley","country":"00a7107a-5716-414c-a258-4f586535e671","countryCode":"AU","state":"9bc63794-994e-4549-80f3-7661323b4307","stateCode":"NSW","latitude":"-36.81646000","longitude":"149.72060000"},{"id":"70e1301d-534c-4683-ab82-fc58ea71f32d","name":"Belfield","ru":"Belfield","country":"00a7107a-5716-414c-a258-4f586535e671","countryCode":"AU","state":"9bc63794-994e-4549-80f3-7661323b4307","stateCode":"NSW","latitude":"-33.90354000","longitude":"151.08467000"},{"id":"77645f87-b083-4990-9a31-ce7db6bb3b5f","name":"Bella Vista","ru":"Bella Vista","country":"00a7107a-5716-414c-a258-4f586535e671","countryCode":"AU","state":"9bc63794-994e-4549-80f3-7661323b4307","stateCode":"NSW","latitude":"-33.74127000","longitude":"150.95456000"},{"id":"74bf4a74-f0d2-4e7e-8ab8-8d0113a7b13a","name":"Bellambi","ru":"Bellambi","country":"00a7107a-5716-414c-a258-4f586535e671","countryCode":"AU","state":"9bc63794-994e-4549-80f3-7661323b4307","stateCode":"NSW","latitude":"-34.36667000","longitude":"150.91667000"},{"id":"00558853-4f8b-4858-8394-a2b2a83aad4c","name":"Bellbird","ru":"Bellbird","country":"00a7107a-5716-414c-a258-4f586535e671","countryCode":"AU","state":"9bc63794-994e-4549-80f3-7661323b4307","stateCode":"NSW","latitude":"-32.85992000","longitude":"151.31873000"},{"id":"632071ef-4966-4386-9dc3-9615fe0abbca","name":"Bellevue Hill","ru":"Bellevue Hill","country":"00a7107a-5716-414c-a258-4f586535e671","countryCode":"AU","state":"9bc63794-994e-4549-80f3-7661323b4307","stateCode":"NSW","latitude":"-33.87899000","longitude":"151.25101000"},{"id":"2044d63f-0376-458a-8256-a57517eaa833","name":"Bellingen","ru":"Bellingen","country":"00a7107a-5716-414c-a258-4f586535e671","countryCode":"AU","state":"9bc63794-994e-4549-80f3-7661323b4307","stateCode":"NSW","latitude":"-30.37394000","longitude":"152.72492000"},{"id":"f40153dc-5f9b-4064-be9a-02945c01c206","name":"Belmont","ru":"Belmont","country":"00a7107a-5716-414c-a258-4f586535e671","countryCode":"AU","state":"9bc63794-994e-4549-80f3-7661323b4307","stateCode":"NSW","latitude":"-33.02740000","longitude":"151.66010000"},{"id":"82505538-46ea-4b88-ab04-d4d305d32fdf","name":"Belmont North","ru":"Belmont North","country":"00a7107a-5716-414c-a258-4f586535e671","countryCode":"AU","state":"9bc63794-994e-4549-80f3-7661323b4307","stateCode":"NSW","latitude":"-33.02081000","longitude":"151.66849000"},{"id":"57e5178d-792a-49b2-8c21-b785d15580ab","name":"Belmont South","ru":"Belmont South","country":"00a7107a-5716-414c-a258-4f586535e671","countryCode":"AU","state":"9bc63794-994e-4549-80f3-7661323b4307","stateCode":"NSW","latitude":"-33.04934000","longitude":"151.65695000"},{"id":"0a6a5656-3d01-4553-a3dc-d1404ac204e6","name":"Belmore","ru":"Belmore","country":"00a7107a-5716-414c-a258-4f586535e671","countryCode":"AU","state":"9bc63794-994e-4549-80f3-7661323b4307","stateCode":"NSW","latitude":"-33.91901000","longitude":"151.08935000"},{"id":"2e9dbcee-0788-4b8c-b351-3c4c8fa31c32","name":"Belrose","ru":"Belrose","country":"00a7107a-5716-414c-a258-4f586535e671","countryCode":"AU","state":"9bc63794-994e-4549-80f3-7661323b4307","stateCode":"NSW","latitude":"-33.73954000","longitude":"151.21033000"},{"id":"e7412c79-7880-48f6-876e-957f04abb7d0","name":"Bensville","ru":"Bensville","country":"00a7107a-5716-414c-a258-4f586535e671","countryCode":"AU","state":"9bc63794-994e-4549-80f3-7661323b4307","stateCode":"NSW","latitude":"-33.49757000","longitude":"151.38084000"},{"id":"2c8ed266-8919-4942-8387-0257e58d3147","name":"Berala","ru":"Berala","country":"00a7107a-5716-414c-a258-4f586535e671","countryCode":"AU","state":"9bc63794-994e-4549-80f3-7661323b4307","stateCode":"NSW","latitude":"-33.87197000","longitude":"151.03386000"},{"id":"528fd4d0-be63-4077-b6f5-dfaa1a2c829c","name":"Beresfield","ru":"Beresfield","country":"00a7107a-5716-414c-a258-4f586535e671","countryCode":"AU","state":"9bc63794-994e-4549-80f3-7661323b4307","stateCode":"NSW","latitude":"-32.80000000","longitude":"151.65000000"},{"id":"51967c30-3b0b-4f57-bdea-664e002d2cd4","name":"Berkeley","ru":"Berkeley","country":"00a7107a-5716-414c-a258-4f586535e671","countryCode":"AU","state":"9bc63794-994e-4549-80f3-7661323b4307","stateCode":"NSW","latitude":"-34.48333000","longitude":"150.85000000"},{"id":"a03d871d-1376-4549-8dc9-a0876dfb50a6","name":"Berkeley Vale","ru":"Berkeley Vale","country":"00a7107a-5716-414c-a258-4f586535e671","countryCode":"AU","state":"9bc63794-994e-4549-80f3-7661323b4307","stateCode":"NSW","latitude":"-33.35000000","longitude":"151.43333000"},{"id":"c3724af6-0c6e-4031-bb85-e9ade1ef70a0","name":"Berkshire Park","ru":"Berkshire Park","country":"00a7107a-5716-414c-a258-4f586535e671","countryCode":"AU","state":"9bc63794-994e-4549-80f3-7661323b4307","stateCode":"NSW","latitude":"-33.67283000","longitude":"150.77523000"},{"id":"083b62d9-45f0-4525-81ee-2a0750321d67","name":"Bermagui","ru":"Bermagui","country":"00a7107a-5716-414c-a258-4f586535e671","countryCode":"AU","state":"9bc63794-994e-4549-80f3-7661323b4307","stateCode":"NSW","latitude":"-36.41900000","longitude":"150.06355000"},{"id":"22bede18-c7d9-4fe4-9621-fd46ab844e18","name":"Berowra","ru":"Berowra","country":"00a7107a-5716-414c-a258-4f586535e671","countryCode":"AU","state":"9bc63794-994e-4549-80f3-7661323b4307","stateCode":"NSW","latitude":"-33.62078000","longitude":"151.15091000"},{"id":"54075c8e-f0c3-4396-89cc-9f65d2650f23","name":"Berowra Heights","ru":"Berowra Heights","country":"00a7107a-5716-414c-a258-4f586535e671","countryCode":"AU","state":"9bc63794-994e-4549-80f3-7661323b4307","stateCode":"NSW","latitude":"-33.61211000","longitude":"151.13754000"},{"id":"c5a4d434-5880-4b85-a5a9-804f58fa5ebd","name":"Berridale","ru":"Berridale","country":"00a7107a-5716-414c-a258-4f586535e671","countryCode":"AU","state":"9bc63794-994e-4549-80f3-7661323b4307","stateCode":"NSW","latitude":"-36.36673000","longitude":"148.82772000"},{"id":"b13b08a7-99b9-42d8-8775-aa899aa2f5b8","name":"Berrigan","ru":"Berrigan","country":"00a7107a-5716-414c-a258-4f586535e671","countryCode":"AU","state":"9bc63794-994e-4549-80f3-7661323b4307","stateCode":"NSW","latitude":"-35.75192000","longitude":"145.66984000"},{"id":"07136b69-6af8-44ce-a8ad-c4934dfa6b7f","name":"Berry","ru":"Berry","country":"00a7107a-5716-414c-a258-4f586535e671","countryCode":"AU","state":"9bc63794-994e-4549-80f3-7661323b4307","stateCode":"NSW","latitude":"-34.77507000","longitude":"150.69436000"},{"id":"35afa073-7dfb-42ad-bfc1-af929fd2d653","name":"Beverley Park","ru":"Beverley Park","country":"00a7107a-5716-414c-a258-4f586535e671","countryCode":"AU","state":"9bc63794-994e-4549-80f3-7661323b4307","stateCode":"NSW","latitude":"-33.97707000","longitude":"151.13437000"},{"id":"0d59b0d7-e23d-4059-ab9d-4598366722a4","name":"Beverly Hills","ru":"Beverly Hills","country":"00a7107a-5716-414c-a258-4f586535e671","countryCode":"AU","state":"9bc63794-994e-4549-80f3-7661323b4307","stateCode":"NSW","latitude":"-33.94799000","longitude":"151.07979000"},{"id":"b426c0bc-69b5-48b6-9f00-45bf21ebd5f1","name":"Bexley","ru":"Bexley","country":"00a7107a-5716-414c-a258-4f586535e671","countryCode":"AU","state":"9bc63794-994e-4549-80f3-7661323b4307","stateCode":"NSW","latitude":"-33.95000000","longitude":"151.11667000"},{"id":"e737cca0-b4e8-4dd5-9342-b8304f8ed09a","name":"Bexley North","ru":"Bexley North","country":"00a7107a-5716-414c-a258-4f586535e671","countryCode":"AU","state":"9bc63794-994e-4549-80f3-7661323b4307","stateCode":"NSW","latitude":"-33.93848000","longitude":"151.11385000"},{"id":"028c8a37-731b-44b6-9d74-689a920a579f","name":"Bidwill","ru":"Bidwill","country":"00a7107a-5716-414c-a258-4f586535e671","countryCode":"AU","state":"9bc63794-994e-4549-80f3-7661323b4307","stateCode":"NSW","latitude":"-33.73013000","longitude":"150.82219000"},{"id":"2657ebc2-d056-4515-8a85-303b85ec0e94","name":"Bilambil Heights","ru":"Bilambil Heights","country":"00a7107a-5716-414c-a258-4f586535e671","countryCode":"AU","state":"9bc63794-994e-4549-80f3-7661323b4307","stateCode":"NSW","latitude":"-28.21610000","longitude":"153.48415000"},{"id":"a9676bef-35a5-4bd1-bc1c-53b736083ccd","name":"Bilgola Plateau","ru":"Bilgola Plateau","country":"00a7107a-5716-414c-a258-4f586535e671","countryCode":"AU","state":"9bc63794-994e-4549-80f3-7661323b4307","stateCode":"NSW","latitude":"-33.64781000","longitude":"151.31212000"},{"id":"39477eb8-0fea-4820-b11d-e5e77b66aec7","name":"Bingara","ru":"Bingara","country":"00a7107a-5716-414c-a258-4f586535e671","countryCode":"AU","state":"9bc63794-994e-4549-80f3-7661323b4307","stateCode":"NSW","latitude":"-29.86931000","longitude":"150.57204000"},{"id":"3b77abfb-cdcd-42ee-8c09-f11905e024aa","name":"Birchgrove","ru":"Birchgrove","country":"00a7107a-5716-414c-a258-4f586535e671","countryCode":"AU","state":"9bc63794-994e-4549-80f3-7661323b4307","stateCode":"NSW","latitude":"-33.85164000","longitude":"151.18243000"},{"id":"6879d02d-9285-426b-9615-934ee27c9efd","name":"Birmingham Gardens","ru":"Birmingham Gardens","country":"00a7107a-5716-414c-a258-4f586535e671","countryCode":"AU","state":"9bc63794-994e-4549-80f3-7661323b4307","stateCode":"NSW","latitude":"-32.89368000","longitude":"151.69009000"},{"id":"c8fc28f9-d1c7-4839-924b-a67df575bded","name":"Birrong","ru":"Birrong","country":"00a7107a-5716-414c-a258-4f586535e671","countryCode":"AU","state":"9bc63794-994e-4549-80f3-7661323b4307","stateCode":"NSW","latitude":"-33.89255000","longitude":"151.02075000"},{"id":"6da714b6-58ed-42d0-bea6-844d01e5d18e","name":"Blackalls Park","ru":"Blackalls Park","country":"00a7107a-5716-414c-a258-4f586535e671","countryCode":"AU","state":"9bc63794-994e-4549-80f3-7661323b4307","stateCode":"NSW","latitude":"-32.99893000","longitude":"151.58018000"},{"id":"2819e72b-aa8a-4282-a511-a13c766b4637","name":"Blackbutt","ru":"Blackbutt","country":"00a7107a-5716-414c-a258-4f586535e671","countryCode":"AU","state":"9bc63794-994e-4549-80f3-7661323b4307","stateCode":"NSW","latitude":"-34.57164000","longitude":"150.83804000"},{"id":"e7110f48-e624-430c-af21-1ae42f24186f","name":"Blackett","ru":"Blackett","country":"00a7107a-5716-414c-a258-4f586535e671","countryCode":"AU","state":"9bc63794-994e-4549-80f3-7661323b4307","stateCode":"NSW","latitude":"-33.73792000","longitude":"150.81812000"},{"id":"a76c7e09-1b0b-45dd-90a1-0c747b6e3704","name":"Blackheath","ru":"Blackheath","country":"00a7107a-5716-414c-a258-4f586535e671","countryCode":"AU","state":"9bc63794-994e-4549-80f3-7661323b4307","stateCode":"NSW","latitude":"-33.63567000","longitude":"150.28318000"},{"id":"7ac2550f-650a-4c88-bec6-5eff7906e2ca","name":"Blacksmiths","ru":"Blacksmiths","country":"00a7107a-5716-414c-a258-4f586535e671","countryCode":"AU","state":"9bc63794-994e-4549-80f3-7661323b4307","stateCode":"NSW","latitude":"-33.07167000","longitude":"151.65533000"},{"id":"de920128-bdba-4eb0-a8e6-d9e177bea438","name":"Blacktown","ru":"Blacktown","country":"00a7107a-5716-414c-a258-4f586535e671","countryCode":"AU","state":"9bc63794-994e-4549-80f3-7661323b4307","stateCode":"NSW","latitude":"-33.74016000","longitude":"150.86253000"},{"id":"abca9e42-e8e4-49d2-9554-eee4418a75a1","name":"Blackwall","ru":"Blackwall","country":"00a7107a-5716-414c-a258-4f586535e671","countryCode":"AU","state":"9bc63794-994e-4549-80f3-7661323b4307","stateCode":"NSW","latitude":"-33.50252000","longitude":"151.32786000"},{"id":"ff164c41-1b39-4afb-b8af-8b14bbc684eb","name":"Blair Athol","ru":"Blair Athol","country":"00a7107a-5716-414c-a258-4f586535e671","countryCode":"AU","state":"9bc63794-994e-4549-80f3-7661323b4307","stateCode":"NSW","latitude":"-30.65000000","longitude":"150.20000000"},{"id":"2cda929f-5860-493c-8e17-44f603c31f34","name":"Blakehurst","ru":"Blakehurst","country":"00a7107a-5716-414c-a258-4f586535e671","countryCode":"AU","state":"9bc63794-994e-4549-80f3-7661323b4307","stateCode":"NSW","latitude":"-33.99152000","longitude":"151.10876000"},{"id":"d8bdaf52-6c12-4f66-b678-0059ec94ec4a","name":"Bland","ru":"Bland","country":"00a7107a-5716-414c-a258-4f586535e671","countryCode":"AU","state":"9bc63794-994e-4549-80f3-7661323b4307","stateCode":"NSW","latitude":"-33.91904000","longitude":"146.92718000"},{"id":"c6950955-7ea3-4693-b82a-d7e8e2fdb87f","name":"Blaxland","ru":"Blaxland","country":"00a7107a-5716-414c-a258-4f586535e671","countryCode":"AU","state":"9bc63794-994e-4549-80f3-7661323b4307","stateCode":"NSW","latitude":"-33.75000000","longitude":"150.60000000"},{"id":"f4f34efa-7bc1-4a86-b6e2-dae78530ba6a","name":"Blayney","ru":"Blayney","country":"00a7107a-5716-414c-a258-4f586535e671","countryCode":"AU","state":"9bc63794-994e-4549-80f3-7661323b4307","stateCode":"NSW","latitude":"-33.61653000","longitude":"149.13046000"},{"id":"1dd2c9b3-77a2-4961-b073-752bd129c16c","name":"Bligh Park","ru":"Bligh Park","country":"00a7107a-5716-414c-a258-4f586535e671","countryCode":"AU","state":"9bc63794-994e-4549-80f3-7661323b4307","stateCode":"NSW","latitude":"-33.63985000","longitude":"150.80248000"},{"id":"ae124ddb-2242-4faf-a513-99f0f269e325","name":"Blue Bay","ru":"Blue Bay","country":"00a7107a-5716-414c-a258-4f586535e671","countryCode":"AU","state":"9bc63794-994e-4549-80f3-7661323b4307","stateCode":"NSW","latitude":"-33.35413000","longitude":"151.50024000"},{"id":"0f622f90-2e34-451d-af9e-489689b9e73a","name":"Blue Haven","ru":"Blue Haven","country":"00a7107a-5716-414c-a258-4f586535e671","countryCode":"AU","state":"9bc63794-994e-4549-80f3-7661323b4307","stateCode":"NSW","latitude":"-33.21106000","longitude":"151.50351000"},{"id":"45f495eb-7e52-4c6e-aa2f-52295f498f1d","name":"Blue Mountains Municipality","ru":"Blue Mountains Municipality","country":"00a7107a-5716-414c-a258-4f586535e671","countryCode":"AU","state":"9bc63794-994e-4549-80f3-7661323b4307","stateCode":"NSW","latitude":"-33.63203000","longitude":"150.41293000"},{"id":"d3d82a8f-772c-4234-9bde-3c615518bc40","name":"Boambee","ru":"Boambee","country":"00a7107a-5716-414c-a258-4f586535e671","countryCode":"AU","state":"9bc63794-994e-4549-80f3-7661323b4307","stateCode":"NSW","latitude":"-30.33981000","longitude":"153.06783000"},{"id":"243d8f55-b7fd-43ee-a295-96a8b3d4f7b0","name":"Boambee East","ru":"Boambee East","country":"00a7107a-5716-414c-a258-4f586535e671","countryCode":"AU","state":"9bc63794-994e-4549-80f3-7661323b4307","stateCode":"NSW","latitude":"-30.34662000","longitude":"153.07320000"},{"id":"9330804a-b74d-4d4b-a6c3-19becb40aac0","name":"Bogan","ru":"Bogan","country":"00a7107a-5716-414c-a258-4f586535e671","countryCode":"AU","state":"9bc63794-994e-4549-80f3-7661323b4307","stateCode":"NSW","latitude":"-31.57012000","longitude":"146.90617000"},{"id":"4b489217-13a9-458c-b27b-404c3a6611de","name":"Bogangar","ru":"Bogangar","country":"00a7107a-5716-414c-a258-4f586535e671","countryCode":"AU","state":"9bc63794-994e-4549-80f3-7661323b4307","stateCode":"NSW","latitude":"-28.32944000","longitude":"153.56860000"},{"id":"c860e119-9438-4df4-bc62-9ad57d9c71fb","name":"Boggabri","ru":"Boggabri","country":"00a7107a-5716-414c-a258-4f586535e671","countryCode":"AU","state":"9bc63794-994e-4549-80f3-7661323b4307","stateCode":"NSW","latitude":"-30.70953000","longitude":"150.04121000"},{"id":"13e5df80-a9a4-4a31-8354-e029b68dc67f","name":"Bolton Point","ru":"Bolton Point","country":"00a7107a-5716-414c-a258-4f586535e671","countryCode":"AU","state":"9bc63794-994e-4549-80f3-7661323b4307","stateCode":"NSW","latitude":"-33.00177000","longitude":"151.61013000"},{"id":"efb49589-1028-491b-bab7-3d896d4cc0bb","name":"Bolwarra Heights","ru":"Bolwarra Heights","country":"00a7107a-5716-414c-a258-4f586535e671","countryCode":"AU","state":"9bc63794-994e-4549-80f3-7661323b4307","stateCode":"NSW","latitude":"-32.70100000","longitude":"151.58541000"},{"id":"a18304b3-a96c-4b1b-a7da-66edb5dfec28","name":"Bomaderry","ru":"Bomaderry","country":"00a7107a-5716-414c-a258-4f586535e671","countryCode":"AU","state":"9bc63794-994e-4549-80f3-7661323b4307","stateCode":"NSW","latitude":"-34.84967000","longitude":"150.61093000"},{"id":"2eef0ca1-77a9-4ecb-a756-68246c6fdf6a","name":"Bombala","ru":"Bombala","country":"00a7107a-5716-414c-a258-4f586535e671","countryCode":"AU","state":"9bc63794-994e-4549-80f3-7661323b4307","stateCode":"NSW","latitude":"-36.91212000","longitude":"149.23669000"},{"id":"8e16e176-2edd-481c-aef3-c896e979ffa0","name":"Bondi","ru":"Bondi","country":"00a7107a-5716-414c-a258-4f586535e671","countryCode":"AU","state":"9bc63794-994e-4549-80f3-7661323b4307","stateCode":"NSW","latitude":"-33.89429000","longitude":"151.26444000"},{"id":"91001a78-2fd6-4e56-aca6-b5d0fcf99034","name":"Bondi Beach","ru":"Bondi Beach","country":"00a7107a-5716-414c-a258-4f586535e671","countryCode":"AU","state":"9bc63794-994e-4549-80f3-7661323b4307","stateCode":"NSW","latitude":"-33.89079000","longitude":"151.27852000"},{"id":"9f28e7ee-9310-4a6f-b43a-335fa4fa30b9","name":"Bondi Junction","ru":"Bondi Junction","country":"00a7107a-5716-414c-a258-4f586535e671","countryCode":"AU","state":"9bc63794-994e-4549-80f3-7661323b4307","stateCode":"NSW","latitude":"-33.89275000","longitude":"151.24723000"},{"id":"d19d979e-2df3-4565-812f-7c227c277f61","name":"Bonnells Bay","ru":"Bonnells Bay","country":"00a7107a-5716-414c-a258-4f586535e671","countryCode":"AU","state":"9bc63794-994e-4549-80f3-7661323b4307","stateCode":"NSW","latitude":"-33.10973000","longitude":"151.53226000"},{"id":"82444c13-5d4d-4587-99e2-977bc0822197","name":"Bonnet Bay","ru":"Bonnet Bay","country":"00a7107a-5716-414c-a258-4f586535e671","countryCode":"AU","state":"9bc63794-994e-4549-80f3-7661323b4307","stateCode":"NSW","latitude":"-34.01023000","longitude":"151.05253000"},{"id":"135b87f2-6b84-4434-ade9-f3ed1cd394fb","name":"Bonny Hills","ru":"Bonny Hills","country":"00a7107a-5716-414c-a258-4f586535e671","countryCode":"AU","state":"9bc63794-994e-4549-80f3-7661323b4307","stateCode":"NSW","latitude":"-31.59061000","longitude":"152.83908000"},{"id":"3693f9ce-98cf-4d2b-9b12-a7a71ab1f14c","name":"Bonnyrigg","ru":"Bonnyrigg","country":"00a7107a-5716-414c-a258-4f586535e671","countryCode":"AU","state":"9bc63794-994e-4549-80f3-7661323b4307","stateCode":"NSW","latitude":"-33.89357000","longitude":"150.88908000"},{"id":"52e25e8c-5745-4939-8c1c-bed036f9e41e","name":"Bonnyrigg Heights","ru":"Bonnyrigg Heights","country":"00a7107a-5716-414c-a258-4f586535e671","countryCode":"AU","state":"9bc63794-994e-4549-80f3-7661323b4307","stateCode":"NSW","latitude":"-33.89117000","longitude":"150.86994000"},{"id":"265d53f3-22df-4327-b665-df478c347e3c","name":"Bonville","ru":"Bonville","country":"00a7107a-5716-414c-a258-4f586535e671","countryCode":"AU","state":"9bc63794-994e-4549-80f3-7661323b4307","stateCode":"NSW","latitude":"-30.38284000","longitude":"153.05959000"},{"id":"83e09514-4e58-45fe-abc7-40bf6190225e","name":"Booker Bay","ru":"Booker Bay","country":"00a7107a-5716-414c-a258-4f586535e671","countryCode":"AU","state":"9bc63794-994e-4549-80f3-7661323b4307","stateCode":"NSW","latitude":"-33.51250000","longitude":"151.34590000"},{"id":"1eaa8425-0fac-41cf-ae6a-3e2258743335","name":"Booragul","ru":"Booragul","country":"00a7107a-5716-414c-a258-4f586535e671","countryCode":"AU","state":"9bc63794-994e-4549-80f3-7661323b4307","stateCode":"NSW","latitude":"-32.97486000","longitude":"151.60978000"},{"id":"4a377072-23c7-4487-b720-5ea0548b8cbc","name":"Boorowa","ru":"Boorowa","country":"00a7107a-5716-414c-a258-4f586535e671","countryCode":"AU","state":"9bc63794-994e-4549-80f3-7661323b4307","stateCode":"NSW","latitude":"-34.43661000","longitude":"148.71634000"},{"id":"e7c6a2c0-feea-4d09-91c4-c0f568d00b56","name":"Bossley Park","ru":"Bossley Park","country":"00a7107a-5716-414c-a258-4f586535e671","countryCode":"AU","state":"9bc63794-994e-4549-80f3-7661323b4307","stateCode":"NSW","latitude":"-33.86184000","longitude":"150.88410000"},{"id":"948e433e-d501-4b0e-8ea9-cc9db6f2dbc2","name":"Botany","ru":"Botany","country":"00a7107a-5716-414c-a258-4f586535e671","countryCode":"AU","state":"9bc63794-994e-4549-80f3-7661323b4307","stateCode":"NSW","latitude":"-33.94599000","longitude":"151.19591000"},{"id":"7e7e4bbd-0c96-41e6-a64a-ef3e8af3f20c","name":"Botany Bay","ru":"Botany Bay","country":"00a7107a-5716-414c-a258-4f586535e671","countryCode":"AU","state":"9bc63794-994e-4549-80f3-7661323b4307","stateCode":"NSW","latitude":"-33.94660000","longitude":"151.19874000"},{"id":"e61812de-1aa0-448a-8eb8-f45bf5196b35","name":"Bourke","ru":"Bourke","country":"00a7107a-5716-414c-a258-4f586535e671","countryCode":"AU","state":"9bc63794-994e-4549-80f3-7661323b4307","stateCode":"NSW","latitude":"-29.99584000","longitude":"145.36160000"},{"id":"e2ca11aa-a07d-4b00-a4b9-53bd43409db0","name":"Bourkelands","ru":"Bourkelands","country":"00a7107a-5716-414c-a258-4f586535e671","countryCode":"AU","state":"9bc63794-994e-4549-80f3-7661323b4307","stateCode":"NSW","latitude":"-35.15593000","longitude":"147.34704000"},{"id":"432468e7-6e0c-4ee8-9d5e-65669f1e8c39","name":"Bow Bowing","ru":"Bow Bowing","country":"00a7107a-5716-414c-a258-4f586535e671","countryCode":"AU","state":"9bc63794-994e-4549-80f3-7661323b4307","stateCode":"NSW","latitude":"-34.01655000","longitude":"150.84030000"},{"id":"bf7c5ff4-4b3a-4894-b1b9-87f8551cd528","name":"Bowen Mountain","ru":"Bowen Mountain","country":"00a7107a-5716-414c-a258-4f586535e671","countryCode":"AU","state":"9bc63794-994e-4549-80f3-7661323b4307","stateCode":"NSW","latitude":"-33.57192000","longitude":"150.62563000"},{"id":"b8767111-90eb-45ec-b0a5-ddc7779d2b91","name":"Bowenfels","ru":"Bowenfels","country":"00a7107a-5716-414c-a258-4f586535e671","countryCode":"AU","state":"9bc63794-994e-4549-80f3-7661323b4307","stateCode":"NSW","latitude":"-33.48336000","longitude":"150.13444000"},{"id":"2df0447c-6b76-4ccd-a7ac-1614148fdc05","name":"Bowral","ru":"Bowral","country":"00a7107a-5716-414c-a258-4f586535e671","countryCode":"AU","state":"9bc63794-994e-4549-80f3-7661323b4307","stateCode":"NSW","latitude":"-34.47750000","longitude":"150.42040000"},{"id":"589d3168-fe46-407d-bf63-c45f43a5955c","name":"Bowraville","ru":"Bowraville","country":"00a7107a-5716-414c-a258-4f586535e671","countryCode":"AU","state":"9bc63794-994e-4549-80f3-7661323b4307","stateCode":"NSW","latitude":"-30.64997000","longitude":"152.85146000"},{"id":"c7da1736-fc82-4068-a96b-06e0a4d9216c","name":"Bradbury","ru":"Bradbury","country":"00a7107a-5716-414c-a258-4f586535e671","countryCode":"AU","state":"9bc63794-994e-4549-80f3-7661323b4307","stateCode":"NSW","latitude":"-34.08540000","longitude":"150.81541000"},{"id":"ba3d5b64-9a86-467f-bf25-e7af60ceb998","name":"Braidwood","ru":"Braidwood","country":"00a7107a-5716-414c-a258-4f586535e671","countryCode":"AU","state":"9bc63794-994e-4549-80f3-7661323b4307","stateCode":"NSW","latitude":"-35.44148000","longitude":"149.79980000"},{"id":"44bf2c2b-6ed7-4175-ae2e-a043b74d2521","name":"Branxton","ru":"Branxton","country":"00a7107a-5716-414c-a258-4f586535e671","countryCode":"AU","state":"9bc63794-994e-4549-80f3-7661323b4307","stateCode":"NSW","latitude":"-32.65547000","longitude":"151.35113000"},{"id":"dd73f8fd-dbdc-4f6f-860f-5adb70a20230","name":"Breakfast Point","ru":"Breakfast Point","country":"00a7107a-5716-414c-a258-4f586535e671","countryCode":"AU","state":"9bc63794-994e-4549-80f3-7661323b4307","stateCode":"NSW","latitude":"-33.84286000","longitude":"151.11072000"},{"id":"c1acebe0-afbb-45d5-aee8-b586014d15af","name":"Brewarrina","ru":"Brewarrina","country":"00a7107a-5716-414c-a258-4f586535e671","countryCode":"AU","state":"9bc63794-994e-4549-80f3-7661323b4307","stateCode":"NSW","latitude":"-29.95055000","longitude":"147.14760000"},{"id":"e6b5a39a-aa3a-41c7-be12-db301ce483b8","name":"Brighton-Le-Sands","ru":"Brighton-Le-Sands","country":"00a7107a-5716-414c-a258-4f586535e671","countryCode":"AU","state":"9bc63794-994e-4549-80f3-7661323b4307","stateCode":"NSW","latitude":"-33.96009000","longitude":"151.15110000"},{"id":"971b5e72-8a7a-4eca-bf10-425b5af19c4f","name":"Bringelly","ru":"Bringelly","country":"00a7107a-5716-414c-a258-4f586535e671","countryCode":"AU","state":"9bc63794-994e-4549-80f3-7661323b4307","stateCode":"NSW","latitude":"-33.93333000","longitude":"150.73333000"},{"id":"3f5e3875-78ce-47f4-844c-c576f033520e","name":"Broadmeadow","ru":"Broadmeadow","country":"00a7107a-5716-414c-a258-4f586535e671","countryCode":"AU","state":"9bc63794-994e-4549-80f3-7661323b4307","stateCode":"NSW","latitude":"-32.92371000","longitude":"151.72849000"},{"id":"d5c1d121-bc5b-462e-9ae5-c9c0537b2d6d","name":"Broken Hill","ru":"Broken Hill","country":"00a7107a-5716-414c-a258-4f586535e671","countryCode":"AU","state":"9bc63794-994e-4549-80f3-7661323b4307","stateCode":"NSW","latitude":"-31.96520000","longitude":"141.45120000"},{"id":"272905d9-392c-496c-bd0d-a1a240777a3c","name":"Broken Hill Municipality","ru":"Broken Hill Municipality","country":"00a7107a-5716-414c-a258-4f586535e671","countryCode":"AU","state":"9bc63794-994e-4549-80f3-7661323b4307","stateCode":"NSW","latitude":"-31.95000000","longitude":"141.43333000"},{"id":"3c0d0348-e125-4564-a46f-867135831a73","name":"Bronte","ru":"Bronte","country":"00a7107a-5716-414c-a258-4f586535e671","countryCode":"AU","state":"9bc63794-994e-4549-80f3-7661323b4307","stateCode":"NSW","latitude":"-33.90198000","longitude":"151.26556000"},{"id":"61da489e-d6e3-4e79-9a38-2d1e5f0762e3","name":"Brookvale","ru":"Brookvale","country":"00a7107a-5716-414c-a258-4f586535e671","countryCode":"AU","state":"9bc63794-994e-4549-80f3-7661323b4307","stateCode":"NSW","latitude":"-33.76108000","longitude":"151.27446000"},{"id":"49a8a11f-2cf9-473a-9d99-1e1b697e103d","name":"Broulee","ru":"Broulee","country":"00a7107a-5716-414c-a258-4f586535e671","countryCode":"AU","state":"9bc63794-994e-4549-80f3-7661323b4307","stateCode":"NSW","latitude":"-35.85469000","longitude":"150.17392000"},{"id":"d646453d-9302-4155-9117-451400458cf8","name":"Brunswick Heads","ru":"Brunswick Heads","country":"00a7107a-5716-414c-a258-4f586535e671","countryCode":"AU","state":"9bc63794-994e-4549-80f3-7661323b4307","stateCode":"NSW","latitude":"-28.54003000","longitude":"153.54573000"},{"id":"7179b51d-4f6c-43a6-9543-6572015bf215","name":"Budgewoi","ru":"Budgewoi","country":"00a7107a-5716-414c-a258-4f586535e671","countryCode":"AU","state":"9bc63794-994e-4549-80f3-7661323b4307","stateCode":"NSW","latitude":"-33.23390000","longitude":"151.55412000"},{"id":"757c171a-72d2-47bd-bf34-92c57f7a2231","name":"Buff Point","ru":"Buff Point","country":"00a7107a-5716-414c-a258-4f586535e671","countryCode":"AU","state":"9bc63794-994e-4549-80f3-7661323b4307","stateCode":"NSW","latitude":"-33.22285000","longitude":"151.53125000"},{"id":"64ddaf0f-c4b0-496e-ae14-aa9e5a552a77","name":"Bulahdelah","ru":"Bulahdelah","country":"00a7107a-5716-414c-a258-4f586535e671","countryCode":"AU","state":"9bc63794-994e-4549-80f3-7661323b4307","stateCode":"NSW","latitude":"-32.40698000","longitude":"152.21185000"},{"id":"c8acc8c8-f1e7-47de-9ebf-1de9e48465f2","name":"Bullaburra","ru":"Bullaburra","country":"00a7107a-5716-414c-a258-4f586535e671","countryCode":"AU","state":"9bc63794-994e-4549-80f3-7661323b4307","stateCode":"NSW","latitude":"-33.72922000","longitude":"150.41766000"},{"id":"cf3ec625-d26a-4908-b82d-22e4d0986ee5","name":"Bulli","ru":"Bulli","country":"00a7107a-5716-414c-a258-4f586535e671","countryCode":"AU","state":"9bc63794-994e-4549-80f3-7661323b4307","stateCode":"NSW","latitude":"-34.33834000","longitude":"150.91347000"},{"id":"33168eba-895c-4a6f-8819-3f5be6c30782","name":"Bundanoon","ru":"Bundanoon","country":"00a7107a-5716-414c-a258-4f586535e671","countryCode":"AU","state":"9bc63794-994e-4549-80f3-7661323b4307","stateCode":"NSW","latitude":"-34.65658000","longitude":"150.29623000"},{"id":"ffd171cf-9fd0-425f-8664-40b4566b40bc","name":"Bundeena","ru":"Bundeena","country":"00a7107a-5716-414c-a258-4f586535e671","countryCode":"AU","state":"9bc63794-994e-4549-80f3-7661323b4307","stateCode":"NSW","latitude":"-34.08384000","longitude":"151.15016000"},{"id":"e177775f-0fab-4586-b7e5-678d92faf107","name":"Bungarribee","ru":"Bungarribee","country":"00a7107a-5716-414c-a258-4f586535e671","countryCode":"AU","state":"9bc63794-994e-4549-80f3-7661323b4307","stateCode":"NSW","latitude":"-33.77704000","longitude":"150.86799000"},{"id":"e9e72200-5e86-4a77-89d8-bd43d3106b9a","name":"Bungendore","ru":"Bungendore","country":"00a7107a-5716-414c-a258-4f586535e671","countryCode":"AU","state":"9bc63794-994e-4549-80f3-7661323b4307","stateCode":"NSW","latitude":"-35.25382000","longitude":"149.44007000"},{"id":"2b866454-10dc-48ce-877b-ada98fbbbc5d","name":"Buronga","ru":"Buronga","country":"00a7107a-5716-414c-a258-4f586535e671","countryCode":"AU","state":"9bc63794-994e-4549-80f3-7661323b4307","stateCode":"NSW","latitude":"-34.17070000","longitude":"142.17350000"},{"id":"44215a11-cbe6-4fba-b5ee-7b0e483af215","name":"Burradoo","ru":"Burradoo","country":"00a7107a-5716-414c-a258-4f586535e671","countryCode":"AU","state":"9bc63794-994e-4549-80f3-7661323b4307","stateCode":"NSW","latitude":"-34.50320000","longitude":"150.40900000"},{"id":"b13d658a-b4ee-41c0-8322-1197bf69f184","name":"Burraneer","ru":"Burraneer","country":"00a7107a-5716-414c-a258-4f586535e671","countryCode":"AU","state":"9bc63794-994e-4549-80f3-7661323b4307","stateCode":"NSW","latitude":"-34.05625000","longitude":"151.13810000"},{"id":"4971d0ef-fc37-4368-ac36-bfa8c7003498","name":"Burrill Lake","ru":"Burrill Lake","country":"00a7107a-5716-414c-a258-4f586535e671","countryCode":"AU","state":"9bc63794-994e-4549-80f3-7661323b4307","stateCode":"NSW","latitude":"-35.38716000","longitude":"150.44952000"},{"id":"bd9466b2-3e0c-4e8d-bb57-9d9d112142b0","name":"Burwood","ru":"Burwood","country":"00a7107a-5716-414c-a258-4f586535e671","countryCode":"AU","state":"9bc63794-994e-4549-80f3-7661323b4307","stateCode":"NSW","latitude":"-33.88536000","longitude":"151.10481000"},{"id":"4f8ff02c-ace0-45a0-903d-f8c902b9453a","name":"Busby","ru":"Busby","country":"00a7107a-5716-414c-a258-4f586535e671","countryCode":"AU","state":"9bc63794-994e-4549-80f3-7661323b4307","stateCode":"NSW","latitude":"-33.91124000","longitude":"150.88068000"},{"id":"d027d27f-bb6c-4945-80cd-51dda6a7428e","name":"Buttaba","ru":"Buttaba","country":"00a7107a-5716-414c-a258-4f586535e671","countryCode":"AU","state":"9bc63794-994e-4549-80f3-7661323b4307","stateCode":"NSW","latitude":"-33.05327000","longitude":"151.57866000"},{"id":"5065aaef-9394-4e79-806e-ff9b323e1e2d","name":"Buxton","ru":"Buxton","country":"00a7107a-5716-414c-a258-4f586535e671","countryCode":"AU","state":"9bc63794-994e-4549-80f3-7661323b4307","stateCode":"NSW","latitude":"-34.26017000","longitude":"150.53288000"},{"id":"cf740100-bb8c-4bab-bec0-da0bb6310f2a","name":"Byron Bay","ru":"Byron Bay","country":"00a7107a-5716-414c-a258-4f586535e671","countryCode":"AU","state":"9bc63794-994e-4549-80f3-7661323b4307","stateCode":"NSW","latitude":"-28.64989000","longitude":"153.61246000"},{"id":"ef2dd92b-bcb4-47bb-954c-0b231a9cb881","name":"Byron Shire","ru":"Byron Shire","country":"00a7107a-5716-414c-a258-4f586535e671","countryCode":"AU","state":"9bc63794-994e-4549-80f3-7661323b4307","stateCode":"NSW","latitude":"-28.61667000","longitude":"153.51667000"},{"id":"02528b8d-05a8-4754-ae39-e010455143c8","name":"Bywong","ru":"Bywong","country":"00a7107a-5716-414c-a258-4f586535e671","countryCode":"AU","state":"9bc63794-994e-4549-80f3-7661323b4307","stateCode":"NSW","latitude":"-35.16476000","longitude":"149.32892000"},{"id":"a5a23fd1-d223-4bb8-b825-003f793970ed","name":"Cabarita","ru":"Cabarita","country":"00a7107a-5716-414c-a258-4f586535e671","countryCode":"AU","state":"9bc63794-994e-4549-80f3-7661323b4307","stateCode":"NSW","latitude":"-33.84721000","longitude":"151.11638000"},{"id":"66e05007-30c4-42e1-aabc-42ac5079462f","name":"Cabonne","ru":"Cabonne","country":"00a7107a-5716-414c-a258-4f586535e671","countryCode":"AU","state":"9bc63794-994e-4549-80f3-7661323b4307","stateCode":"NSW","latitude":"-33.11076000","longitude":"148.82694000"},{"id":"b13b98c6-7d51-4bd0-bbf9-08c824677188","name":"Cabramatta","ru":"Cabramatta","country":"00a7107a-5716-414c-a258-4f586535e671","countryCode":"AU","state":"9bc63794-994e-4549-80f3-7661323b4307","stateCode":"NSW","latitude":"-33.89743000","longitude":"150.93446000"},{"id":"ea4715a4-4034-426d-8332-0a50e52d3ed0","name":"Cabramatta West","ru":"Cabramatta West","country":"00a7107a-5716-414c-a258-4f586535e671","countryCode":"AU","state":"9bc63794-994e-4549-80f3-7661323b4307","stateCode":"NSW","latitude":"-33.89303000","longitude":"150.91190000"},{"id":"aa015413-10b2-4573-9b94-558e40fd9f7f","name":"Caddens","ru":"Caddens","country":"00a7107a-5716-414c-a258-4f586535e671","countryCode":"AU","state":"9bc63794-994e-4549-80f3-7661323b4307","stateCode":"NSW","latitude":"-33.77415000","longitude":"150.74126000"},{"id":"b1cc43af-88d4-4d72-8f6e-c8b557c4d50e","name":"Calala","ru":"Calala","country":"00a7107a-5716-414c-a258-4f586535e671","countryCode":"AU","state":"9bc63794-994e-4549-80f3-7661323b4307","stateCode":"NSW","latitude":"-31.17356000","longitude":"150.98059000"},{"id":"ecc125cd-8cc2-4c2e-ab7c-151f3734f191","name":"Callaghan","ru":"Callaghan","country":"00a7107a-5716-414c-a258-4f586535e671","countryCode":"AU","state":"9bc63794-994e-4549-80f3-7661323b4307","stateCode":"NSW","latitude":"-32.89205000","longitude":"151.70531000"},{"id":"9cd9057c-3046-4a68-999b-7633b3974daa","name":"Callala Bay","ru":"Callala Bay","country":"00a7107a-5716-414c-a258-4f586535e671","countryCode":"AU","state":"9bc63794-994e-4549-80f3-7661323b4307","stateCode":"NSW","latitude":"-34.99668000","longitude":"150.72281000"},{"id":"4a2d797a-c41a-4fd8-b601-4dbc5278de92","name":"Cambewarra Village","ru":"Cambewarra Village","country":"00a7107a-5716-414c-a258-4f586535e671","countryCode":"AU","state":"9bc63794-994e-4549-80f3-7661323b4307","stateCode":"NSW","latitude":"-34.82335000","longitude":"150.55940000"},{"id":"7739295e-4ce6-4f68-b6fd-7992d4e5ff0b","name":"Cambridge Gardens","ru":"Cambridge Gardens","country":"00a7107a-5716-414c-a258-4f586535e671","countryCode":"AU","state":"9bc63794-994e-4549-80f3-7661323b4307","stateCode":"NSW","latitude":"-33.73801000","longitude":"150.72075000"},{"id":"20cf758f-d37a-4459-a141-0726551b4ec6","name":"Cambridge Park","ru":"Cambridge Park","country":"00a7107a-5716-414c-a258-4f586535e671","countryCode":"AU","state":"9bc63794-994e-4549-80f3-7661323b4307","stateCode":"NSW","latitude":"-33.74784000","longitude":"150.72208000"},{"id":"66d8db33-6ae3-4c4f-9ef7-3e663717c74a","name":"Camden","ru":"Camden","country":"00a7107a-5716-414c-a258-4f586535e671","countryCode":"AU","state":"9bc63794-994e-4549-80f3-7661323b4307","stateCode":"NSW","latitude":"-34.01610000","longitude":"150.72521000"},{"id":"c1615b5d-743b-4386-9f17-b5bac6675000","name":"Camden Haven","ru":"Camden Haven","country":"00a7107a-5716-414c-a258-4f586535e671","countryCode":"AU","state":"9bc63794-994e-4549-80f3-7661323b4307","stateCode":"NSW","latitude":"-31.64484000","longitude":"152.79462000"},{"id":"83be2994-d5d2-4082-bae3-d3cb9ec136af","name":"Camden South","ru":"Camden South","country":"00a7107a-5716-414c-a258-4f586535e671","countryCode":"AU","state":"9bc63794-994e-4549-80f3-7661323b4307","stateCode":"NSW","latitude":"-34.08312000","longitude":"150.69491000"},{"id":"f8593e73-7569-4418-9d29-2413594ba87d","name":"Cameron Park","ru":"Cameron Park","country":"00a7107a-5716-414c-a258-4f586535e671","countryCode":"AU","state":"9bc63794-994e-4549-80f3-7661323b4307","stateCode":"NSW","latitude":"-32.90701000","longitude":"151.60528000"},{"id":"d457901f-ae2e-449e-bbf1-4afe192bdec3","name":"Cammeray","ru":"Cammeray","country":"00a7107a-5716-414c-a258-4f586535e671","countryCode":"AU","state":"9bc63794-994e-4549-80f3-7661323b4307","stateCode":"NSW","latitude":"-33.82132000","longitude":"151.21609000"},{"id":"f7549f9f-3ba8-43bd-9a94-c3a015893088","name":"Campbelltown","ru":"Campbelltown","country":"00a7107a-5716-414c-a258-4f586535e671","countryCode":"AU","state":"9bc63794-994e-4549-80f3-7661323b4307","stateCode":"NSW","latitude":"-34.06667000","longitude":"150.81667000"},{"id":"70c12db8-b29b-4a5b-b36f-f19e66ab8ced","name":"Campbelltown Municipality","ru":"Campbelltown Municipality","country":"00a7107a-5716-414c-a258-4f586535e671","countryCode":"AU","state":"9bc63794-994e-4549-80f3-7661323b4307","stateCode":"NSW","latitude":"-34.08333000","longitude":"150.83333000"},{"id":"80aff6e7-9555-4362-8ec8-6f0306873ae2","name":"Camperdown","ru":"Camperdown","country":"00a7107a-5716-414c-a258-4f586535e671","countryCode":"AU","state":"9bc63794-994e-4549-80f3-7661323b4307","stateCode":"NSW","latitude":"-33.88965000","longitude":"151.17642000"},{"id":"de0edbf5-12c1-4a87-b071-dac691ebfa31","name":"Campsie","ru":"Campsie","country":"00a7107a-5716-414c-a258-4f586535e671","countryCode":"AU","state":"9bc63794-994e-4549-80f3-7661323b4307","stateCode":"NSW","latitude":"-33.91250000","longitude":"151.10279000"},{"id":"f39f1747-6ff2-4c70-ad1a-284392ab573d","name":"Canada Bay","ru":"Canada Bay","country":"00a7107a-5716-414c-a258-4f586535e671","countryCode":"AU","state":"9bc63794-994e-4549-80f3-7661323b4307","stateCode":"NSW","latitude":"-33.86590000","longitude":"151.11591000"},{"id":"fee22d82-74a8-4332-ab88-41eb92bb6787","name":"Canley Heights","ru":"Canley Heights","country":"00a7107a-5716-414c-a258-4f586535e671","countryCode":"AU","state":"9bc63794-994e-4549-80f3-7661323b4307","stateCode":"NSW","latitude":"-33.88262000","longitude":"150.92408000"},{"id":"5572b1ce-4fd2-49f7-a65b-24d9832c452e","name":"Canley Vale","ru":"Canley Vale","country":"00a7107a-5716-414c-a258-4f586535e671","countryCode":"AU","state":"9bc63794-994e-4549-80f3-7661323b4307","stateCode":"NSW","latitude":"-33.88657000","longitude":"150.94802000"},{"id":"8aaec0d8-b2f8-4680-8275-cf6b26fdd949","name":"Canowindra","ru":"Canowindra","country":"00a7107a-5716-414c-a258-4f586535e671","countryCode":"AU","state":"9bc63794-994e-4549-80f3-7661323b4307","stateCode":"NSW","latitude":"-33.56247000","longitude":"148.66434000"},{"id":"76c67d23-1f08-4d25-9f20-88f223ef1991","name":"Canterbury","ru":"Canterbury","country":"00a7107a-5716-414c-a258-4f586535e671","countryCode":"AU","state":"9bc63794-994e-4549-80f3-7661323b4307","stateCode":"NSW","latitude":"-33.91192000","longitude":"151.11862000"},{"id":"d41a86a8-3c06-433e-bc64-0a2c66d15b12","name":"Canton Beach","ru":"Canton Beach","country":"00a7107a-5716-414c-a258-4f586535e671","countryCode":"AU","state":"9bc63794-994e-4549-80f3-7661323b4307","stateCode":"NSW","latitude":"-33.27443000","longitude":"151.54614000"},{"id":"d9b6b986-a192-411f-aa26-091c2e1479c4","name":"Cardiff","ru":"Cardiff","country":"00a7107a-5716-414c-a258-4f586535e671","countryCode":"AU","state":"9bc63794-994e-4549-80f3-7661323b4307","stateCode":"NSW","latitude":"-32.94201000","longitude":"151.65440000"},{"id":"bc86eec4-3ea7-48f3-85bd-612fffdf3086","name":"Cardiff Heights","ru":"Cardiff Heights","country":"00a7107a-5716-414c-a258-4f586535e671","countryCode":"AU","state":"9bc63794-994e-4549-80f3-7661323b4307","stateCode":"NSW","latitude":"-32.93626000","longitude":"151.67227000"},{"id":"c67ad125-5325-4b83-af27-6397e568b24e","name":"Cardiff South","ru":"Cardiff South","country":"00a7107a-5716-414c-a258-4f586535e671","countryCode":"AU","state":"9bc63794-994e-4549-80f3-7661323b4307","stateCode":"NSW","latitude":"-32.95470000","longitude":"151.66446000"},{"id":"d20a510f-f777-4dad-b931-90bf92dc4bd4","name":"Caringbah","ru":"Caringbah","country":"00a7107a-5716-414c-a258-4f586535e671","countryCode":"AU","state":"9bc63794-994e-4549-80f3-7661323b4307","stateCode":"NSW","latitude":"-34.03534000","longitude":"151.12468000"},{"id":"a266bb79-c311-4cd0-82e2-2bec03c1e130","name":"Caringbah South","ru":"Caringbah South","country":"00a7107a-5716-414c-a258-4f586535e671","countryCode":"AU","state":"9bc63794-994e-4549-80f3-7661323b4307","stateCode":"NSW","latitude":"-34.05662000","longitude":"151.12149000"},{"id":"5ded7ff6-5e2e-4d66-ada6-d2a7546c5ada","name":"Carlingford","ru":"Carlingford","country":"00a7107a-5716-414c-a258-4f586535e671","countryCode":"AU","state":"9bc63794-994e-4549-80f3-7661323b4307","stateCode":"NSW","latitude":"-33.78269000","longitude":"151.04888000"},{"id":"1764333c-b3ca-4256-8929-31cfdd80e808","name":"Carlton","ru":"Carlton","country":"00a7107a-5716-414c-a258-4f586535e671","countryCode":"AU","state":"9bc63794-994e-4549-80f3-7661323b4307","stateCode":"NSW","latitude":"-33.97107000","longitude":"151.12136000"},{"id":"4a11b022-eb02-42f2-8154-80904c78f1fc","name":"Carnes Hill","ru":"Carnes Hill","country":"00a7107a-5716-414c-a258-4f586535e671","countryCode":"AU","state":"9bc63794-994e-4549-80f3-7661323b4307","stateCode":"NSW","latitude":"-33.93846000","longitude":"150.84881000"},{"id":"99c9b482-71c3-4baf-85c9-d8c5c32e08a1","name":"Carramar","ru":"Carramar","country":"00a7107a-5716-414c-a258-4f586535e671","countryCode":"AU","state":"9bc63794-994e-4549-80f3-7661323b4307","stateCode":"NSW","latitude":"-33.88382000","longitude":"150.96153000"},{"id":"991e13af-597b-4b49-8df8-57046b6c17b8","name":"Carrathool","ru":"Carrathool","country":"00a7107a-5716-414c-a258-4f586535e671","countryCode":"AU","state":"9bc63794-994e-4549-80f3-7661323b4307","stateCode":"NSW","latitude":"-33.62571000","longitude":"145.42523000"},{"id":"01a7bb3b-70d0-4b42-882b-baee2c32981f","name":"Carrington","ru":"Carrington","country":"00a7107a-5716-414c-a258-4f586535e671","countryCode":"AU","state":"9bc63794-994e-4549-80f3-7661323b4307","stateCode":"NSW","latitude":"-32.91501000","longitude":"151.76436000"},{"id":"f542ac73-5ba6-4fbe-8800-affb8b0ca2b6","name":"Carss Park","ru":"Carss Park","country":"00a7107a-5716-414c-a258-4f586535e671","countryCode":"AU","state":"9bc63794-994e-4549-80f3-7661323b4307","stateCode":"NSW","latitude":"-33.98667000","longitude":"151.11734000"},{"id":"f765dea5-2eb3-40ad-86eb-97542f6d2a2d","name":"Cartwright","ru":"Cartwright","country":"00a7107a-5716-414c-a258-4f586535e671","countryCode":"AU","state":"9bc63794-994e-4549-80f3-7661323b4307","stateCode":"NSW","latitude":"-33.92498000","longitude":"150.88951000"},{"id":"345800ef-8512-426b-9afa-23dfbab19fc6","name":"Carwoola","ru":"Carwoola","country":"00a7107a-5716-414c-a258-4f586535e671","countryCode":"AU","state":"9bc63794-994e-4549-80f3-7661323b4307","stateCode":"NSW","latitude":"-35.37836000","longitude":"149.32150000"},{"id":"b7e39ebc-26fd-40f3-b30b-c3ddaf6a4afa","name":"Casino","ru":"Casino","country":"00a7107a-5716-414c-a258-4f586535e671","countryCode":"AU","state":"9bc63794-994e-4549-80f3-7661323b4307","stateCode":"NSW","latitude":"-28.85819000","longitude":"153.04748000"},{"id":"e356c1c7-285f-483b-89d3-e22e833b963c","name":"Castle Cove","ru":"Castle Cove","country":"00a7107a-5716-414c-a258-4f586535e671","countryCode":"AU","state":"9bc63794-994e-4549-80f3-7661323b4307","stateCode":"NSW","latitude":"-33.78655000","longitude":"151.20925000"},{"id":"fe49a943-448b-46b2-9e59-3e349207da3c","name":"Castle Hill","ru":"Castle Hill","country":"00a7107a-5716-414c-a258-4f586535e671","countryCode":"AU","state":"9bc63794-994e-4549-80f3-7661323b4307","stateCode":"NSW","latitude":"-33.73333000","longitude":"151.00000000"},{"id":"14663960-a0d9-4a2b-b55e-2f3deb064a0e","name":"Castlecrag","ru":"Castlecrag","country":"00a7107a-5716-414c-a258-4f586535e671","countryCode":"AU","state":"9bc63794-994e-4549-80f3-7661323b4307","stateCode":"NSW","latitude":"-33.79987000","longitude":"151.22310000"},{"id":"635ce27b-e69a-40a2-b4be-e482bea4a72a","name":"Castlereagh","ru":"Castlereagh","country":"00a7107a-5716-414c-a258-4f586535e671","countryCode":"AU","state":"9bc63794-994e-4549-80f3-7661323b4307","stateCode":"NSW","latitude":"-33.68981000","longitude":"150.67887000"},{"id":"6338fb2a-1d4e-44fd-96b5-f61157458a9f","name":"Casuarina","ru":"Casuarina","country":"00a7107a-5716-414c-a258-4f586535e671","countryCode":"AU","state":"9bc63794-994e-4549-80f3-7661323b4307","stateCode":"NSW","latitude":"-28.30042000","longitude":"153.57064000"},{"id":"970c7176-d676-488c-b65e-de9ab8ec917e","name":"Casula","ru":"Casula","country":"00a7107a-5716-414c-a258-4f586535e671","countryCode":"AU","state":"9bc63794-994e-4549-80f3-7661323b4307","stateCode":"NSW","latitude":"-33.95222000","longitude":"150.89949000"},{"id":"7b29a402-67a2-4dcc-9867-649348b8a7df","name":"Catalina","ru":"Catalina","country":"00a7107a-5716-414c-a258-4f586535e671","countryCode":"AU","state":"9bc63794-994e-4549-80f3-7661323b4307","stateCode":"NSW","latitude":"-35.73000000","longitude":"150.18494000"},{"id":"7eab70f0-d870-4418-9142-ae70b993d6af","name":"Catherine Field","ru":"Catherine Field","country":"00a7107a-5716-414c-a258-4f586535e671","countryCode":"AU","state":"9bc63794-994e-4549-80f3-7661323b4307","stateCode":"NSW","latitude":"-34.00439000","longitude":"150.77253000"},{"id":"5897b26a-12b2-435d-a3eb-a42cd3bda1e4","name":"Caves Beach","ru":"Caves Beach","country":"00a7107a-5716-414c-a258-4f586535e671","countryCode":"AU","state":"9bc63794-994e-4549-80f3-7661323b4307","stateCode":"NSW","latitude":"-33.10637000","longitude":"151.64402000"},{"id":"392238b4-5b53-4bd0-8460-192e46d4b2bb","name":"Cecil Hills","ru":"Cecil Hills","country":"00a7107a-5716-414c-a258-4f586535e671","countryCode":"AU","state":"9bc63794-994e-4549-80f3-7661323b4307","stateCode":"NSW","latitude":"-33.88917000","longitude":"150.85137000"},{"id":"ca59bfd5-8cef-44fc-b50e-bf650d11dccc","name":"Centennial Park","ru":"Centennial Park","country":"00a7107a-5716-414c-a258-4f586535e671","countryCode":"AU","state":"9bc63794-994e-4549-80f3-7661323b4307","stateCode":"NSW","latitude":"-33.89794000","longitude":"151.23364000"},{"id":"515449b3-e139-4a02-97d8-4c79debadab8","name":"Central Darling","ru":"Central Darling","country":"00a7107a-5716-414c-a258-4f586535e671","countryCode":"AU","state":"9bc63794-994e-4549-80f3-7661323b4307","stateCode":"NSW","latitude":"-31.77155000","longitude":"143.62569000"},{"id":"c6bd2a5b-32bd-49a6-ac1a-e2af73b84adc","name":"Cessnock","ru":"Cessnock","country":"00a7107a-5716-414c-a258-4f586535e671","countryCode":"AU","state":"9bc63794-994e-4549-80f3-7661323b4307","stateCode":"NSW","latitude":"-32.89391000","longitude":"151.21234000"},{"id":"b8f9c28e-a1ac-4626-ac3b-81073f1568dc","name":"Chain Valley Bay","ru":"Chain Valley Bay","country":"00a7107a-5716-414c-a258-4f586535e671","countryCode":"AU","state":"9bc63794-994e-4549-80f3-7661323b4307","stateCode":"NSW","latitude":"-33.17241000","longitude":"151.57143000"},{"id":"ab847018-cf27-4113-bdc7-5e57275d4ac0","name":"Charlestown","ru":"Charlestown","country":"00a7107a-5716-414c-a258-4f586535e671","countryCode":"AU","state":"9bc63794-994e-4549-80f3-7661323b4307","stateCode":"NSW","latitude":"-32.96828000","longitude":"151.69318000"},{"id":"873dda94-7bca-445c-bb87-43d07cc75a2a","name":"Charmhaven","ru":"Charmhaven","country":"00a7107a-5716-414c-a258-4f586535e671","countryCode":"AU","state":"9bc63794-994e-4549-80f3-7661323b4307","stateCode":"NSW","latitude":"-33.22671000","longitude":"151.50284000"},{"id":"125d25cf-16c8-41b9-ac1b-ab212e38fa01","name":"Chatswood","ru":"Chatswood","country":"00a7107a-5716-414c-a258-4f586535e671","countryCode":"AU","state":"9bc63794-994e-4549-80f3-7661323b4307","stateCode":"NSW","latitude":"-33.80000000","longitude":"151.18333000"},{"id":"108a7298-eac5-4046-a998-1d6c7aabe447","name":"Chatswood West","ru":"Chatswood West","country":"00a7107a-5716-414c-a258-4f586535e671","countryCode":"AU","state":"9bc63794-994e-4549-80f3-7661323b4307","stateCode":"NSW","latitude":"-33.79402000","longitude":"151.16492000"},{"id":"d54cd80b-9880-4fbd-934a-b195a8bcbad2","name":"Cherrybrook","ru":"Cherrybrook","country":"00a7107a-5716-414c-a258-4f586535e671","countryCode":"AU","state":"9bc63794-994e-4549-80f3-7661323b4307","stateCode":"NSW","latitude":"-33.72197000","longitude":"151.04607000"},{"id":"5892c174-918d-47e8-8ada-7f069f97ecd2","name":"Chester Hill","ru":"Chester Hill","country":"00a7107a-5716-414c-a258-4f586535e671","countryCode":"AU","state":"9bc63794-994e-4549-80f3-7661323b4307","stateCode":"NSW","latitude":"-33.87896000","longitude":"150.99945000"},{"id":"fa0c283a-3544-4e34-bf98-298956e41a58","name":"Chifley","ru":"Chifley","country":"00a7107a-5716-414c-a258-4f586535e671","countryCode":"AU","state":"9bc63794-994e-4549-80f3-7661323b4307","stateCode":"NSW","latitude":"-33.96696000","longitude":"151.24221000"},{"id":"2d9b0d61-c3da-42c4-bef1-0294da395704","name":"Chinderah","ru":"Chinderah","country":"00a7107a-5716-414c-a258-4f586535e671","countryCode":"AU","state":"9bc63794-994e-4549-80f3-7661323b4307","stateCode":"NSW","latitude":"-28.25456000","longitude":"153.53712000"},{"id":"f9e9e476-078c-441b-9e86-9b47123bcaaf","name":"Chippendale","ru":"Chippendale","country":"00a7107a-5716-414c-a258-4f586535e671","countryCode":"AU","state":"9bc63794-994e-4549-80f3-7661323b4307","stateCode":"NSW","latitude":"-33.88673000","longitude":"151.19745000"},{"id":"a70711e0-6d4d-4e53-bcb0-92fc4ec7dc6b","name":"Chipping Norton","ru":"Chipping Norton","country":"00a7107a-5716-414c-a258-4f586535e671","countryCode":"AU","state":"9bc63794-994e-4549-80f3-7661323b4307","stateCode":"NSW","latitude":"-33.91801000","longitude":"150.95927000"},{"id":"4c981508-c86b-4a9e-97cd-c0a06dbee58d","name":"Chiswick","ru":"Chiswick","country":"00a7107a-5716-414c-a258-4f586535e671","countryCode":"AU","state":"9bc63794-994e-4549-80f3-7661323b4307","stateCode":"NSW","latitude":"-33.84996000","longitude":"151.13846000"},{"id":"a737f0dd-63cc-4887-9fdc-6b15f8b5c4d7","name":"Chittaway Bay","ru":"Chittaway Bay","country":"00a7107a-5716-414c-a258-4f586535e671","countryCode":"AU","state":"9bc63794-994e-4549-80f3-7661323b4307","stateCode":"NSW","latitude":"-33.32769000","longitude":"151.42971000"},{"id":"d7c4e5a1-0a20-4e4b-9da8-3f19a5b2525c","name":"City of Sydney","ru":"City of Sydney","country":"00a7107a-5716-414c-a258-4f586535e671","countryCode":"AU","state":"9bc63794-994e-4549-80f3-7661323b4307","stateCode":"NSW","latitude":"-33.86778000","longitude":"151.20844000"},{"id":"fa131284-9b09-4c26-b618-1803931a5090","name":"Claremont Meadows","ru":"Claremont Meadows","country":"00a7107a-5716-414c-a258-4f586535e671","countryCode":"AU","state":"9bc63794-994e-4549-80f3-7661323b4307","stateCode":"NSW","latitude":"-33.77587000","longitude":"150.75193000"},{"id":"f56797f4-1acd-48fb-952a-22edae914335","name":"Clarence Town","ru":"Clarence Town","country":"00a7107a-5716-414c-a258-4f586535e671","countryCode":"AU","state":"9bc63794-994e-4549-80f3-7661323b4307","stateCode":"NSW","latitude":"-32.58395000","longitude":"151.77757000"},{"id":"44a1ba34-b955-455b-9a35-86abe174f57d","name":"Clarence Valley","ru":"Clarence Valley","country":"00a7107a-5716-414c-a258-4f586535e671","countryCode":"AU","state":"9bc63794-994e-4549-80f3-7661323b4307","stateCode":"NSW","latitude":"-29.69444000","longitude":"152.78156000"},{"id":"67394a75-8ca1-4356-a72c-2f29a596e2cc","name":"Claymore","ru":"Claymore","country":"00a7107a-5716-414c-a258-4f586535e671","countryCode":"AU","state":"9bc63794-994e-4549-80f3-7661323b4307","stateCode":"NSW","latitude":"-34.04649000","longitude":"150.81114000"},{"id":"025761c2-8fc5-44d6-a3e9-ebd121ec76ac","name":"Clemton Park","ru":"Clemton Park","country":"00a7107a-5716-414c-a258-4f586535e671","countryCode":"AU","state":"9bc63794-994e-4549-80f3-7661323b4307","stateCode":"NSW","latitude":"-33.92616000","longitude":"151.10406000"},{"id":"b122effd-f93d-4206-99be-3b65562f4014","name":"Clontarf","ru":"Clontarf","country":"00a7107a-5716-414c-a258-4f586535e671","countryCode":"AU","state":"9bc63794-994e-4549-80f3-7661323b4307","stateCode":"NSW","latitude":"-33.80554000","longitude":"151.25367000"},{"id":"b22e5a7b-3083-4907-831a-c35114a3a5eb","name":"Clovelly","ru":"Clovelly","country":"00a7107a-5716-414c-a258-4f586535e671","countryCode":"AU","state":"9bc63794-994e-4549-80f3-7661323b4307","stateCode":"NSW","latitude":"-33.91214000","longitude":"151.25882000"},{"id":"d1d1c4c6-128a-4dc1-a7ad-5b0198d0747e","name":"Coal Point","ru":"Coal Point","country":"00a7107a-5716-414c-a258-4f586535e671","countryCode":"AU","state":"9bc63794-994e-4549-80f3-7661323b4307","stateCode":"NSW","latitude":"-33.04225000","longitude":"151.61159000"},{"id":"8e3ea338-864f-4d0a-8282-45ee748cabc4","name":"Cobar","ru":"Cobar","country":"00a7107a-5716-414c-a258-4f586535e671","countryCode":"AU","state":"9bc63794-994e-4549-80f3-7661323b4307","stateCode":"NSW","latitude":"-31.96613000","longitude":"145.36063000"},{"id":"627878c0-c55d-4a8f-8714-80e8a8d1b09c","name":"Cobbitty","ru":"Cobbitty","country":"00a7107a-5716-414c-a258-4f586535e671","countryCode":"AU","state":"9bc63794-994e-4549-80f3-7661323b4307","stateCode":"NSW","latitude":"-34.01592000","longitude":"150.67854000"},{"id":"943ec332-c489-49d7-b52f-f9ceb3769948","name":"Coffs Harbour","ru":"Coffs Harbour","country":"00a7107a-5716-414c-a258-4f586535e671","countryCode":"AU","state":"9bc63794-994e-4549-80f3-7661323b4307","stateCode":"NSW","latitude":"-30.17294000","longitude":"153.03262000"},