[{"id":"4f1e7def-a87a-41fc-b4d4-0c1515273d80","name":"Bankim","ru":"Bankim","country":"7810a4c4-3889-4d87-abdc-c6125259b72c","countryCode":"CM","state":"1f3a4a15-26c4-463f-8396-d05db3881c3a","stateCode":"AD","latitude":"6.08303000","longitude":"11.49050000"},{"id":"4a16c599-3c91-42d5-a439-7c8512accb3d","name":"Banyo","ru":"Banyo","country":"7810a4c4-3889-4d87-abdc-c6125259b72c","countryCode":"CM","state":"1f3a4a15-26c4-463f-8396-d05db3881c3a","stateCode":"AD","latitude":"6.75000000","longitude":"11.81667000"},{"id":"04064d4d-e626-4b64-8773-1474e7562e29","name":"Bélel","ru":"Bélel","country":"7810a4c4-3889-4d87-abdc-c6125259b72c","countryCode":"CM","state":"1f3a4a15-26c4-463f-8396-d05db3881c3a","stateCode":"AD","latitude":"7.05000000","longitude":"14.43333000"},{"id":"79977fe2-318c-4680-b5ba-5235062a4727","name":"Djohong","ru":"Djohong","country":"7810a4c4-3889-4d87-abdc-c6125259b72c","countryCode":"CM","state":"1f3a4a15-26c4-463f-8396-d05db3881c3a","stateCode":"AD","latitude":"6.83333000","longitude":"14.70000000"},{"id":"bc8cbf23-ab9d-4b6b-9dd1-e83063afdeaa","name":"Kontcha","ru":"Kontcha","country":"7810a4c4-3889-4d87-abdc-c6125259b72c","countryCode":"CM","state":"1f3a4a15-26c4-463f-8396-d05db3881c3a","stateCode":"AD","latitude":"7.96667000","longitude":"12.23333000"},{"id":"db3fd301-67e3-49ed-a8be-dd4a76c6805a","name":"Mayo-Banyo","ru":"Mayo-Banyo","country":"7810a4c4-3889-4d87-abdc-c6125259b72c","countryCode":"CM","state":"1f3a4a15-26c4-463f-8396-d05db3881c3a","stateCode":"AD","latitude":"6.58138000","longitude":"11.73522000"},{"id":"34dcc4d5-1aea-412d-b2c2-0c6c93d4f33e","name":"Meïganga","ru":"Meïganga","country":"7810a4c4-3889-4d87-abdc-c6125259b72c","countryCode":"CM","state":"1f3a4a15-26c4-463f-8396-d05db3881c3a","stateCode":"AD","latitude":"6.51667000","longitude":"14.30000000"},{"id":"f426a8d7-b6b7-4d00-88d4-ce36918691f8","name":"Ngaoundéré","ru":"Ngaoundéré","country":"7810a4c4-3889-4d87-abdc-c6125259b72c","countryCode":"CM","state":"1f3a4a15-26c4-463f-8396-d05db3881c3a","stateCode":"AD","latitude":"7.32765000","longitude":"13.58472000"},{"id":"878db737-5c05-4645-824d-e50040a0ff3f","name":"Somié","ru":"Somié","country":"7810a4c4-3889-4d87-abdc-c6125259b72c","countryCode":"CM","state":"1f3a4a15-26c4-463f-8396-d05db3881c3a","stateCode":"AD","latitude":"6.45843000","longitude":"11.43299000"},{"id":"925f752a-e376-4c47-b02a-36cd57daf560","name":"Tibati","ru":"Tibati","country":"7810a4c4-3889-4d87-abdc-c6125259b72c","countryCode":"CM","state":"1f3a4a15-26c4-463f-8396-d05db3881c3a","stateCode":"AD","latitude":"6.46504000","longitude":"12.62843000"},{"id":"cc4cc1c3-52af-45e0-97b6-ead681bf1f2d","name":"Tignère","ru":"Tignère","country":"7810a4c4-3889-4d87-abdc-c6125259b72c","countryCode":"CM","state":"1f3a4a15-26c4-463f-8396-d05db3881c3a","stateCode":"AD","latitude":"7.36667000","longitude":"12.65000000"},{"id":"d1d03805-b491-4600-8766-661fb8eb5ea2","name":"Vina","ru":"Vina","country":"7810a4c4-3889-4d87-abdc-c6125259b72c","countryCode":"CM","state":"1f3a4a15-26c4-463f-8396-d05db3881c3a","stateCode":"AD","latitude":"7.16365000","longitude":"13.72711000"},{"id":"fd1c0123-5147-4485-a9ca-8e9008ddb773","name":"Akono","ru":"Akono","country":"7810a4c4-3889-4d87-abdc-c6125259b72c","countryCode":"CM","state":"d6ab6ec2-79a5-45b2-92eb-4d9f9ac646b7","stateCode":"CE","latitude":"3.50000000","longitude":"11.33333000"},{"id":"30265db6-a45f-4459-9166-b01971e5960a","name":"Akonolinga","ru":"Akonolinga","country":"7810a4c4-3889-4d87-abdc-c6125259b72c","countryCode":"CM","state":"d6ab6ec2-79a5-45b2-92eb-4d9f9ac646b7","stateCode":"CE","latitude":"3.76667000","longitude":"12.25000000"},{"id":"0d65df6e-9d34-4042-8ccb-d00c89ff9d3e","name":"Évodoula","ru":"Évodoula","country":"7810a4c4-3889-4d87-abdc-c6125259b72c","countryCode":"CM","state":"d6ab6ec2-79a5-45b2-92eb-4d9f9ac646b7","stateCode":"CE","latitude":"4.08333000","longitude":"11.20000000"},{"id":"106979d7-caaf-4dd3-b7bb-d8c2c5b5c5a9","name":"Bafia","ru":"Bafia","country":"7810a4c4-3889-4d87-abdc-c6125259b72c","countryCode":"CM","state":"d6ab6ec2-79a5-45b2-92eb-4d9f9ac646b7","stateCode":"CE","latitude":"4.75000000","longitude":"11.23333000"},{"id":"620432a9-3e3b-428c-922f-b7db9b009c79","name":"Eséka","ru":"Eséka","country":"7810a4c4-3889-4d87-abdc-c6125259b72c","countryCode":"CM","state":"d6ab6ec2-79a5-45b2-92eb-4d9f9ac646b7","stateCode":"CE","latitude":"3.65000000","longitude":"10.76667000"},{"id":"a4bda502-35b5-4c7b-8636-35ce15dac9a6","name":"Essé","ru":"Essé","country":"7810a4c4-3889-4d87-abdc-c6125259b72c","countryCode":"CM","state":"d6ab6ec2-79a5-45b2-92eb-4d9f9ac646b7","stateCode":"CE","latitude":"4.10000000","longitude":"11.90000000"},{"id":"c09688aa-fb09-4f6b-a484-fea5750a3886","name":"Mbalmayo","ru":"Mbalmayo","country":"7810a4c4-3889-4d87-abdc-c6125259b72c","countryCode":"CM","state":"d6ab6ec2-79a5-45b2-92eb-4d9f9ac646b7","stateCode":"CE","latitude":"3.51667000","longitude":"11.50000000"},{"id":"c5438d84-e277-44bf-8e1c-fdfb478bbbbd","name":"Mbam-Et-Inoubou","ru":"Mbam-Et-Inoubou","country":"7810a4c4-3889-4d87-abdc-c6125259b72c","countryCode":"CM","state":"d6ab6ec2-79a5-45b2-92eb-4d9f9ac646b7","stateCode":"CE","latitude":"4.73754000","longitude":"10.96972000"},{"id":"ed97ea4f-6004-4b5f-a0bd-9fdf503f46ae","name":"Mbandjok","ru":"Mbandjok","country":"7810a4c4-3889-4d87-abdc-c6125259b72c","countryCode":"CM","state":"d6ab6ec2-79a5-45b2-92eb-4d9f9ac646b7","stateCode":"CE","latitude":"4.45000000","longitude":"11.90000000"},{"id":"b7a1552f-8fa4-4fd7-a94c-69e959403df7","name":"Mbankomo","ru":"Mbankomo","country":"7810a4c4-3889-4d87-abdc-c6125259b72c","countryCode":"CM","state":"d6ab6ec2-79a5-45b2-92eb-4d9f9ac646b7","stateCode":"CE","latitude":"3.78333000","longitude":"11.38333000"},{"id":"41aecd60-0316-4435-897c-334a1dc52cff","name":"Mefou-et-Akono","ru":"Mefou-et-Akono","country":"7810a4c4-3889-4d87-abdc-c6125259b72c","countryCode":"CM","state":"d6ab6ec2-79a5-45b2-92eb-4d9f9ac646b7","stateCode":"CE","latitude":"3.58706000","longitude":"11.36089000"},{"id":"6a83aea9-cf91-4be1-96c9-1113d1e7236a","name":"Mfoundi","ru":"Mfoundi","country":"7810a4c4-3889-4d87-abdc-c6125259b72c","countryCode":"CM","state":"d6ab6ec2-79a5-45b2-92eb-4d9f9ac646b7","stateCode":"CE","latitude":"3.86670000","longitude":"11.51670000"},{"id":"3ca1bbd9-c716-46ed-bbde-fb28329b19c8","name":"Minta","ru":"Minta","country":"7810a4c4-3889-4d87-abdc-c6125259b72c","countryCode":"CM","state":"d6ab6ec2-79a5-45b2-92eb-4d9f9ac646b7","stateCode":"CE","latitude":"4.58333000","longitude":"12.80000000"},{"id":"f9c3ce57-361a-408a-aafd-9f15a02ef20f","name":"Nanga Eboko","ru":"Nanga Eboko","country":"7810a4c4-3889-4d87-abdc-c6125259b72c","countryCode":"CM","state":"d6ab6ec2-79a5-45b2-92eb-4d9f9ac646b7","stateCode":"CE","latitude":"4.68333000","longitude":"12.36667000"},{"id":"b11b0aba-1e7c-4f27-9a1c-73071058ba82","name":"Ndikiniméki","ru":"Ndikiniméki","country":"7810a4c4-3889-4d87-abdc-c6125259b72c","countryCode":"CM","state":"d6ab6ec2-79a5-45b2-92eb-4d9f9ac646b7","stateCode":"CE","latitude":"4.76667000","longitude":"10.83333000"},{"id":"5b3336bd-59f5-470f-93c4-5b5180d7b72f","name":"Ngomedzap","ru":"Ngomedzap","country":"7810a4c4-3889-4d87-abdc-c6125259b72c","countryCode":"CM","state":"d6ab6ec2-79a5-45b2-92eb-4d9f9ac646b7","stateCode":"CE","latitude":"3.25000000","longitude":"11.20000000"},{"id":"bf615174-451f-4b8b-b28b-b0f211fe7efb","name":"Ngoro","ru":"Ngoro","country":"7810a4c4-3889-4d87-abdc-c6125259b72c","countryCode":"CM","state":"d6ab6ec2-79a5-45b2-92eb-4d9f9ac646b7","stateCode":"CE","latitude":"4.95000000","longitude":"11.38333000"},{"id":"fbf83517-4658-485e-9005-ca2315e60fdd","name":"Nkoteng","ru":"Nkoteng","country":"7810a4c4-3889-4d87-abdc-c6125259b72c","countryCode":"CM","state":"d6ab6ec2-79a5-45b2-92eb-4d9f9ac646b7","stateCode":"CE","latitude":"4.51667000","longitude":"12.03333000"},{"id":"3b7f1dcc-f30a-4d56-add7-3c38f7e5a4f4","name":"Ntui","ru":"Ntui","country":"7810a4c4-3889-4d87-abdc-c6125259b72c","countryCode":"CM","state":"d6ab6ec2-79a5-45b2-92eb-4d9f9ac646b7","stateCode":"CE","latitude":"4.45000000","longitude":"11.63333000"},{"id":"fe6b6e3a-996c-4963-ad11-6282bc66096f","name":"Obala","ru":"Obala","country":"7810a4c4-3889-4d87-abdc-c6125259b72c","countryCode":"CM","state":"d6ab6ec2-79a5-45b2-92eb-4d9f9ac646b7","stateCode":"CE","latitude":"4.16667000","longitude":"11.53333000"},{"id":"e6dd595d-8ce3-493c-846f-2c16f9b515df","name":"Okoa","ru":"Okoa","country":"7810a4c4-3889-4d87-abdc-c6125259b72c","countryCode":"CM","state":"d6ab6ec2-79a5-45b2-92eb-4d9f9ac646b7","stateCode":"CE","latitude":"3.98333000","longitude":"11.60000000"},{"id":"e185cd67-3d2f-4122-845b-e7f4fcc01fa5","name":"Okola","ru":"Okola","country":"7810a4c4-3889-4d87-abdc-c6125259b72c","countryCode":"CM","state":"d6ab6ec2-79a5-45b2-92eb-4d9f9ac646b7","stateCode":"CE","latitude":"4.01667000","longitude":"11.38333000"},{"id":"2ab11d85-5a35-4b17-86cd-28fea49482e9","name":"Ombésa","ru":"Ombésa","country":"7810a4c4-3889-4d87-abdc-c6125259b72c","countryCode":"CM","state":"d6ab6ec2-79a5-45b2-92eb-4d9f9ac646b7","stateCode":"CE","latitude":"4.60000000","longitude":"11.25000000"},{"id":"d5756bc3-85d0-431e-b563-a53e93c3742a","name":"Saa","ru":"Saa","country":"7810a4c4-3889-4d87-abdc-c6125259b72c","countryCode":"CM","state":"d6ab6ec2-79a5-45b2-92eb-4d9f9ac646b7","stateCode":"CE","latitude":"4.36667000","longitude":"11.45000000"},{"id":"e5e23bff-3d97-45ff-ab07-f28c86b44979","name":"Yaoundé","ru":"Yaoundé","country":"7810a4c4-3889-4d87-abdc-c6125259b72c","countryCode":"CM","state":"d6ab6ec2-79a5-45b2-92eb-4d9f9ac646b7","stateCode":"CE","latitude":"3.86667000","longitude":"11.51667000"},{"id":"cab41f7b-fbd8-4439-ba83-dc3defc49c45","name":"Yoko","ru":"Yoko","country":"7810a4c4-3889-4d87-abdc-c6125259b72c","countryCode":"CM","state":"d6ab6ec2-79a5-45b2-92eb-4d9f9ac646b7","stateCode":"CE","latitude":"5.53333000","longitude":"12.31667000"},{"id":"7701e3c6-4ce7-45a5-9a8e-d6d0f8de3d6a","name":"Abong Mbang","ru":"Abong Mbang","country":"7810a4c4-3889-4d87-abdc-c6125259b72c","countryCode":"CM","state":"cd2492c5-c310-4ebb-83f6-5ce0a0cb9d50","stateCode":"ES","latitude":"3.98333000","longitude":"13.18333000"},{"id":"ecf17088-1fbe-4b58-b3da-20e25ffdcdf4","name":"Batouri","ru":"Batouri","country":"7810a4c4-3889-4d87-abdc-c6125259b72c","countryCode":"CM","state":"cd2492c5-c310-4ebb-83f6-5ce0a0cb9d50","stateCode":"ES","latitude":"4.43333000","longitude":"14.36667000"},{"id":"8269b2ee-fc41-4231-9273-34f7db9b43ce","name":"Bélabo","ru":"Bélabo","country":"7810a4c4-3889-4d87-abdc-c6125259b72c","countryCode":"CM","state":"cd2492c5-c310-4ebb-83f6-5ce0a0cb9d50","stateCode":"ES","latitude":"4.93333000","longitude":"13.30000000"},{"id":"68e950a3-f2ae-41a8-a6a5-43fd07107943","name":"Bétaré Oya","ru":"Bétaré Oya","country":"7810a4c4-3889-4d87-abdc-c6125259b72c","countryCode":"CM","state":"cd2492c5-c310-4ebb-83f6-5ce0a0cb9d50","stateCode":"ES","latitude":"5.60000000","longitude":"14.08333000"},{"id":"3c64039e-061a-435d-ab44-822f38062b24","name":"Bertoua","ru":"Bertoua","country":"7810a4c4-3889-4d87-abdc-c6125259b72c","countryCode":"CM","state":"cd2492c5-c310-4ebb-83f6-5ce0a0cb9d50","stateCode":"ES","latitude":"4.57728000","longitude":"13.68459000"},{"id":"3d8578f9-9472-46de-8709-4d52881298cf","name":"Dimako","ru":"Dimako","country":"7810a4c4-3889-4d87-abdc-c6125259b72c","countryCode":"CM","state":"cd2492c5-c310-4ebb-83f6-5ce0a0cb9d50","stateCode":"ES","latitude":"4.38333000","longitude":"13.56667000"},{"id":"f53316d4-056a-439a-94e6-6703dc4f5d2a","name":"Doumé","ru":"Doumé","country":"7810a4c4-3889-4d87-abdc-c6125259b72c","countryCode":"CM","state":"cd2492c5-c310-4ebb-83f6-5ce0a0cb9d50","stateCode":"ES","latitude":"4.23333000","longitude":"13.45000000"},{"id":"b9568443-2c72-408b-86c0-228233593d18","name":"Garoua Boulaï","ru":"Garoua Boulaï","country":"7810a4c4-3889-4d87-abdc-c6125259b72c","countryCode":"CM","state":"cd2492c5-c310-4ebb-83f6-5ce0a0cb9d50","stateCode":"ES","latitude":"5.88333000","longitude":"14.55000000"},{"id":"a5288e41-3daf-4516-8389-f17c631b6daa","name":"Mbang","ru":"Mbang","country":"7810a4c4-3889-4d87-abdc-c6125259b72c","countryCode":"CM","state":"cd2492c5-c310-4ebb-83f6-5ce0a0cb9d50","stateCode":"ES","latitude":"4.58333000","longitude":"13.33333000"},{"id":"14e73f37-04bd-4dcd-951a-6138a9edc014","name":"Ndelele","ru":"Ndelele","country":"7810a4c4-3889-4d87-abdc-c6125259b72c","countryCode":"CM","state":"cd2492c5-c310-4ebb-83f6-5ce0a0cb9d50","stateCode":"ES","latitude":"4.04065000","longitude":"14.92501000"},{"id":"1d859ae7-ff14-4184-8e54-78f476ed3faa","name":"Yokadouma","ru":"Yokadouma","country":"7810a4c4-3889-4d87-abdc-c6125259b72c","countryCode":"CM","state":"cd2492c5-c310-4ebb-83f6-5ce0a0cb9d50","stateCode":"ES","latitude":"3.51667000","longitude":"15.05000000"},{"id":"3bc07f54-eb4b-4d5b-ac79-98b5a1145ee4","name":"Bogo","ru":"Bogo","country":"7810a4c4-3889-4d87-abdc-c6125259b72c","countryCode":"CM","state":"1e14e9fd-8d5a-4dc7-b82e-8ce782ec4d35","stateCode":"EN","latitude":"10.73360000","longitude":"14.60928000"},{"id":"25a6999e-416f-4f1e-81c7-25c1e293579e","name":"Kaélé","ru":"Kaélé","country":"7810a4c4-3889-4d87-abdc-c6125259b72c","countryCode":"CM","state":"1e14e9fd-8d5a-4dc7-b82e-8ce782ec4d35","stateCode":"EN","latitude":"10.10917000","longitude":"14.45083000"},{"id":"cd1d03a3-2315-4efe-84f4-7f17fad99160","name":"Kousséri","ru":"Kousséri","country":"7810a4c4-3889-4d87-abdc-c6125259b72c","countryCode":"CM","state":"1e14e9fd-8d5a-4dc7-b82e-8ce782ec4d35","stateCode":"EN","latitude":"12.07689000","longitude":"15.03063000"},{"id":"cf66abea-39ee-475b-aeaf-eb8d0e6adbb8","name":"Koza","ru":"Koza","country":"7810a4c4-3889-4d87-abdc-c6125259b72c","countryCode":"CM","state":"1e14e9fd-8d5a-4dc7-b82e-8ce782ec4d35","stateCode":"EN","latitude":"10.86846000","longitude":"13.88205000"},{"id":"873138eb-897d-4bc8-8eee-b07552dd5cca","name":"Makary","ru":"Makary","country":"7810a4c4-3889-4d87-abdc-c6125259b72c","countryCode":"CM","state":"1e14e9fd-8d5a-4dc7-b82e-8ce782ec4d35","stateCode":"EN","latitude":"12.57535000","longitude":"14.45483000"},{"id":"177c6b11-8b41-469b-9bf3-2e7ad505e2b0","name":"Maroua","ru":"Maroua","country":"7810a4c4-3889-4d87-abdc-c6125259b72c","countryCode":"CM","state":"1e14e9fd-8d5a-4dc7-b82e-8ce782ec4d35","stateCode":"EN","latitude":"10.59095000","longitude":"14.31593000"},{"id":"f00be464-5dbf-424a-833d-c02ec6ab2ae2","name":"Mayo-Sava","ru":"Mayo-Sava","country":"7810a4c4-3889-4d87-abdc-c6125259b72c","countryCode":"CM","state":"1e14e9fd-8d5a-4dc7-b82e-8ce782ec4d35","stateCode":"EN","latitude":"11.10682000","longitude":"14.20560000"},{"id":"a4f0dc0e-f9df-4a75-9ab9-3eb08f836621","name":"Mayo-Tsanaga","ru":"Mayo-Tsanaga","country":"7810a4c4-3889-4d87-abdc-c6125259b72c","countryCode":"CM","state":"1e14e9fd-8d5a-4dc7-b82e-8ce782ec4d35","stateCode":"EN","latitude":"10.58221000","longitude":"13.79351000"},{"id":"78e4cfd6-d693-4766-bcfc-4e428bcd8b87","name":"Mindif","ru":"Mindif","country":"7810a4c4-3889-4d87-abdc-c6125259b72c","countryCode":"CM","state":"1e14e9fd-8d5a-4dc7-b82e-8ce782ec4d35","stateCode":"EN","latitude":"10.39757000","longitude":"14.43626000"},{"id":"642ca789-34fc-48e5-92df-ecb1249b8596","name":"Mokolo","ru":"Mokolo","country":"7810a4c4-3889-4d87-abdc-c6125259b72c","countryCode":"CM","state":"1e14e9fd-8d5a-4dc7-b82e-8ce782ec4d35","stateCode":"EN","latitude":"10.74244000","longitude":"13.80227000"},{"id":"e246436b-97c2-4629-b31e-218a1ddd98ca","name":"Mora","ru":"Mora","country":"7810a4c4-3889-4d87-abdc-c6125259b72c","countryCode":"CM","state":"1e14e9fd-8d5a-4dc7-b82e-8ce782ec4d35","stateCode":"EN","latitude":"11.04611000","longitude":"14.14011000"},{"id":"e49b11a2-ac4a-4def-9c57-220e711124cd","name":"Yagoua","ru":"Yagoua","country":"7810a4c4-3889-4d87-abdc-c6125259b72c","countryCode":"CM","state":"1e14e9fd-8d5a-4dc7-b82e-8ce782ec4d35","stateCode":"EN","latitude":"10.34107000","longitude":"15.23288000"},{"id":"bcc181eb-0448-47af-9e43-1b024cb0e5ab","name":"Bonabéri","ru":"Bonabéri","country":"7810a4c4-3889-4d87-abdc-c6125259b72c","countryCode":"CM","state":"05db6327-d386-4209-a91b-352c0d439dfe","stateCode":"LT","latitude":"4.07142000","longitude":"9.68177000"},{"id":"de9feff1-816f-4247-b648-6602141efcdf","name":"Diang","ru":"Diang","country":"7810a4c4-3889-4d87-abdc-c6125259b72c","countryCode":"CM","state":"05db6327-d386-4209-a91b-352c0d439dfe","stateCode":"LT","latitude":"4.25000000","longitude":"10.01667000"},{"id":"6f8cfc70-c619-4426-9642-d1d04979b4ee","name":"Dibombari","ru":"Dibombari","country":"7810a4c4-3889-4d87-abdc-c6125259b72c","countryCode":"CM","state":"05db6327-d386-4209-a91b-352c0d439dfe","stateCode":"LT","latitude":"4.17870000","longitude":"9.65610000"},{"id":"1c732c29-1c14-4837-91ea-b8794a6b5c8b","name":"Dizangué","ru":"Dizangué","country":"7810a4c4-3889-4d87-abdc-c6125259b72c","countryCode":"CM","state":"05db6327-d386-4209-a91b-352c0d439dfe","stateCode":"LT","latitude":"3.76667000","longitude":"9.98333000"},{"id":"f338aec0-04c8-4fe1-8206-9d2b3146b0c7","name":"Douala","ru":"Douala","country":"7810a4c4-3889-4d87-abdc-c6125259b72c","countryCode":"CM","state":"05db6327-d386-4209-a91b-352c0d439dfe","stateCode":"LT","latitude":"4.04827000","longitude":"9.70428000"},{"id":"be993761-1233-4a23-bdc5-3d45881cfae8","name":"Edéa","ru":"Edéa","country":"7810a4c4-3889-4d87-abdc-c6125259b72c","countryCode":"CM","state":"05db6327-d386-4209-a91b-352c0d439dfe","stateCode":"LT","latitude":"3.80000000","longitude":"10.13333000"},{"id":"d5db620d-3cec-4371-a485-da5574dd41b7","name":"Loum","ru":"Loum","country":"7810a4c4-3889-4d87-abdc-c6125259b72c","countryCode":"CM","state":"05db6327-d386-4209-a91b-352c0d439dfe","stateCode":"LT","latitude":"4.71820000","longitude":"9.73510000"},{"id":"bd5267b4-6df7-4877-97c1-acf3a7fc5089","name":"Manjo","ru":"Manjo","country":"7810a4c4-3889-4d87-abdc-c6125259b72c","countryCode":"CM","state":"05db6327-d386-4209-a91b-352c0d439dfe","stateCode":"LT","latitude":"4.84280000","longitude":"9.82170000"},{"id":"81c361d0-b7ba-4fa8-8dab-cd53831ab433","name":"Mbanga","ru":"Mbanga","country":"7810a4c4-3889-4d87-abdc-c6125259b72c","countryCode":"CM","state":"05db6327-d386-4209-a91b-352c0d439dfe","stateCode":"LT","latitude":"4.50160000","longitude":"9.56710000"},{"id":"d27c7c1e-670b-4ddc-bff1-aab41199b2cd","name":"Melong","ru":"Melong","country":"7810a4c4-3889-4d87-abdc-c6125259b72c","countryCode":"CM","state":"05db6327-d386-4209-a91b-352c0d439dfe","stateCode":"LT","latitude":"5.12181000","longitude":"9.96143000"},{"id":"f7408587-4c8e-4309-93bc-312a2c95801c","name":"Mouanko","ru":"Mouanko","country":"7810a4c4-3889-4d87-abdc-c6125259b72c","countryCode":"CM","state":"05db6327-d386-4209-a91b-352c0d439dfe","stateCode":"LT","latitude":"3.63972000","longitude":"9.77694000"},{"id":"dc6fd530-6236-4ac9-b3e6-26cd0436d2cf","name":"Ndom","ru":"Ndom","country":"7810a4c4-3889-4d87-abdc-c6125259b72c","countryCode":"CM","state":"05db6327-d386-4209-a91b-352c0d439dfe","stateCode":"LT","latitude":"4.49780000","longitude":"9.56280000"},{"id":"454a1080-59ef-4c78-af7b-775621ac390f","name":"Ngambé","ru":"Ngambé","country":"7810a4c4-3889-4d87-abdc-c6125259b72c","countryCode":"CM","state":"05db6327-d386-4209-a91b-352c0d439dfe","stateCode":"LT","latitude":"4.23343000","longitude":"10.61532000"},{"id":"e1d2dab2-e367-43b9-b739-1196af01426c","name":"Nkongsamba","ru":"Nkongsamba","country":"7810a4c4-3889-4d87-abdc-c6125259b72c","countryCode":"CM","state":"05db6327-d386-4209-a91b-352c0d439dfe","stateCode":"LT","latitude":"4.95470000","longitude":"9.94040000"},{"id":"ae01edd8-18bf-469b-8ad9-5b3782c17178","name":"Penja","ru":"Penja","country":"7810a4c4-3889-4d87-abdc-c6125259b72c","countryCode":"CM","state":"05db6327-d386-4209-a91b-352c0d439dfe","stateCode":"LT","latitude":"4.63911000","longitude":"9.67987000"},{"id":"329942cd-4141-4f4c-87b9-f6cb4b16e106","name":"Yabassi","ru":"Yabassi","country":"7810a4c4-3889-4d87-abdc-c6125259b72c","countryCode":"CM","state":"05db6327-d386-4209-a91b-352c0d439dfe","stateCode":"LT","latitude":"4.45697000","longitude":"9.96822000"},{"id":"17288f7e-9f54-4fc2-aecc-b8c915508ee5","name":"Faro Department","ru":"Faro Department","country":"7810a4c4-3889-4d87-abdc-c6125259b72c","countryCode":"CM","state":"f4017ec9-d497-4824-bfcd-c1f381c9f3e1","stateCode":"NO","latitude":"8.25014000","longitude":"12.87829000"},{"id":"6ffd3426-2bb7-4725-b640-87aea5e4e58e","name":"Garoua","ru":"Garoua","country":"7810a4c4-3889-4d87-abdc-c6125259b72c","countryCode":"CM","state":"f4017ec9-d497-4824-bfcd-c1f381c9f3e1","stateCode":"NO","latitude":"9.30143000","longitude":"13.39771000"},{"id":"9b767856-a9cb-4283-b7fc-602d7e311d95","name":"Guider","ru":"Guider","country":"7810a4c4-3889-4d87-abdc-c6125259b72c","countryCode":"CM","state":"f4017ec9-d497-4824-bfcd-c1f381c9f3e1","stateCode":"NO","latitude":"9.93330000","longitude":"13.94671000"},{"id":"ebc5a98f-37b1-4477-ad94-39ad76960ac1","name":"Lagdo","ru":"Lagdo","country":"7810a4c4-3889-4d87-abdc-c6125259b72c","countryCode":"CM","state":"f4017ec9-d497-4824-bfcd-c1f381c9f3e1","stateCode":"NO","latitude":"9.05828000","longitude":"13.66605000"},{"id":"d663cec8-3b37-4f6c-a6cd-f9cbac72786a","name":"Mayo-Louti","ru":"Mayo-Louti","country":"7810a4c4-3889-4d87-abdc-c6125259b72c","countryCode":"CM","state":"f4017ec9-d497-4824-bfcd-c1f381c9f3e1","stateCode":"NO","latitude":"9.96577000","longitude":"13.72738000"},{"id":"8557fdfe-bdc1-4262-906d-9e3b037034b5","name":"Mayo-Rey","ru":"Mayo-Rey","country":"7810a4c4-3889-4d87-abdc-c6125259b72c","countryCode":"CM","state":"f4017ec9-d497-4824-bfcd-c1f381c9f3e1","stateCode":"NO","latitude":"8.12630000","longitude":"14.61456000"},{"id":"93ac8773-32fe-4885-aab6-360289c824c7","name":"Pitoa","ru":"Pitoa","country":"7810a4c4-3889-4d87-abdc-c6125259b72c","countryCode":"CM","state":"f4017ec9-d497-4824-bfcd-c1f381c9f3e1","stateCode":"NO","latitude":"9.38390000","longitude":"13.50231000"},{"id":"9a30120b-9c2f-4b85-a6cd-ac980e7406c9","name":"Poli","ru":"Poli","country":"7810a4c4-3889-4d87-abdc-c6125259b72c","countryCode":"CM","state":"f4017ec9-d497-4824-bfcd-c1f381c9f3e1","stateCode":"NO","latitude":"8.47560000","longitude":"13.24097000"},{"id":"20c48a79-7643-42b3-99c7-7086537ca73d","name":"Rey Bouba","ru":"Rey Bouba","country":"7810a4c4-3889-4d87-abdc-c6125259b72c","countryCode":"CM","state":"f4017ec9-d497-4824-bfcd-c1f381c9f3e1","stateCode":"NO","latitude":"8.67240000","longitude":"14.17860000"},{"id":"53ca30e3-6efe-4339-add8-19208d6b527e","name":"Tcholliré","ru":"Tcholliré","country":"7810a4c4-3889-4d87-abdc-c6125259b72c","countryCode":"CM","state":"f4017ec9-d497-4824-bfcd-c1f381c9f3e1","stateCode":"NO","latitude":"8.40220000","longitude":"14.16980000"},{"id":"bd491194-78aa-4752-a483-c67be384052c","name":"Babanki","ru":"Babanki","country":"7810a4c4-3889-4d87-abdc-c6125259b72c","countryCode":"CM","state":"edbc82a8-bf59-45ce-b043-188eef6e9262","stateCode":"NW","latitude":"6.11667000","longitude":"10.25000000"},{"id":"e7cb14cb-e8cd-4cd5-a7da-0f9bbbeea69c","name":"Bali","ru":"Bali","country":"7810a4c4-3889-4d87-abdc-c6125259b72c","countryCode":"CM","state":"edbc82a8-bf59-45ce-b043-188eef6e9262","stateCode":"NW","latitude":"5.88737000","longitude":"10.01176000"},{"id":"576172e6-d454-463e-9b03-99938fcaefc4","name":"Bamenda","ru":"Bamenda","country":"7810a4c4-3889-4d87-abdc-c6125259b72c","countryCode":"CM","state":"edbc82a8-bf59-45ce-b043-188eef6e9262","stateCode":"NW","latitude":"5.95970000","longitude":"10.14597000"},{"id":"cfa9c999-6fa9-4b09-ace5-3b3be2cfaacd","name":"Batibo","ru":"Batibo","country":"7810a4c4-3889-4d87-abdc-c6125259b72c","countryCode":"CM","state":"edbc82a8-bf59-45ce-b043-188eef6e9262","stateCode":"NW","latitude":"5.83580000","longitude":"9.85530000"},{"id":"2a4f62c0-2c87-4ab1-9d48-2dca9ea64ff5","name":"Belo","ru":"Belo","country":"7810a4c4-3889-4d87-abdc-c6125259b72c","countryCode":"CM","state":"edbc82a8-bf59-45ce-b043-188eef6e9262","stateCode":"NW","latitude":"6.13333000","longitude":"10.25000000"},{"id":"5ee08d55-7cab-4b99-a5ae-6d6dfb5fc3bb","name":"Boyo","ru":"Boyo","country":"7810a4c4-3889-4d87-abdc-c6125259b72c","countryCode":"CM","state":"edbc82a8-bf59-45ce-b043-188eef6e9262","stateCode":"NW","latitude":"6.36365000","longitude":"10.35540000"},{"id":"0357e422-9a44-48f4-ae2a-cd69d33dce8a","name":"Fundong","ru":"Fundong","country":"7810a4c4-3889-4d87-abdc-c6125259b72c","countryCode":"CM","state":"edbc82a8-bf59-45ce-b043-188eef6e9262","stateCode":"NW","latitude":"6.25000000","longitude":"10.26667000"},{"id":"c6e5d946-b4cc-4f31-a3b4-4a5dfa85c498","name":"Jakiri","ru":"Jakiri","country":"7810a4c4-3889-4d87-abdc-c6125259b72c","countryCode":"CM","state":"edbc82a8-bf59-45ce-b043-188eef6e9262","stateCode":"NW","latitude":"6.10000000","longitude":"10.65000000"},{"id":"0dd379cd-f5c2-42d4-b60c-d6668c5d47d5","name":"Kumbo","ru":"Kumbo","country":"7810a4c4-3889-4d87-abdc-c6125259b72c","countryCode":"CM","state":"edbc82a8-bf59-45ce-b043-188eef6e9262","stateCode":"NW","latitude":"6.20000000","longitude":"10.66667000"},{"id":"da9dbd7c-a405-4c65-92c0-e474bb9d02bb","name":"Mbengwi","ru":"Mbengwi","country":"7810a4c4-3889-4d87-abdc-c6125259b72c","countryCode":"CM","state":"edbc82a8-bf59-45ce-b043-188eef6e9262","stateCode":"NW","latitude":"6.01667000","longitude":"10.00000000"},{"id":"daa6dd0a-8101-4a7d-baac-7c1bccd09652","name":"Mme-Bafumen","ru":"Mme-Bafumen","country":"7810a4c4-3889-4d87-abdc-c6125259b72c","countryCode":"CM","state":"edbc82a8-bf59-45ce-b043-188eef6e9262","stateCode":"NW","latitude":"6.33333000","longitude":"10.23333000"},{"id":"fba52cd4-f1fc-482a-bbd9-bf03dd9df6cd","name":"Njinikom","ru":"Njinikom","country":"7810a4c4-3889-4d87-abdc-c6125259b72c","countryCode":"CM","state":"edbc82a8-bf59-45ce-b043-188eef6e9262","stateCode":"NW","latitude":"6.23333000","longitude":"10.28333000"},{"id":"d32233f7-f4d3-4e27-abf2-48a55cdb6aa6","name":"Wum","ru":"Wum","country":"7810a4c4-3889-4d87-abdc-c6125259b72c","countryCode":"CM","state":"edbc82a8-bf59-45ce-b043-188eef6e9262","stateCode":"NW","latitude":"6.38333000","longitude":"10.06667000"},{"id":"3889f2a7-ae7a-42ce-815d-53fac394db40","name":"Akom II","ru":"Akom II","country":"7810a4c4-3889-4d87-abdc-c6125259b72c","countryCode":"CM","state":"3ae6a266-71b5-41bb-87f4-3cf0f8454f1a","stateCode":"SU","latitude":"2.78333000","longitude":"10.56667000"},{"id":"7d36252e-fc0b-4dbc-b3df-24fc27a09a3b","name":"Ambam","ru":"Ambam","country":"7810a4c4-3889-4d87-abdc-c6125259b72c","countryCode":"CM","state":"3ae6a266-71b5-41bb-87f4-3cf0f8454f1a","stateCode":"SU","latitude":"2.38333000","longitude":"11.28333000"},{"id":"3fc93a50-717e-440f-9a61-e36b2b55bfd1","name":"Ébolowa","ru":"Ébolowa","country":"7810a4c4-3889-4d87-abdc-c6125259b72c","countryCode":"CM","state":"3ae6a266-71b5-41bb-87f4-3cf0f8454f1a","stateCode":"SU","latitude":"2.90000000","longitude":"11.15000000"},{"id":"a0b00fd3-6a37-440d-98ee-87b12315226b","name":"Kribi","ru":"Kribi","country":"7810a4c4-3889-4d87-abdc-c6125259b72c","countryCode":"CM","state":"3ae6a266-71b5-41bb-87f4-3cf0f8454f1a","stateCode":"SU","latitude":"2.93725000","longitude":"9.90765000"},{"id":"0bfed5eb-ede0-4c72-8952-85b51ddb386b","name":"Lolodorf","ru":"Lolodorf","country":"7810a4c4-3889-4d87-abdc-c6125259b72c","countryCode":"CM","state":"3ae6a266-71b5-41bb-87f4-3cf0f8454f1a","stateCode":"SU","latitude":"3.23333000","longitude":"10.73333000"},{"id":"b943aef2-8149-4625-9190-d1581dd5f196","name":"Mvangué","ru":"Mvangué","country":"7810a4c4-3889-4d87-abdc-c6125259b72c","countryCode":"CM","state":"3ae6a266-71b5-41bb-87f4-3cf0f8454f1a","stateCode":"SU","latitude":"2.96667000","longitude":"11.51667000"},{"id":"29a05b26-0646-49a1-bf92-8aed83554c8d","name":"Mvila","ru":"Mvila","country":"7810a4c4-3889-4d87-abdc-c6125259b72c","countryCode":"CM","state":"3ae6a266-71b5-41bb-87f4-3cf0f8454f1a","stateCode":"SU","latitude":"2.79796000","longitude":"11.39434000"},{"id":"18563963-372b-4620-b50b-29fd1c8a1af1","name":"Sangmélima","ru":"Sangmélima","country":"7810a4c4-3889-4d87-abdc-c6125259b72c","countryCode":"CM","state":"3ae6a266-71b5-41bb-87f4-3cf0f8454f1a","stateCode":"SU","latitude":"2.93333000","longitude":"11.98333000"},{"id":"417c00c1-8c08-4436-8875-9a0a4b8d990b","name":"Bamusso","ru":"Bamusso","country":"7810a4c4-3889-4d87-abdc-c6125259b72c","countryCode":"CM","state":"5066b046-fb4d-4864-829a-b69e91c797b0","stateCode":"SW","latitude":"4.45910000","longitude":"8.90270000"},{"id":"c6b33691-a63c-4699-bcf1-fe2e05dd9dc7","name":"Bekondo","ru":"Bekondo","country":"7810a4c4-3889-4d87-abdc-c6125259b72c","countryCode":"CM","state":"5066b046-fb4d-4864-829a-b69e91c797b0","stateCode":"SW","latitude":"4.68190000","longitude":"9.32140000"},{"id":"0d6dc221-c107-4237-82a3-a8c5f349066a","name":"Buea","ru":"Buea","country":"7810a4c4-3889-4d87-abdc-c6125259b72c","countryCode":"CM","state":"5066b046-fb4d-4864-829a-b69e91c797b0","stateCode":"SW","latitude":"4.15342000","longitude":"9.24231000"},{"id":"cc5883f1-89fa-47a4-8094-1a377cab45ca","name":"Fako Division","ru":"Fako Division","country":"7810a4c4-3889-4d87-abdc-c6125259b72c","countryCode":"CM","state":"5066b046-fb4d-4864-829a-b69e91c797b0","stateCode":"SW","latitude":"4.16667000","longitude":"9.16667000"},{"id":"0c74c774-523b-4942-941f-768a44280a17","name":"Fontem","ru":"Fontem","country":"7810a4c4-3889-4d87-abdc-c6125259b72c","countryCode":"CM","state":"5066b046-fb4d-4864-829a-b69e91c797b0","stateCode":"SW","latitude":"5.46850000","longitude":"9.88180000"},{"id":"c10b7394-5f98-4894-9ea5-002e330da159","name":"Kumba","ru":"Kumba","country":"7810a4c4-3889-4d87-abdc-c6125259b72c","countryCode":"CM","state":"5066b046-fb4d-4864-829a-b69e91c797b0","stateCode":"SW","latitude":"4.63630000","longitude":"9.44690000"},{"id":"c085cbd3-0aa1-45b7-b9d3-71e232f4c375","name":"Lebialem","ru":"Lebialem","country":"7810a4c4-3889-4d87-abdc-c6125259b72c","countryCode":"CM","state":"5066b046-fb4d-4864-829a-b69e91c797b0","stateCode":"SW","latitude":"5.56043000","longitude":"9.92316000"},{"id":"bf82d097-2d26-4dee-8d3a-77920469911b","name":"Limbe","ru":"Limbe","country":"7810a4c4-3889-4d87-abdc-c6125259b72c","countryCode":"CM","state":"5066b046-fb4d-4864-829a-b69e91c797b0","stateCode":"SW","latitude":"4.02356000","longitude":"9.20607000"},{"id":"84e3c305-bc03-4a66-bfe8-99462991304e","name":"Mamfe","ru":"Mamfe","country":"7810a4c4-3889-4d87-abdc-c6125259b72c","countryCode":"CM","state":"5066b046-fb4d-4864-829a-b69e91c797b0","stateCode":"SW","latitude":"5.75132000","longitude":"9.31370000"},{"id":"73865d67-f344-440b-876b-576fcea6d9eb","name":"Mundemba","ru":"Mundemba","country":"7810a4c4-3889-4d87-abdc-c6125259b72c","countryCode":"CM","state":"5066b046-fb4d-4864-829a-b69e91c797b0","stateCode":"SW","latitude":"4.94790000","longitude":"8.87240000"},{"id":"5f575626-0d52-48d0-8c3e-81c867bf745b","name":"Mutengene","ru":"Mutengene","country":"7810a4c4-3889-4d87-abdc-c6125259b72c","countryCode":"CM","state":"5066b046-fb4d-4864-829a-b69e91c797b0","stateCode":"SW","latitude":"4.09130000","longitude":"9.31440000"},{"id":"1199629c-e23c-452d-8bad-999bb2612ca5","name":"Muyuka","ru":"Muyuka","country":"7810a4c4-3889-4d87-abdc-c6125259b72c","countryCode":"CM","state":"5066b046-fb4d-4864-829a-b69e91c797b0","stateCode":"SW","latitude":"4.28980000","longitude":"9.41030000"},{"id":"495c4d8f-1c99-4d92-a6b2-84faf7200491","name":"Nguti","ru":"Nguti","country":"7810a4c4-3889-4d87-abdc-c6125259b72c","countryCode":"CM","state":"5066b046-fb4d-4864-829a-b69e91c797b0","stateCode":"SW","latitude":"5.32990000","longitude":"9.41850000"},{"id":"857c1a8f-5718-4ff6-a3e7-b622ccd0acda","name":"Tiko","ru":"Tiko","country":"7810a4c4-3889-4d87-abdc-c6125259b72c","countryCode":"CM","state":"5066b046-fb4d-4864-829a-b69e91c797b0","stateCode":"SW","latitude":"4.07500000","longitude":"9.36005000"},{"id":"5990cdc8-2313-4b0b-9507-93cbf523ff0b","name":"Bafang","ru":"Bafang","country":"7810a4c4-3889-4d87-abdc-c6125259b72c","countryCode":"CM","state":"3d7068e8-ed24-4f20-8d14-3798c8fd201c","stateCode":"OU","latitude":"5.15705000","longitude":"10.17710000"},{"id":"24ada764-23d9-4fac-8cbe-2a64d084002e","name":"Bafoussam","ru":"Bafoussam","country":"7810a4c4-3889-4d87-abdc-c6125259b72c","countryCode":"CM","state":"3d7068e8-ed24-4f20-8d14-3798c8fd201c","stateCode":"OU","latitude":"5.47775000","longitude":"10.41759000"},{"id":"d2c85266-83ac-4159-b516-3972d7903849","name":"Bamendjou","ru":"Bamendjou","country":"7810a4c4-3889-4d87-abdc-c6125259b72c","countryCode":"CM","state":"3d7068e8-ed24-4f20-8d14-3798c8fd201c","stateCode":"OU","latitude":"5.38988000","longitude":"10.33014000"},{"id":"cfc7aecc-0304-4d78-ad67-3b6a4ffad15f","name":"Bana","ru":"Bana","country":"7810a4c4-3889-4d87-abdc-c6125259b72c","countryCode":"CM","state":"3d7068e8-ed24-4f20-8d14-3798c8fd201c","stateCode":"OU","latitude":"5.14655000","longitude":"10.27545000"},{"id":"089c341e-1e8c-4785-b20d-cf779b50e4f6","name":"Bandjoun","ru":"Bandjoun","country":"7810a4c4-3889-4d87-abdc-c6125259b72c","countryCode":"CM","state":"3d7068e8-ed24-4f20-8d14-3798c8fd201c","stateCode":"OU","latitude":"5.37568000","longitude":"10.41326000"},{"id":"6ccd432d-e6c8-442d-813e-6900b7a787b8","name":"Bangangté","ru":"Bangangté","country":"7810a4c4-3889-4d87-abdc-c6125259b72c","countryCode":"CM","state":"3d7068e8-ed24-4f20-8d14-3798c8fd201c","stateCode":"OU","latitude":"5.14079000","longitude":"10.52535000"},{"id":"b7167959-a814-4e6c-bd4d-9dfce476ad24","name":"Bansoa","ru":"Bansoa","country":"7810a4c4-3889-4d87-abdc-c6125259b72c","countryCode":"CM","state":"3d7068e8-ed24-4f20-8d14-3798c8fd201c","stateCode":"OU","latitude":"5.44836000","longitude":"10.31355000"},{"id":"7f7fc450-7d24-4566-a87a-152218152d93","name":"Bazou","ru":"Bazou","country":"7810a4c4-3889-4d87-abdc-c6125259b72c","countryCode":"CM","state":"3d7068e8-ed24-4f20-8d14-3798c8fd201c","stateCode":"OU","latitude":"5.06001000","longitude":"10.46751000"},{"id":"e89c2d20-8bdd-4871-bf9f-49f529cd3fbe","name":"Dschang","ru":"Dschang","country":"7810a4c4-3889-4d87-abdc-c6125259b72c","countryCode":"CM","state":"3d7068e8-ed24-4f20-8d14-3798c8fd201c","stateCode":"OU","latitude":"5.44397000","longitude":"10.05332000"},{"id":"4030649b-a52a-4586-b5ec-25c8375cfe87","name":"Foumban","ru":"Foumban","country":"7810a4c4-3889-4d87-abdc-c6125259b72c","countryCode":"CM","state":"3d7068e8-ed24-4f20-8d14-3798c8fd201c","stateCode":"OU","latitude":"5.72662000","longitude":"10.89865000"},{"id":"ca8e1538-c19f-40ed-9e10-e9902d23f1d1","name":"Foumbot","ru":"Foumbot","country":"7810a4c4-3889-4d87-abdc-c6125259b72c","countryCode":"CM","state":"3d7068e8-ed24-4f20-8d14-3798c8fd201c","stateCode":"OU","latitude":"5.50803000","longitude":"10.63250000"},{"id":"86195edb-37dc-48b2-b5af-9a74a331b28d","name":"Hauts-Plateaux","ru":"Hauts-Plateaux","country":"7810a4c4-3889-4d87-abdc-c6125259b72c","countryCode":"CM","state":"3d7068e8-ed24-4f20-8d14-3798c8fd201c","stateCode":"OU","latitude":"5.29632000","longitude":"10.34314000"},{"id":"1aafb37b-177e-44d5-ba8b-0a8bc609dff5","name":"Koung-Khi","ru":"Koung-Khi","country":"7810a4c4-3889-4d87-abdc-c6125259b72c","countryCode":"CM","state":"3d7068e8-ed24-4f20-8d14-3798c8fd201c","stateCode":"OU","latitude":"5.33848000","longitude":"10.47453000"},{"id":"43d3c3bf-5cef-4643-9bec-efc4af194404","name":"Mbouda","ru":"Mbouda","country":"7810a4c4-3889-4d87-abdc-c6125259b72c","countryCode":"CM","state":"3d7068e8-ed24-4f20-8d14-3798c8fd201c","stateCode":"OU","latitude":"5.62611000","longitude":"10.25421000"},{"id":"3ebf80fd-f485-4150-b2aa-6c22cf371e08","name":"Ngou","ru":"Ngou","country":"7810a4c4-3889-4d87-abdc-c6125259b72c","countryCode":"CM","state":"3d7068e8-ed24-4f20-8d14-3798c8fd201c","stateCode":"OU","latitude":"5.19685000","longitude":"10.38595000"},{"id":"e8e985d0-b233-432b-b2ea-b335f5069a12","name":"Noun","ru":"Noun","country":"7810a4c4-3889-4d87-abdc-c6125259b72c","countryCode":"CM","state":"3d7068e8-ed24-4f20-8d14-3798c8fd201c","stateCode":"OU","latitude":"5.64123000","longitude":"10.91840000"},{"id":"ab8559d1-352a-43e8-9011-6b45516f3235","name":"Tonga","ru":"Tonga","country":"7810a4c4-3889-4d87-abdc-c6125259b72c","countryCode":"CM","state":"3d7068e8-ed24-4f20-8d14-3798c8fd201c","stateCode":"OU","latitude":"4.96667000","longitude":"10.70000000"}]