[{"id":"0b3bd232-c851-4935-94bd-479fce83e00b","name":"Bamingui","ru":"Bamingui","country":"faa1f281-ca1f-471f-8412-54a4c6c92be4","countryCode":"CF","state":"11f634d3-c07b-4229-947f-0e2d40a62d39","stateCode":"BB","latitude":"7.88897000","longitude":"20.04875000"},{"id":"5747383f-35a0-4357-a77c-579dcaed1420","name":"Ndélé","ru":"Ndélé","country":"faa1f281-ca1f-471f-8412-54a4c6c92be4","countryCode":"CF","state":"11f634d3-c07b-4229-947f-0e2d40a62d39","stateCode":"BB","latitude":"8.74287000","longitude":"20.89108000"},{"id":"da3a508f-27b3-42b9-80b0-1c9bb397a3ed","name":"Bangui","ru":"Bangui","country":"faa1f281-ca1f-471f-8412-54a4c6c92be4","countryCode":"CF","state":"df99a8f7-f4d1-4fb2-95e0-eb8d5bb57875","stateCode":"BGF","latitude":"4.36122000","longitude":"18.55496000"},{"id":"2e56d071-47bd-42d2-8044-14a57d698538","name":"Alindao","ru":"Alindao","country":"faa1f281-ca1f-471f-8412-54a4c6c92be4","countryCode":"CF","state":"1e665314-9ba9-4115-936d-3a24c061400c","stateCode":"BK","latitude":"5.02667000","longitude":"21.20876000"},{"id":"e4bbdd47-b471-4f13-8043-75947cc53576","name":"Kembé","ru":"Kembé","country":"faa1f281-ca1f-471f-8412-54a4c6c92be4","countryCode":"CF","state":"1e665314-9ba9-4115-936d-3a24c061400c","stateCode":"BK","latitude":"4.62275000","longitude":"21.88645000"},{"id":"bfd456fd-639e-43c2-9c5e-3e8393672efb","name":"Mobaye","ru":"Mobaye","country":"faa1f281-ca1f-471f-8412-54a4c6c92be4","countryCode":"CF","state":"1e665314-9ba9-4115-936d-3a24c061400c","stateCode":"BK","latitude":"4.31902000","longitude":"21.17861000"},{"id":"b15922dd-f044-46ed-8c8e-dbc26c322915","name":"Obo","ru":"Obo","country":"faa1f281-ca1f-471f-8412-54a4c6c92be4","countryCode":"CF","state":"b25d22f9-c153-4b57-b38d-9b1c425e88c9","stateCode":"HM","latitude":"5.39586000","longitude":"26.49211000"},{"id":"8a9f868f-b70d-4d1f-8b49-3f3ff753f728","name":"Zemio","ru":"Zemio","country":"faa1f281-ca1f-471f-8412-54a4c6c92be4","countryCode":"CF","state":"b25d22f9-c153-4b57-b38d-9b1c425e88c9","stateCode":"HM","latitude":"5.03144000","longitude":"25.13614000"},{"id":"02ad961a-12c3-4318-b58b-4c1e4ed2dc71","name":"Bria","ru":"Bria","country":"faa1f281-ca1f-471f-8412-54a4c6c92be4","countryCode":"CF","state":"e37fd19d-a465-4aa3-9880-4a65f3b3921a","stateCode":"HK","latitude":"6.54233000","longitude":"21.98633000"},{"id":"27972d94-0dad-4e20-8d0a-c58222e48ada","name":"Ouadda","ru":"Ouadda","country":"faa1f281-ca1f-471f-8412-54a4c6c92be4","countryCode":"CF","state":"e37fd19d-a465-4aa3-9880-4a65f3b3921a","stateCode":"HK","latitude":"8.07771000","longitude":"22.40075000"},{"id":"519ed500-6de8-4c5c-a1d3-982380a38758","name":"Sibut","ru":"Sibut","country":"faa1f281-ca1f-471f-8412-54a4c6c92be4","countryCode":"CF","state":"0716c33b-0883-4390-8035-45494f0ed4cb","stateCode":"KG","latitude":"5.71801000","longitude":"19.07389000"},{"id":"ecb51d67-1e7c-4163-b639-5ecc846e739b","name":"Boda","ru":"Boda","country":"faa1f281-ca1f-471f-8412-54a4c6c92be4","countryCode":"CF","state":"dac5e1f5-b177-4edf-b6de-c995de88ff13","stateCode":"LB","latitude":"4.31887000","longitude":"17.46953000"},{"id":"9ab8aa30-44b7-412d-8328-5a44e040ecdf","name":"Boganangone","ru":"Boganangone","country":"faa1f281-ca1f-471f-8412-54a4c6c92be4","countryCode":"CF","state":"dac5e1f5-b177-4edf-b6de-c995de88ff13","stateCode":"LB","latitude":"4.73558000","longitude":"17.14047000"},{"id":"c360d3e0-d562-4172-b076-85715c4abe65","name":"Mbaïki","ru":"Mbaïki","country":"faa1f281-ca1f-471f-8412-54a4c6c92be4","countryCode":"CF","state":"dac5e1f5-b177-4edf-b6de-c995de88ff13","stateCode":"LB","latitude":"3.86781000","longitude":"17.98923000"},{"id":"461ea89c-7299-4d64-a575-13edd08d98ea","name":"Mbaiki","ru":"Mbaiki","country":"faa1f281-ca1f-471f-8412-54a4c6c92be4","countryCode":"CF","state":"dac5e1f5-b177-4edf-b6de-c995de88ff13","stateCode":"LB","latitude":"3.97145000","longitude":"17.93352000"},{"id":"860b0d18-3608-4939-976f-5902e4a92fa7","name":"Mongoumba","ru":"Mongoumba","country":"faa1f281-ca1f-471f-8412-54a4c6c92be4","countryCode":"CF","state":"dac5e1f5-b177-4edf-b6de-c995de88ff13","stateCode":"LB","latitude":"3.64153000","longitude":"18.59364000"},{"id":"525c174a-0f0c-4ce3-bbee-5fe784b80e20","name":"Berbérati","ru":"Berbérati","country":"faa1f281-ca1f-471f-8412-54a4c6c92be4","countryCode":"CF","state":"bdfa399e-6d1a-49f2-b66e-2903528332ca","stateCode":"HS","latitude":"4.26116000","longitude":"15.79216000"},{"id":"4aa6c4b3-cb26-4042-86c7-e0429fe8ed2d","name":"Berberati","ru":"Berberati","country":"faa1f281-ca1f-471f-8412-54a4c6c92be4","countryCode":"CF","state":"bdfa399e-6d1a-49f2-b66e-2903528332ca","stateCode":"HS","latitude":"4.31211000","longitude":"15.88948000"},{"id":"b9cbaf9c-78d2-4492-9c1c-970931450e95","name":"Carnot","ru":"Carnot","country":"faa1f281-ca1f-471f-8412-54a4c6c92be4","countryCode":"CF","state":"bdfa399e-6d1a-49f2-b66e-2903528332ca","stateCode":"HS","latitude":"4.94273000","longitude":"15.87735000"},{"id":"69539890-75a9-4603-9df0-7af3499f4dae","name":"Gamboula","ru":"Gamboula","country":"faa1f281-ca1f-471f-8412-54a4c6c92be4","countryCode":"CF","state":"bdfa399e-6d1a-49f2-b66e-2903528332ca","stateCode":"HS","latitude":"4.11775000","longitude":"15.13926000"},{"id":"4869788f-5953-4ec5-af61-d87b7f47592b","name":"Bangassou","ru":"Bangassou","country":"faa1f281-ca1f-471f-8412-54a4c6c92be4","countryCode":"CF","state":"096cda8d-519b-434d-a0c7-d1f397850de1","stateCode":"MB","latitude":"4.74132000","longitude":"22.81838000"},{"id":"4905c338-41cf-4b15-a967-85288f790e1e","name":"Gambo","ru":"Gambo","country":"faa1f281-ca1f-471f-8412-54a4c6c92be4","countryCode":"CF","state":"096cda8d-519b-434d-a0c7-d1f397850de1","stateCode":"MB","latitude":"4.64816000","longitude":"22.26331000"},{"id":"f56f1ef6-e6dd-4e7e-b3ea-b32c268b530e","name":"Ouango","ru":"Ouango","country":"faa1f281-ca1f-471f-8412-54a4c6c92be4","countryCode":"CF","state":"096cda8d-519b-434d-a0c7-d1f397850de1","stateCode":"MB","latitude":"4.31325000","longitude":"22.55524000"},{"id":"ec2a1e75-ea1f-4c19-9479-2bca01dc80e9","name":"Rafai","ru":"Rafai","country":"faa1f281-ca1f-471f-8412-54a4c6c92be4","countryCode":"CF","state":"096cda8d-519b-434d-a0c7-d1f397850de1","stateCode":"MB","latitude":"5.81012000","longitude":"24.20305000"},{"id":"619ca250-94b0-4868-987a-e3707ef54dff","name":"Kaga Bandoro","ru":"Kaga Bandoro","country":"faa1f281-ca1f-471f-8412-54a4c6c92be4","countryCode":"CF","state":"a2647dd7-aa63-496a-8172-75a8852a625c","stateCode":"KB","latitude":"6.98961000","longitude":"19.18744000"},{"id":"8c993b0d-65d8-440c-a505-daa8338dd0f1","name":"Kaga-Bandoro","ru":"Kaga-Bandoro","country":"faa1f281-ca1f-471f-8412-54a4c6c92be4","countryCode":"CF","state":"a2647dd7-aa63-496a-8172-75a8852a625c","stateCode":"KB","latitude":"7.23774000","longitude":"19.21819000"},{"id":"995c6c99-c12b-414d-9d18-85fc46802ab4","name":"Baoro","ru":"Baoro","country":"faa1f281-ca1f-471f-8412-54a4c6c92be4","countryCode":"CF","state":"042539bd-c61b-4005-b702-d96eb641996b","stateCode":"NM","latitude":"5.66667000","longitude":"15.96667000"},{"id":"1003a3b1-792b-4ef1-8637-5f93c993963e","name":"Bouar","ru":"Bouar","country":"faa1f281-ca1f-471f-8412-54a4c6c92be4","countryCode":"CF","state":"042539bd-c61b-4005-b702-d96eb641996b","stateCode":"NM","latitude":"5.93404000","longitude":"15.59599000"},{"id":"c19f5bea-a562-4c3b-be42-2db8ebae76fd","name":"Bimbo","ru":"Bimbo","country":"faa1f281-ca1f-471f-8412-54a4c6c92be4","countryCode":"CF","state":"eb21807b-c402-4cb2-81c7-d6b39d3bfaa6","stateCode":"MP","latitude":"4.25671000","longitude":"18.41583000"},{"id":"fdde791d-f62d-48a1-859e-c3699688b55e","name":"Boali","ru":"Boali","country":"faa1f281-ca1f-471f-8412-54a4c6c92be4","countryCode":"CF","state":"eb21807b-c402-4cb2-81c7-d6b39d3bfaa6","stateCode":"MP","latitude":"4.80048000","longitude":"18.12747000"},{"id":"f174033a-3a10-429a-ac65-53d3a732840e","name":"Damara","ru":"Damara","country":"faa1f281-ca1f-471f-8412-54a4c6c92be4","countryCode":"CF","state":"eb21807b-c402-4cb2-81c7-d6b39d3bfaa6","stateCode":"MP","latitude":"4.96075000","longitude":"18.70350000"},{"id":"b76f14cd-d78a-4b7e-ad1c-8ba85492c1ef","name":"Bambari","ru":"Bambari","country":"faa1f281-ca1f-471f-8412-54a4c6c92be4","countryCode":"CF","state":"3b2b21d9-0cef-42a1-b6ff-b5583d809cf1","stateCode":"UK","latitude":"5.76795000","longitude":"20.67565000"},{"id":"a99d5f46-ed0c-45b4-8eeb-bcbe23e694cc","name":"Grimari","ru":"Grimari","country":"faa1f281-ca1f-471f-8412-54a4c6c92be4","countryCode":"CF","state":"3b2b21d9-0cef-42a1-b6ff-b5583d809cf1","stateCode":"UK","latitude":"5.73549000","longitude":"19.91209000"},{"id":"9832eaa2-b18a-4c82-8d05-1ae1df0f3ca6","name":"Ippy","ru":"Ippy","country":"faa1f281-ca1f-471f-8412-54a4c6c92be4","countryCode":"CF","state":"3b2b21d9-0cef-42a1-b6ff-b5583d809cf1","stateCode":"UK","latitude":"6.26793000","longitude":"21.22468000"},{"id":"740a4f67-cf30-4a96-ace4-4500922025a2","name":"Kouango","ru":"Kouango","country":"faa1f281-ca1f-471f-8412-54a4c6c92be4","countryCode":"CF","state":"3b2b21d9-0cef-42a1-b6ff-b5583d809cf1","stateCode":"UK","latitude":"4.99337000","longitude":"19.96186000"},{"id":"2e77f32d-23c7-4efb-a303-fc4e9b0ceeeb","name":"Batangafo","ru":"Batangafo","country":"faa1f281-ca1f-471f-8412-54a4c6c92be4","countryCode":"CF","state":"7d69741d-2517-4ce5-a955-dce336def410","stateCode":"AC","latitude":"7.30082000","longitude":"18.28330000"},{"id":"5e6ff927-3991-43b3-860f-ede6c5e74ad9","name":"Bossangoa","ru":"Bossangoa","country":"faa1f281-ca1f-471f-8412-54a4c6c92be4","countryCode":"CF","state":"7d69741d-2517-4ce5-a955-dce336def410","stateCode":"AC","latitude":"6.49263000","longitude":"17.45518000"},{"id":"e626b561-d4c7-4653-8557-ddbb934bdc7d","name":"Bouca","ru":"Bouca","country":"faa1f281-ca1f-471f-8412-54a4c6c92be4","countryCode":"CF","state":"7d69741d-2517-4ce5-a955-dce336def410","stateCode":"AC","latitude":"6.50734000","longitude":"18.27670000"},{"id":"c64dffc9-3112-4286-b4ae-98ed55beabe0","name":"Kabo","ru":"Kabo","country":"faa1f281-ca1f-471f-8412-54a4c6c92be4","countryCode":"CF","state":"7d69741d-2517-4ce5-a955-dce336def410","stateCode":"AC","latitude":"7.69937000","longitude":"18.62903000"},{"id":"4653dd5f-2fc0-4d38-b756-7af69b895cae","name":"Bocaranga","ru":"Bocaranga","country":"faa1f281-ca1f-471f-8412-54a4c6c92be4","countryCode":"CF","state":"3295400e-5571-4233-ace2-4f2920c977bd","stateCode":"OP","latitude":"6.76546000","longitude":"15.77873000"},{"id":"82282104-3bac-49c1-9023-614e57e151fc","name":"Bozoum","ru":"Bozoum","country":"faa1f281-ca1f-471f-8412-54a4c6c92be4","countryCode":"CF","state":"3295400e-5571-4233-ace2-4f2920c977bd","stateCode":"OP","latitude":"6.31933000","longitude":"16.37992000"},{"id":"8f1c915f-4666-4367-a229-4b0afceba404","name":"Paoua","ru":"Paoua","country":"faa1f281-ca1f-471f-8412-54a4c6c92be4","countryCode":"CF","state":"3295400e-5571-4233-ace2-4f2920c977bd","stateCode":"OP","latitude":"7.24269000","longitude":"16.44059000"},{"id":"4a018c7d-fad7-414f-b073-f744718252ac","name":"Nola","ru":"Nola","country":"faa1f281-ca1f-471f-8412-54a4c6c92be4","countryCode":"CF","state":"1e324be2-3b1a-416b-8721-5696074a5e6d","stateCode":"SE","latitude":"3.52494000","longitude":"16.04583000"},{"id":"42ce29a2-8f6e-48b8-bd56-d56bfcabcfeb","name":"Birao","ru":"Birao","country":"faa1f281-ca1f-471f-8412-54a4c6c92be4","countryCode":"CF","state":"817957b6-cf5f-447e-882a-3877a2738321","stateCode":"VK","latitude":"10.28488000","longitude":"22.78818000"},{"id":"b07f48b6-f9b9-4024-ae60-dbaed08e6bfd","name":"Ouanda-Djallé","ru":"Ouanda-Djallé","country":"faa1f281-ca1f-471f-8412-54a4c6c92be4","countryCode":"CF","state":"817957b6-cf5f-447e-882a-3877a2738321","stateCode":"VK","latitude":"9.05877000","longitude":"22.42741000"}]