[{"id":"040a3583-fb14-4a54-93c7-86a8a4edc388","name":"Bamboo Flat","ru":"Bamboo Flat","country":"3b6c20fe-3756-41df-afb7-7d3991cd459b","countryCode":"IN","state":"ecddbf93-5192-4a23-8a8c-7e48cfa69ed7","stateCode":"AN","latitude":"11.70000000","longitude":"92.71667000"},{"id":"8787e744-b6b8-447f-b7a6-51b3779ff12e","name":"Nicobar","ru":"Nicobar","country":"3b6c20fe-3756-41df-afb7-7d3991cd459b","countryCode":"IN","state":"ecddbf93-5192-4a23-8a8c-7e48cfa69ed7","stateCode":"AN","latitude":"7.03002000","longitude":"93.79028000"},{"id":"bfbb0309-53cc-4259-babe-56bcce20d191","name":"Port Blair","ru":"Port Blair","country":"3b6c20fe-3756-41df-afb7-7d3991cd459b","countryCode":"IN","state":"ecddbf93-5192-4a23-8a8c-7e48cfa69ed7","stateCode":"AN","latitude":"11.66613000","longitude":"92.74635000"},{"id":"23033d99-c1cb-47cd-b449-c2c6f59a3ebf","name":"South Andaman","ru":"South Andaman","country":"3b6c20fe-3756-41df-afb7-7d3991cd459b","countryCode":"IN","state":"ecddbf93-5192-4a23-8a8c-7e48cfa69ed7","stateCode":"AN","latitude":"10.75776000","longitude":"92.52136000"},{"id":"81db115e-ef99-42f1-bbf0-ed24bcb39fa5","name":"Addanki","ru":"Addanki","country":"3b6c20fe-3756-41df-afb7-7d3991cd459b","countryCode":"IN","state":"02323f9d-445a-47a8-9144-35d6cb646d07","stateCode":"AP","latitude":"15.81061000","longitude":"79.97338000"},{"id":"d3c10ddc-b4d1-49aa-8bd2-731c4272f15a","name":"Akasahebpet","ru":"Akasahebpet","country":"3b6c20fe-3756-41df-afb7-7d3991cd459b","countryCode":"IN","state":"02323f9d-445a-47a8-9144-35d6cb646d07","stateCode":"AP","latitude":"17.50455000","longitude":"82.56597000"},{"id":"856ff010-e95a-40c9-abef-e91c9d858da5","name":"Akivīdu","ru":"Akivīdu","country":"3b6c20fe-3756-41df-afb7-7d3991cd459b","countryCode":"IN","state":"02323f9d-445a-47a8-9144-35d6cb646d07","stateCode":"AP","latitude":"16.58225000","longitude":"81.38112000"},{"id":"fedee7ae-bf53-436e-a2bc-55a60b7dd048","name":"Akkarampalle","ru":"Akkarampalle","country":"3b6c20fe-3756-41df-afb7-7d3991cd459b","countryCode":"IN","state":"02323f9d-445a-47a8-9144-35d6cb646d07","stateCode":"AP","latitude":"13.65000000","longitude":"79.42000000"},{"id":"5f8890cc-cafd-45db-9124-67add0a33e26","name":"Amalāpuram","ru":"Amalāpuram","country":"3b6c20fe-3756-41df-afb7-7d3991cd459b","countryCode":"IN","state":"02323f9d-445a-47a8-9144-35d6cb646d07","stateCode":"AP","latitude":"16.57868000","longitude":"82.00609000"},{"id":"e0ca2b5b-64a0-4e56-80ea-1e01320a6b58","name":"Amudālavalasa","ru":"Amudālavalasa","country":"3b6c20fe-3756-41df-afb7-7d3991cd459b","countryCode":"IN","state":"02323f9d-445a-47a8-9144-35d6cb646d07","stateCode":"AP","latitude":"18.41025000","longitude":"83.90295000"},{"id":"80a87638-06a9-4cf9-8068-16b19a9b0b9a","name":"Anakāpalle","ru":"Anakāpalle","country":"3b6c20fe-3756-41df-afb7-7d3991cd459b","countryCode":"IN","state":"02323f9d-445a-47a8-9144-35d6cb646d07","stateCode":"AP","latitude":"17.69134000","longitude":"83.00395000"},{"id":"7ff076fe-5842-4bd8-b7c3-e2d223956e45","name":"Anantapur","ru":"Anantapur","country":"3b6c20fe-3756-41df-afb7-7d3991cd459b","countryCode":"IN","state":"02323f9d-445a-47a8-9144-35d6cb646d07","stateCode":"AP","latitude":"14.55000000","longitude":"77.41667000"},{"id":"e7ceff76-ad83-4519-b62c-614fe5ac8f8b","name":"Atmakūr","ru":"Atmakūr","country":"3b6c20fe-3756-41df-afb7-7d3991cd459b","countryCode":"IN","state":"02323f9d-445a-47a8-9144-35d6cb646d07","stateCode":"AP","latitude":"15.88109000","longitude":"78.58704000"},{"id":"34d1631e-8e6b-4cde-9e40-d6ab17698553","name":"Attili","ru":"Attili","country":"3b6c20fe-3756-41df-afb7-7d3991cd459b","countryCode":"IN","state":"02323f9d-445a-47a8-9144-35d6cb646d07","stateCode":"AP","latitude":"16.70000000","longitude":"81.60000000"},{"id":"96e3f6d0-d4b4-4160-b597-402404388c49","name":"Avanigadda","ru":"Avanigadda","country":"3b6c20fe-3756-41df-afb7-7d3991cd459b","countryCode":"IN","state":"02323f9d-445a-47a8-9144-35d6cb646d07","stateCode":"AP","latitude":"16.02148000","longitude":"80.91808000"},{"id":"5186173e-4ee5-4cb1-9f7c-8273c005865e","name":"Ādoni","ru":"Ādoni","country":"3b6c20fe-3756-41df-afb7-7d3991cd459b","countryCode":"IN","state":"02323f9d-445a-47a8-9144-35d6cb646d07","stateCode":"AP","latitude":"15.62788000","longitude":"77.27495000"},{"id":"3a6ca38e-1e9c-4397-b07d-bc9bcae883bb","name":"Badvel","ru":"Badvel","country":"3b6c20fe-3756-41df-afb7-7d3991cd459b","countryCode":"IN","state":"02323f9d-445a-47a8-9144-35d6cb646d07","stateCode":"AP","latitude":"14.74510000","longitude":"79.06288000"},{"id":"ac0271b4-eae9-47bc-a087-a806ed3dd9fe","name":"Banganapalle","ru":"Banganapalle","country":"3b6c20fe-3756-41df-afb7-7d3991cd459b","countryCode":"IN","state":"02323f9d-445a-47a8-9144-35d6cb646d07","stateCode":"AP","latitude":"15.31771000","longitude":"78.22669000"},{"id":"7c09a659-efcd-4020-a998-b81cdb465d8b","name":"Bāpatla","ru":"Bāpatla","country":"3b6c20fe-3756-41df-afb7-7d3991cd459b","countryCode":"IN","state":"02323f9d-445a-47a8-9144-35d6cb646d07","stateCode":"AP","latitude":"15.90422000","longitude":"80.46743000"},{"id":"c1f0078c-c7cb-4f9c-8b08-3a75eca8c3b4","name":"Betamcherla","ru":"Betamcherla","country":"3b6c20fe-3756-41df-afb7-7d3991cd459b","countryCode":"IN","state":"02323f9d-445a-47a8-9144-35d6cb646d07","stateCode":"AP","latitude":"15.45144000","longitude":"78.14797000"},{"id":"5ea63570-9f48-4d0b-ae9c-90858d630111","name":"Bhattiprolu","ru":"Bhattiprolu","country":"3b6c20fe-3756-41df-afb7-7d3991cd459b","countryCode":"IN","state":"02323f9d-445a-47a8-9144-35d6cb646d07","stateCode":"AP","latitude":"16.10260000","longitude":"80.78074000"},{"id":"15c9b8d7-028f-4ec7-8a4d-c1cdde960b27","name":"Bhīmavaram","ru":"Bhīmavaram","country":"3b6c20fe-3756-41df-afb7-7d3991cd459b","countryCode":"IN","state":"02323f9d-445a-47a8-9144-35d6cb646d07","stateCode":"AP","latitude":"16.54078000","longitude":"81.52322000"},{"id":"0b67d325-15f5-4550-9858-422a43768bff","name":"Bhīmunipatnam","ru":"Bhīmunipatnam","country":"3b6c20fe-3756-41df-afb7-7d3991cd459b","countryCode":"IN","state":"02323f9d-445a-47a8-9144-35d6cb646d07","stateCode":"AP","latitude":"17.89017000","longitude":"83.45203000"},{"id":"23aa3201-8ebf-40e5-a6b7-52a7590010db","name":"Bobbili","ru":"Bobbili","country":"3b6c20fe-3756-41df-afb7-7d3991cd459b","countryCode":"IN","state":"02323f9d-445a-47a8-9144-35d6cb646d07","stateCode":"AP","latitude":"18.57366000","longitude":"83.35925000"},{"id":"e092e2bb-6808-4902-bb12-c8f8513fb860","name":"Challapalle","ru":"Challapalle","country":"3b6c20fe-3756-41df-afb7-7d3991cd459b","countryCode":"IN","state":"02323f9d-445a-47a8-9144-35d6cb646d07","stateCode":"AP","latitude":"16.11756000","longitude":"80.93139000"},{"id":"b1e6b3a6-a228-4887-807a-209c5cb36602","name":"Chīpurupalle","ru":"Chīpurupalle","country":"3b6c20fe-3756-41df-afb7-7d3991cd459b","countryCode":"IN","state":"02323f9d-445a-47a8-9144-35d6cb646d07","stateCode":"AP","latitude":"18.31142000","longitude":"83.56846000"},{"id":"894b0b8e-1d0c-4ad4-a1c6-98c4f5f58262","name":"Chīrāla","ru":"Chīrāla","country":"3b6c20fe-3756-41df-afb7-7d3991cd459b","countryCode":"IN","state":"02323f9d-445a-47a8-9144-35d6cb646d07","stateCode":"AP","latitude":"15.82385000","longitude":"80.35219000"},{"id":"beef2006-ab09-413e-ab5a-532a168ec748","name":"Chemmumiahpet","ru":"Chemmumiahpet","country":"3b6c20fe-3756-41df-afb7-7d3991cd459b","countryCode":"IN","state":"02323f9d-445a-47a8-9144-35d6cb646d07","stateCode":"AP","latitude":"15.89794000","longitude":"79.32129000"},{"id":"2892dff0-e825-4126-9b19-94b049dc333d","name":"Chilakalūrupet","ru":"Chilakalūrupet","country":"3b6c20fe-3756-41df-afb7-7d3991cd459b","countryCode":"IN","state":"02323f9d-445a-47a8-9144-35d6cb646d07","stateCode":"AP","latitude":"16.08987000","longitude":"80.16705000"},{"id":"ed96b19b-44cd-484d-8b12-f18094a6ec43","name":"Chinnachowk","ru":"Chinnachowk","country":"3b6c20fe-3756-41df-afb7-7d3991cd459b","countryCode":"IN","state":"02323f9d-445a-47a8-9144-35d6cb646d07","stateCode":"AP","latitude":"14.47516000","longitude":"78.83540000"},{"id":"a2e9468a-3b88-47da-aeef-8c6f3c463e20","name":"Chittoor","ru":"Chittoor","country":"3b6c20fe-3756-41df-afb7-7d3991cd459b","countryCode":"IN","state":"02323f9d-445a-47a8-9144-35d6cb646d07","stateCode":"AP","latitude":"13.41667000","longitude":"79.00000000"},{"id":"9ed387b5-eba9-4ceb-8905-adb1e6aea136","name":"Chodavaram","ru":"Chodavaram","country":"3b6c20fe-3756-41df-afb7-7d3991cd459b","countryCode":"IN","state":"02323f9d-445a-47a8-9144-35d6cb646d07","stateCode":"AP","latitude":"17.82884000","longitude":"82.93526000"},{"id":"2e9a4cad-50e5-4295-bdfc-24a11d6029d9","name":"Cuddapah","ru":"Cuddapah","country":"3b6c20fe-3756-41df-afb7-7d3991cd459b","countryCode":"IN","state":"02323f9d-445a-47a8-9144-35d6cb646d07","stateCode":"AP","latitude":"14.41667000","longitude":"78.75000000"},{"id":"f82273c5-5e69-43aa-bc78-eceaeaa513fa","name":"Cumbum","ru":"Cumbum","country":"3b6c20fe-3756-41df-afb7-7d3991cd459b","countryCode":"IN","state":"02323f9d-445a-47a8-9144-35d6cb646d07","stateCode":"AP","latitude":"15.58171000","longitude":"79.11059000"},{"id":"3a6acc53-33b0-4584-8dbf-5fc8833b9be3","name":"Darsi","ru":"Darsi","country":"3b6c20fe-3756-41df-afb7-7d3991cd459b","countryCode":"IN","state":"02323f9d-445a-47a8-9144-35d6cb646d07","stateCode":"AP","latitude":"15.76978000","longitude":"79.67939000"},{"id":"0a9b78c9-c9a1-4914-a36e-61e36f762aed","name":"Dharmavaram","ru":"Dharmavaram","country":"3b6c20fe-3756-41df-afb7-7d3991cd459b","countryCode":"IN","state":"02323f9d-445a-47a8-9144-35d6cb646d07","stateCode":"AP","latitude":"14.41435000","longitude":"77.72035000"},{"id":"61833f0e-0769-4955-8804-92850fed3403","name":"Dhone","ru":"Dhone","country":"3b6c20fe-3756-41df-afb7-7d3991cd459b","countryCode":"IN","state":"02323f9d-445a-47a8-9144-35d6cb646d07","stateCode":"AP","latitude":"15.39520000","longitude":"77.87150000"},{"id":"9079d935-1686-4d95-9a6e-f51dc420ac18","name":"Diguvametta","ru":"Diguvametta","country":"3b6c20fe-3756-41df-afb7-7d3991cd459b","countryCode":"IN","state":"02323f9d-445a-47a8-9144-35d6cb646d07","stateCode":"AP","latitude":"15.39507000","longitude":"78.82930000"},{"id":"99349ad3-a83a-4774-8bec-820e3474e4a7","name":"East Godāvari","ru":"East Godāvari","country":"3b6c20fe-3756-41df-afb7-7d3991cd459b","countryCode":"IN","state":"02323f9d-445a-47a8-9144-35d6cb646d07","stateCode":"AP","latitude":"17.83333000","longitude":"81.83333000"},{"id":"8fd4cca5-5fca-4830-94b4-a83aca0001e1","name":"Elamanchili","ru":"Elamanchili","country":"3b6c20fe-3756-41df-afb7-7d3991cd459b","countryCode":"IN","state":"02323f9d-445a-47a8-9144-35d6cb646d07","stateCode":"AP","latitude":"17.54907000","longitude":"82.85749000"},{"id":"4e7f65f9-1d80-4080-a1a6-503fa4dcf24f","name":"Ellore","ru":"Ellore","country":"3b6c20fe-3756-41df-afb7-7d3991cd459b","countryCode":"IN","state":"02323f9d-445a-47a8-9144-35d6cb646d07","stateCode":"AP","latitude":"16.71311000","longitude":"81.10437000"},{"id":"334ed937-87f5-4552-a6f2-08b82cfa211b","name":"Emmiganūr","ru":"Emmiganūr","country":"3b6c20fe-3756-41df-afb7-7d3991cd459b","countryCode":"IN","state":"02323f9d-445a-47a8-9144-35d6cb646d07","stateCode":"AP","latitude":"15.77203000","longitude":"77.48345000"},{"id":"dfa69e30-7bc0-4687-9a7f-f4d81273765e","name":"Erraguntla","ru":"Erraguntla","country":"3b6c20fe-3756-41df-afb7-7d3991cd459b","countryCode":"IN","state":"02323f9d-445a-47a8-9144-35d6cb646d07","stateCode":"AP","latitude":"14.63853000","longitude":"78.53974000"},{"id":"5f0bfcf3-d594-4607-8960-b90a75dd20d0","name":"Etikoppāka","ru":"Etikoppāka","country":"3b6c20fe-3756-41df-afb7-7d3991cd459b","countryCode":"IN","state":"02323f9d-445a-47a8-9144-35d6cb646d07","stateCode":"AP","latitude":"17.50000000","longitude":"82.73333000"},{"id":"6d523509-02aa-41e2-9c10-d92a79da7b86","name":"Gajuwaka","ru":"Gajuwaka","country":"3b6c20fe-3756-41df-afb7-7d3991cd459b","countryCode":"IN","state":"02323f9d-445a-47a8-9144-35d6cb646d07","stateCode":"AP","latitude":"17.70000000","longitude":"83.21667000"},{"id":"3763d5dc-7910-460e-b413-e0fa79258cbc","name":"Ganguvāda","ru":"Ganguvāda","country":"3b6c20fe-3756-41df-afb7-7d3991cd459b","countryCode":"IN","state":"02323f9d-445a-47a8-9144-35d6cb646d07","stateCode":"AP","latitude":"18.66667000","longitude":"84.11667000"},{"id":"51e550c7-42c6-43d0-a378-6988f4f60169","name":"Gannavaram","ru":"Gannavaram","country":"3b6c20fe-3756-41df-afb7-7d3991cd459b","countryCode":"IN","state":"02323f9d-445a-47a8-9144-35d6cb646d07","stateCode":"AP","latitude":"16.54092000","longitude":"80.80213000"},{"id":"7f94483d-457c-4e7e-ba20-b885e65eb5a1","name":"Gūdūr","ru":"Gūdūr","country":"3b6c20fe-3756-41df-afb7-7d3991cd459b","countryCode":"IN","state":"02323f9d-445a-47a8-9144-35d6cb646d07","stateCode":"AP","latitude":"14.15093000","longitude":"79.85210000"},{"id":"ea7ba71c-42fd-48f4-ad9d-7c5c089c4eaf","name":"Giddalūr","ru":"Giddalūr","country":"3b6c20fe-3756-41df-afb7-7d3991cd459b","countryCode":"IN","state":"02323f9d-445a-47a8-9144-35d6cb646d07","stateCode":"AP","latitude":"15.37439000","longitude":"78.92609000"},{"id":"a625bff7-1f54-4f4a-bad2-7c23005605f8","name":"Gokavaram","ru":"Gokavaram","country":"3b6c20fe-3756-41df-afb7-7d3991cd459b","countryCode":"IN","state":"02323f9d-445a-47a8-9144-35d6cb646d07","stateCode":"AP","latitude":"17.25823000","longitude":"81.84985000"},{"id":"f2b98d3b-6307-44bc-bb27-1afe4f3267fc","name":"Gorantla","ru":"Gorantla","country":"3b6c20fe-3756-41df-afb7-7d3991cd459b","countryCode":"IN","state":"02323f9d-445a-47a8-9144-35d6cb646d07","stateCode":"AP","latitude":"13.98411000","longitude":"77.77224000"},{"id":"4181943a-7064-4001-8e17-0d4040e6b3ea","name":"Govindapuram,Chilakaluripet,Guntur","ru":"Govindapuram,Chilakaluripet,Guntur","country":"3b6c20fe-3756-41df-afb7-7d3991cd459b","countryCode":"IN","state":"02323f9d-445a-47a8-9144-35d6cb646d07","stateCode":"AP","latitude":"16.15477000","longitude":"80.10279000"},{"id":"fcadc165-9ac0-420a-a1dd-0bc11d7e50b6","name":"Gudivāda","ru":"Gudivāda","country":"3b6c20fe-3756-41df-afb7-7d3991cd459b","countryCode":"IN","state":"02323f9d-445a-47a8-9144-35d6cb646d07","stateCode":"AP","latitude":"16.43547000","longitude":"80.99555000"},{"id":"e8ffa1ed-830e-4d9c-a0c4-546f10479694","name":"Gudlavalleru","ru":"Gudlavalleru","country":"3b6c20fe-3756-41df-afb7-7d3991cd459b","countryCode":"IN","state":"02323f9d-445a-47a8-9144-35d6cb646d07","stateCode":"AP","latitude":"16.35000000","longitude":"81.05000000"},{"id":"02ed63cd-da4f-4bc9-94c8-013e211d792f","name":"Guntakal Junction","ru":"Guntakal Junction","country":"3b6c20fe-3756-41df-afb7-7d3991cd459b","countryCode":"IN","state":"02323f9d-445a-47a8-9144-35d6cb646d07","stateCode":"AP","latitude":"15.17112000","longitude":"77.36244000"},{"id":"b522ee62-9acb-4fd6-a18d-579c0eb63250","name":"Guntūr","ru":"Guntūr","country":"3b6c20fe-3756-41df-afb7-7d3991cd459b","countryCode":"IN","state":"02323f9d-445a-47a8-9144-35d6cb646d07","stateCode":"AP","latitude":"16.41667000","longitude":"80.25000000"},{"id":"6529b28f-cf4f-4a7c-a27a-e3e67f4fbf19","name":"Guntur","ru":"Guntur","country":"3b6c20fe-3756-41df-afb7-7d3991cd459b","countryCode":"IN","state":"02323f9d-445a-47a8-9144-35d6cb646d07","stateCode":"AP","latitude":"16.29974000","longitude":"80.45729000"},{"id":"d9b4e3bf-4008-4bea-a33f-376c108edfa4","name":"Hindupur","ru":"Hindupur","country":"3b6c20fe-3756-41df-afb7-7d3991cd459b","countryCode":"IN","state":"02323f9d-445a-47a8-9144-35d6cb646d07","stateCode":"AP","latitude":"13.82807000","longitude":"77.49143000"},{"id":"6e45537f-0ad4-4349-8251-87592a2eaa3c","name":"Ichchāpuram","ru":"Ichchāpuram","country":"3b6c20fe-3756-41df-afb7-7d3991cd459b","countryCode":"IN","state":"02323f9d-445a-47a8-9144-35d6cb646d07","stateCode":"AP","latitude":"19.11393000","longitude":"84.68721000"},{"id":"6229d3e4-1343-463e-8f96-dd76bab43e5d","name":"Jaggayyapeta","ru":"Jaggayyapeta","country":"3b6c20fe-3756-41df-afb7-7d3991cd459b","countryCode":"IN","state":"02323f9d-445a-47a8-9144-35d6cb646d07","stateCode":"AP","latitude":"16.89380000","longitude":"80.09807000"},{"id":"aad88830-cb14-4867-a6b4-23e9ff78fb50","name":"Jammalamadugu","ru":"Jammalamadugu","country":"3b6c20fe-3756-41df-afb7-7d3991cd459b","countryCode":"IN","state":"02323f9d-445a-47a8-9144-35d6cb646d07","stateCode":"AP","latitude":"14.84677000","longitude":"78.38314000"},{"id":"de26ce68-a189-4ed3-909d-1813286709d4","name":"Kadiri","ru":"Kadiri","country":"3b6c20fe-3756-41df-afb7-7d3991cd459b","countryCode":"IN","state":"02323f9d-445a-47a8-9144-35d6cb646d07","stateCode":"AP","latitude":"14.11168000","longitude":"78.15982000"},{"id":"09b5849f-b9ae-4244-83d4-4f9b59c4b2ae","name":"Kaikalūr","ru":"Kaikalūr","country":"3b6c20fe-3756-41df-afb7-7d3991cd459b","countryCode":"IN","state":"02323f9d-445a-47a8-9144-35d6cb646d07","stateCode":"AP","latitude":"16.55154000","longitude":"81.21400000"},{"id":"efb5167f-3870-45e8-8fc5-56bac8f0b74e","name":"Kalyandurg","ru":"Kalyandurg","country":"3b6c20fe-3756-41df-afb7-7d3991cd459b","countryCode":"IN","state":"02323f9d-445a-47a8-9144-35d6cb646d07","stateCode":"AP","latitude":"14.54519000","longitude":"77.10552000"},{"id":"46e03fdb-9fb0-4bdb-a69e-6a3857359f29","name":"Kandukūr","ru":"Kandukūr","country":"3b6c20fe-3756-41df-afb7-7d3991cd459b","countryCode":"IN","state":"02323f9d-445a-47a8-9144-35d6cb646d07","stateCode":"AP","latitude":"15.21542000","longitude":"79.90390000"},{"id":"9b1a5f7b-c69b-4678-b39f-fa85729743fa","name":"Kanigiri","ru":"Kanigiri","country":"3b6c20fe-3756-41df-afb7-7d3991cd459b","countryCode":"IN","state":"02323f9d-445a-47a8-9144-35d6cb646d07","stateCode":"AP","latitude":"15.40555000","longitude":"79.50694000"},{"id":"365f7acc-8004-4cf6-9a50-8169ec9a188c","name":"Kankipādu","ru":"Kankipādu","country":"3b6c20fe-3756-41df-afb7-7d3991cd459b","countryCode":"IN","state":"02323f9d-445a-47a8-9144-35d6cb646d07","stateCode":"AP","latitude":"16.43530000","longitude":"80.76715000"},{"id":"cf97ea3e-1798-42b3-9879-cb536aa24466","name":"Kanuru","ru":"Kanuru","country":"3b6c20fe-3756-41df-afb7-7d3991cd459b","countryCode":"IN","state":"02323f9d-445a-47a8-9144-35d6cb646d07","stateCode":"AP","latitude":"16.28584000","longitude":"81.25464000"},{"id":"b0dde10d-f7f0-47d0-9200-df630f0e02ac","name":"Kākināda","ru":"Kākināda","country":"3b6c20fe-3756-41df-afb7-7d3991cd459b","countryCode":"IN","state":"02323f9d-445a-47a8-9144-35d6cb646d07","stateCode":"AP","latitude":"16.96036000","longitude":"82.23809000"},{"id":"218c3223-c39f-4563-a428-2360224c134d","name":"Kāmalāpuram","ru":"Kāmalāpuram","country":"3b6c20fe-3756-41df-afb7-7d3991cd459b","countryCode":"IN","state":"02323f9d-445a-47a8-9144-35d6cb646d07","stateCode":"AP","latitude":"14.59830000","longitude":"78.66948000"},{"id":"fa47d56b-4fa1-425f-bd93-f9c31a6ca97b","name":"Kāvali","ru":"Kāvali","country":"3b6c20fe-3756-41df-afb7-7d3991cd459b","countryCode":"IN","state":"02323f9d-445a-47a8-9144-35d6cb646d07","stateCode":"AP","latitude":"14.91630000","longitude":"79.99449000"},{"id":"cc2c9327-fb87-49f9-bc9e-01c57daac207","name":"Kolanukonda","ru":"Kolanukonda","country":"3b6c20fe-3756-41df-afb7-7d3991cd459b","countryCode":"IN","state":"02323f9d-445a-47a8-9144-35d6cb646d07","stateCode":"AP","latitude":"16.45392000","longitude":"80.61046000"},{"id":"4c23b17b-f590-4d5d-a212-c022cdb7677e","name":"Kondapalle","ru":"Kondapalle","country":"3b6c20fe-3756-41df-afb7-7d3991cd459b","countryCode":"IN","state":"02323f9d-445a-47a8-9144-35d6cb646d07","stateCode":"AP","latitude":"16.61989000","longitude":"80.54244000"},{"id":"9a8daf50-7253-451a-a23e-2953dc54b538","name":"Korukollu","ru":"Korukollu","country":"3b6c20fe-3756-41df-afb7-7d3991cd459b","countryCode":"IN","state":"02323f9d-445a-47a8-9144-35d6cb646d07","stateCode":"AP","latitude":"16.50000000","longitude":"81.25000000"},{"id":"a7a1886e-ecac-4533-93d6-eea6cc60aa9c","name":"Kosigi","ru":"Kosigi","country":"3b6c20fe-3756-41df-afb7-7d3991cd459b","countryCode":"IN","state":"02323f9d-445a-47a8-9144-35d6cb646d07","stateCode":"AP","latitude":"15.85510000","longitude":"77.24463000"},{"id":"c6f1bd9b-5b03-4a9d-88ec-6e93362fb819","name":"Kovūr","ru":"Kovūr","country":"3b6c20fe-3756-41df-afb7-7d3991cd459b","countryCode":"IN","state":"02323f9d-445a-47a8-9144-35d6cb646d07","stateCode":"AP","latitude":"14.50050000","longitude":"79.98518000"},{"id":"cd0e32ea-e8fc-4afb-b3e0-bb28e75f7d46","name":"Kovvūr","ru":"Kovvūr","country":"3b6c20fe-3756-41df-afb7-7d3991cd459b","countryCode":"IN","state":"02323f9d-445a-47a8-9144-35d6cb646d07","stateCode":"AP","latitude":"17.01620000","longitude":"81.72934000"},{"id":"14dfa407-6483-4d80-abb2-985b8d4ac0c8","name":"Krishna","ru":"Krishna","country":"3b6c20fe-3756-41df-afb7-7d3991cd459b","countryCode":"IN","state":"02323f9d-445a-47a8-9144-35d6cb646d07","stateCode":"AP","latitude":"16.66667000","longitude":"81.00000000"},{"id":"086eebe6-f61f-4d23-8ed1-26bc5e334eea","name":"Kuppam","ru":"Kuppam","country":"3b6c20fe-3756-41df-afb7-7d3991cd459b","countryCode":"IN","state":"02323f9d-445a-47a8-9144-35d6cb646d07","stateCode":"AP","latitude":"12.74931000","longitude":"78.34189000"},{"id":"1e348312-ea78-4a6f-821f-b38559c351fc","name":"Kurnool","ru":"Kurnool","country":"3b6c20fe-3756-41df-afb7-7d3991cd459b","countryCode":"IN","state":"02323f9d-445a-47a8-9144-35d6cb646d07","stateCode":"AP","latitude":"15.58333000","longitude":"78.33333000"},{"id":"932d396c-4606-4e70-bcdb-52181b371ab7","name":"Machilīpatnam","ru":"Machilīpatnam","country":"3b6c20fe-3756-41df-afb7-7d3991cd459b","countryCode":"IN","state":"02323f9d-445a-47a8-9144-35d6cb646d07","stateCode":"AP","latitude":"16.18747000","longitude":"81.13888000"},{"id":"fe234ffb-9696-49c2-88a4-5d9d66d47398","name":"Madanapalle","ru":"Madanapalle","country":"3b6c20fe-3756-41df-afb7-7d3991cd459b","countryCode":"IN","state":"02323f9d-445a-47a8-9144-35d6cb646d07","stateCode":"AP","latitude":"13.55030000","longitude":"78.50288000"},{"id":"6515145f-ca37-49c2-8783-0a9652682945","name":"Mandapeta","ru":"Mandapeta","country":"3b6c20fe-3756-41df-afb7-7d3991cd459b","countryCode":"IN","state":"02323f9d-445a-47a8-9144-35d6cb646d07","stateCode":"AP","latitude":"16.86254000","longitude":"81.92921000"},{"id":"4a6eaa37-adbf-44f2-92e8-74d09f951481","name":"Mandasa","ru":"Mandasa","country":"3b6c20fe-3756-41df-afb7-7d3991cd459b","countryCode":"IN","state":"02323f9d-445a-47a8-9144-35d6cb646d07","stateCode":"AP","latitude":"18.86830000","longitude":"84.46296000"},{"id":"ba9b77f6-4708-4238-8fbd-19ae3b4b1217","name":"Mangalagiri","ru":"Mangalagiri","country":"3b6c20fe-3756-41df-afb7-7d3991cd459b","countryCode":"IN","state":"02323f9d-445a-47a8-9144-35d6cb646d07","stateCode":"AP","latitude":"16.43083000","longitude":"80.56815000"},{"id":"3487c752-28fd-4eb7-bae0-8626e8c160d8","name":"Mācherla","ru":"Mācherla","country":"3b6c20fe-3756-41df-afb7-7d3991cd459b","countryCode":"IN","state":"02323f9d-445a-47a8-9144-35d6cb646d07","stateCode":"AP","latitude":"16.47635000","longitude":"79.43533000"},{"id":"e3d1de55-4de8-4849-8b1c-0fdc04a3221f","name":"Mādugula","ru":"Mādugula","country":"3b6c20fe-3756-41df-afb7-7d3991cd459b","countryCode":"IN","state":"02323f9d-445a-47a8-9144-35d6cb646d07","stateCode":"AP","latitude":"17.91589000","longitude":"82.81578000"},{"id":"41ecc799-55af-420a-9ad7-89f57633429d","name":"Mārkāpur","ru":"Mārkāpur","country":"3b6c20fe-3756-41df-afb7-7d3991cd459b","countryCode":"IN","state":"02323f9d-445a-47a8-9144-35d6cb646d07","stateCode":"AP","latitude":"15.73534000","longitude":"79.26848000"},{"id":"1aa086d9-9f02-42d8-adaa-3ef2849388e4","name":"Nagari","ru":"Nagari","country":"3b6c20fe-3756-41df-afb7-7d3991cd459b","countryCode":"IN","state":"02323f9d-445a-47a8-9144-35d6cb646d07","stateCode":"AP","latitude":"13.32139000","longitude":"79.58557000"},{"id":"009c1d3e-044f-408d-af77-19fd5a3866b3","name":"Nandigāma","ru":"Nandigāma","country":"3b6c20fe-3756-41df-afb7-7d3991cd459b","countryCode":"IN","state":"02323f9d-445a-47a8-9144-35d6cb646d07","stateCode":"AP","latitude":"16.77170000","longitude":"80.28596000"},{"id":"7abbdd7f-05fe-410b-b14f-d2af3a2293bf","name":"Nandikotkūr","ru":"Nandikotkūr","country":"3b6c20fe-3756-41df-afb7-7d3991cd459b","countryCode":"IN","state":"02323f9d-445a-47a8-9144-35d6cb646d07","stateCode":"AP","latitude":"15.85668000","longitude":"78.26569000"},{"id":"7a57298d-8354-439a-86c9-b361c1121081","name":"Nandyāl","ru":"Nandyāl","country":"3b6c20fe-3756-41df-afb7-7d3991cd459b","countryCode":"IN","state":"02323f9d-445a-47a8-9144-35d6cb646d07","stateCode":"AP","latitude":"15.47799000","longitude":"78.48360000"},{"id":"103f7364-ea69-438d-95f0-36ea05812645","name":"Narasannapeta","ru":"Narasannapeta","country":"3b6c20fe-3756-41df-afb7-7d3991cd459b","countryCode":"IN","state":"02323f9d-445a-47a8-9144-35d6cb646d07","stateCode":"AP","latitude":"18.41428000","longitude":"84.04463000"},{"id":"d0925059-e84f-4989-988c-73943be5afbf","name":"Narasapur","ru":"Narasapur","country":"3b6c20fe-3756-41df-afb7-7d3991cd459b","countryCode":"IN","state":"02323f9d-445a-47a8-9144-35d6cb646d07","stateCode":"AP","latitude":"16.43425000","longitude":"81.69845000"},{"id":"730834dc-e276-47d9-9476-a0e9cd2fa66d","name":"Narasaraopet","ru":"Narasaraopet","country":"3b6c20fe-3756-41df-afb7-7d3991cd459b","countryCode":"IN","state":"02323f9d-445a-47a8-9144-35d6cb646d07","stateCode":"AP","latitude":"16.23488000","longitude":"80.04927000"},{"id":"7d7ef2e6-aa01-4fce-ae4c-49a234561373","name":"Narasingāpuram","ru":"Narasingāpuram","country":"3b6c20fe-3756-41df-afb7-7d3991cd459b","countryCode":"IN","state":"02323f9d-445a-47a8-9144-35d6cb646d07","stateCode":"AP","latitude":"13.60759000","longitude":"79.31652000"},{"id":"01bef52b-0f89-4f56-bfed-86caa0e601ea","name":"Narsīpatnam","ru":"Narsīpatnam","country":"3b6c20fe-3756-41df-afb7-7d3991cd459b","countryCode":"IN","state":"02323f9d-445a-47a8-9144-35d6cb646d07","stateCode":"AP","latitude":"17.66709000","longitude":"82.61245000"},{"id":"417145d7-ed52-45af-91ac-756fc807fe0e","name":"Nāgireddipalli","ru":"Nāgireddipalli","country":"3b6c20fe-3756-41df-afb7-7d3991cd459b","countryCode":"IN","state":"02323f9d-445a-47a8-9144-35d6cb646d07","stateCode":"AP","latitude":"14.27005000","longitude":"79.10131000"},{"id":"1e00c4cc-885c-4fe0-8aae-e815e199dbf5","name":"Nārāyanavanam","ru":"Nārāyanavanam","country":"3b6c20fe-3756-41df-afb7-7d3991cd459b","countryCode":"IN","state":"02323f9d-445a-47a8-9144-35d6cb646d07","stateCode":"AP","latitude":"13.42565000","longitude":"79.58881000"},{"id":"8fa3f5f4-3f22-465c-a03e-3488d479941e","name":"Nāyudupet","ru":"Nāyudupet","country":"3b6c20fe-3756-41df-afb7-7d3991cd459b","countryCode":"IN","state":"02323f9d-445a-47a8-9144-35d6cb646d07","stateCode":"AP","latitude":"13.90742000","longitude":"79.89465000"},{"id":"9b389b8e-2457-4bcf-b621-106a9de313cf","name":"Nūzvīd","ru":"Nūzvīd","country":"3b6c20fe-3756-41df-afb7-7d3991cd459b","countryCode":"IN","state":"02323f9d-445a-47a8-9144-35d6cb646d07","stateCode":"AP","latitude":"16.78854000","longitude":"80.84593000"},{"id":"e7ce1885-b8f2-4e64-aeec-481067d28cc4","name":"Nellore","ru":"Nellore","country":"3b6c20fe-3756-41df-afb7-7d3991cd459b","countryCode":"IN","state":"02323f9d-445a-47a8-9144-35d6cb646d07","stateCode":"AP","latitude":"14.08333000","longitude":"79.58333000"},{"id":"2fcbbfd9-d67c-4a1d-9f72-d3cc5e4cb3b3","name":"Nidadavole","ru":"Nidadavole","country":"3b6c20fe-3756-41df-afb7-7d3991cd459b","countryCode":"IN","state":"02323f9d-445a-47a8-9144-35d6cb646d07","stateCode":"AP","latitude":"16.90572000","longitude":"81.67222000"},{"id":"e56f95e9-3701-47cd-b06f-7ec66dd9801c","name":"Ongole","ru":"Ongole","country":"3b6c20fe-3756-41df-afb7-7d3991cd459b","countryCode":"IN","state":"02323f9d-445a-47a8-9144-35d6cb646d07","stateCode":"AP","latitude":"15.50357000","longitude":"80.04454000"},{"id":"a607d102-dd37-4e04-8868-c28601e3048b","name":"Palāsa","ru":"Palāsa","country":"3b6c20fe-3756-41df-afb7-7d3991cd459b","countryCode":"IN","state":"02323f9d-445a-47a8-9144-35d6cb646d07","stateCode":"AP","latitude":"18.77257000","longitude":"84.41012000"},{"id":"cc20c5db-857e-4814-9fb5-e551212a9dcb","name":"Pallevāda","ru":"Pallevāda","country":"3b6c20fe-3756-41df-afb7-7d3991cd459b","countryCode":"IN","state":"02323f9d-445a-47a8-9144-35d6cb646d07","stateCode":"AP","latitude":"16.57790000","longitude":"81.29463000"},{"id":"168bf430-a90e-44fe-bfa1-0011af16404b","name":"Palmaner","ru":"Palmaner","country":"3b6c20fe-3756-41df-afb7-7d3991cd459b","countryCode":"IN","state":"02323f9d-445a-47a8-9144-35d6cb646d07","stateCode":"AP","latitude":"13.20000000","longitude":"78.74725000"},{"id":"da7d8e8a-415a-420f-89c6-39901078ed70","name":"Parlākimidi","ru":"Parlākimidi","country":"3b6c20fe-3756-41df-afb7-7d3991cd459b","countryCode":"IN","state":"02323f9d-445a-47a8-9144-35d6cb646d07","stateCode":"AP","latitude":"18.78113000","longitude":"84.08836000"},{"id":"6d6d8646-b99c-428e-8277-36672323dd32","name":"Pavuluru","ru":"Pavuluru","country":"3b6c20fe-3756-41df-afb7-7d3991cd459b","countryCode":"IN","state":"02323f9d-445a-47a8-9144-35d6cb646d07","stateCode":"AP","latitude":"15.85292000","longitude":"80.16468000"},{"id":"b0e820c5-4124-4728-aa9a-236ebdbd2b7b","name":"Pākāla","ru":"Pākāla","country":"3b6c20fe-3756-41df-afb7-7d3991cd459b","countryCode":"IN","state":"02323f9d-445a-47a8-9144-35d6cb646d07","stateCode":"AP","latitude":"13.44903000","longitude":"79.11493000"},{"id":"f4c1e912-2bf1-4b6e-93b3-a6f7d6401705","name":"Pālakollu","ru":"Pālakollu","country":"3b6c20fe-3756-41df-afb7-7d3991cd459b","countryCode":"IN","state":"02323f9d-445a-47a8-9144-35d6cb646d07","stateCode":"AP","latitude":"16.51670000","longitude":"81.73000000"},{"id":"d28f0ef5-e25c-451a-8b35-ccd37b5a0d58","name":"Pālkonda","ru":"Pālkonda","country":"3b6c20fe-3756-41df-afb7-7d3991cd459b","countryCode":"IN","state":"02323f9d-445a-47a8-9144-35d6cb646d07","stateCode":"AP","latitude":"18.60374000","longitude":"83.75568000"},{"id":"c5a94c9f-f48a-4a86-99c2-7d0e2e6ff6cd","name":"Pārvatipuram","ru":"Pārvatipuram","country":"3b6c20fe-3756-41df-afb7-7d3991cd459b","countryCode":"IN","state":"02323f9d-445a-47a8-9144-35d6cb646d07","stateCode":"AP","latitude":"18.78392000","longitude":"83.42569000"},{"id":"62eeec51-4679-47d2-9e06-57585506dc16","name":"Pedana","ru":"Pedana","country":"3b6c20fe-3756-41df-afb7-7d3991cd459b","countryCode":"IN","state":"02323f9d-445a-47a8-9144-35d6cb646d07","stateCode":"AP","latitude":"16.25582000","longitude":"81.14378000"},{"id":"942b388e-d024-453a-9e99-4924f90d63c8","name":"pedda nakkalapalem","ru":"pedda nakkalapalem","country":"3b6c20fe-3756-41df-afb7-7d3991cd459b","countryCode":"IN","state":"02323f9d-445a-47a8-9144-35d6cb646d07","stateCode":"AP","latitude":"15.86680000","longitude":"80.16202000"},{"id":"ab244e08-fc8b-4e2a-921c-125960ba4857","name":"Peddāpuram","ru":"Peddāpuram","country":"3b6c20fe-3756-41df-afb7-7d3991cd459b","countryCode":"IN","state":"02323f9d-445a-47a8-9144-35d6cb646d07","stateCode":"AP","latitude":"17.07701000","longitude":"82.13836000"},{"id":"dfda5d3d-9155-4628-b21c-a1d0c8d82825","name":"Penugonda","ru":"Penugonda","country":"3b6c20fe-3756-41df-afb7-7d3991cd459b","countryCode":"IN","state":"02323f9d-445a-47a8-9144-35d6cb646d07","stateCode":"AP","latitude":"16.65363000","longitude":"81.74550000"},{"id":"769fcafa-2db0-42b6-b260-b74c1cb43d9b","name":"Penukonda","ru":"Penukonda","country":"3b6c20fe-3756-41df-afb7-7d3991cd459b","countryCode":"IN","state":"02323f9d-445a-47a8-9144-35d6cb646d07","stateCode":"AP","latitude":"14.08286000","longitude":"77.59473000"},{"id":"0603863a-730b-453e-8d3f-15c8b893d1a2","name":"Phirangipuram","ru":"Phirangipuram","country":"3b6c20fe-3756-41df-afb7-7d3991cd459b","countryCode":"IN","state":"02323f9d-445a-47a8-9144-35d6cb646d07","stateCode":"AP","latitude":"16.29078000","longitude":"80.26233000"},{"id":"fc62829a-8839-4aae-be8f-53021a6e1bbe","name":"Pippara","ru":"Pippara","country":"3b6c20fe-3756-41df-afb7-7d3991cd459b","countryCode":"IN","state":"02323f9d-445a-47a8-9144-35d6cb646d07","stateCode":"AP","latitude":"16.71667000","longitude":"81.55000000"},{"id":"a78d7f45-c7fd-435d-a602-d91f51501689","name":"Pithāpuram","ru":"Pithāpuram","country":"3b6c20fe-3756-41df-afb7-7d3991cd459b","countryCode":"IN","state":"02323f9d-445a-47a8-9144-35d6cb646d07","stateCode":"AP","latitude":"17.11680000","longitude":"82.25284000"},{"id":"c7fce83d-8570-453b-90c6-815639a6e3e0","name":"Polavaram","ru":"Polavaram","country":"3b6c20fe-3756-41df-afb7-7d3991cd459b","countryCode":"IN","state":"02323f9d-445a-47a8-9144-35d6cb646d07","stateCode":"AP","latitude":"17.24754000","longitude":"81.64372000"},{"id":"1aa093f7-0c84-4ae7-b1b9-b1967b38c8a7","name":"Ponnūru","ru":"Ponnūru","country":"3b6c20fe-3756-41df-afb7-7d3991cd459b","countryCode":"IN","state":"02323f9d-445a-47a8-9144-35d6cb646d07","stateCode":"AP","latitude":"16.06547000","longitude":"80.55203000"},{"id":"dc3b183c-4752-44ca-a4a1-f30f1f6be824","name":"Ponnur","ru":"Ponnur","country":"3b6c20fe-3756-41df-afb7-7d3991cd459b","countryCode":"IN","state":"02323f9d-445a-47a8-9144-35d6cb646d07","stateCode":"AP","latitude":"16.07114000","longitude":"80.54944000"},{"id":"931405f4-53af-43f7-8b60-196646c9d120","name":"Prakasam","ru":"Prakasam","country":"3b6c20fe-3756-41df-afb7-7d3991cd459b","countryCode":"IN","state":"02323f9d-445a-47a8-9144-35d6cb646d07","stateCode":"AP","latitude":"15.50000000","longitude":"79.50000000"},{"id":"424818cc-b82d-4793-8841-10d7eabdbd72","name":"Proddatūr","ru":"Proddatūr","country":"3b6c20fe-3756-41df-afb7-7d3991cd459b","countryCode":"IN","state":"02323f9d-445a-47a8-9144-35d6cb646d07","stateCode":"AP","latitude":"14.75020000","longitude":"78.54813000"},{"id":"1264b80b-a501-4de3-8067-a92fc36e50cf","name":"Pulivendla","ru":"Pulivendla","country":"3b6c20fe-3756-41df-afb7-7d3991cd459b","countryCode":"IN","state":"02323f9d-445a-47a8-9144-35d6cb646d07","stateCode":"AP","latitude":"14.42139000","longitude":"78.22502000"},{"id":"a333e35e-2215-42f6-b41f-1b089d27fd4d","name":"Punganūru","ru":"Punganūru","country":"3b6c20fe-3756-41df-afb7-7d3991cd459b","countryCode":"IN","state":"02323f9d-445a-47a8-9144-35d6cb646d07","stateCode":"AP","latitude":"13.36672000","longitude":"78.57186000"},{"id":"ec7d2b21-23b1-47c1-950a-bba5301406d6","name":"Puttaparthi","ru":"Puttaparthi","country":"3b6c20fe-3756-41df-afb7-7d3991cd459b","countryCode":"IN","state":"02323f9d-445a-47a8-9144-35d6cb646d07","stateCode":"AP","latitude":"14.16520000","longitude":"77.81170000"},{"id":"26899d41-f577-4023-9981-d5f92b1ac36b","name":"Puttūr","ru":"Puttūr","country":"3b6c20fe-3756-41df-afb7-7d3991cd459b","countryCode":"IN","state":"02323f9d-445a-47a8-9144-35d6cb646d07","stateCode":"AP","latitude":"13.44189000","longitude":"79.55314000"},{"id":"ef025b0e-b134-4d33-adf9-5a18cd78d549","name":"Ramanayyapeta","ru":"Ramanayyapeta","country":"3b6c20fe-3756-41df-afb7-7d3991cd459b","countryCode":"IN","state":"02323f9d-445a-47a8-9144-35d6cb646d07","stateCode":"AP","latitude":"16.94516000","longitude":"82.23850000"},{"id":"384d8472-01f5-4d1e-a1ad-b85567a03fa8","name":"Rampachodavaram","ru":"Rampachodavaram","country":"3b6c20fe-3756-41df-afb7-7d3991cd459b","countryCode":"IN","state":"02323f9d-445a-47a8-9144-35d6cb646d07","stateCode":"AP","latitude":"17.44088000","longitude":"81.77558000"},{"id":"c6e43f2a-6595-4c3a-b852-f4fd03182d52","name":"Rājahmundry","ru":"Rājahmundry","country":"3b6c20fe-3756-41df-afb7-7d3991cd459b","countryCode":"IN","state":"02323f9d-445a-47a8-9144-35d6cb646d07","stateCode":"AP","latitude":"17.00517000","longitude":"81.77784000"},{"id":"2fc7b69e-b95c-4573-84ed-971c1b9d55e9","name":"Rāmachandrapuram","ru":"Rāmachandrapuram","country":"3b6c20fe-3756-41df-afb7-7d3991cd459b","countryCode":"IN","state":"02323f9d-445a-47a8-9144-35d6cb646d07","stateCode":"AP","latitude":"16.83636000","longitude":"82.02871000"},{"id":"506c7f38-59de-4c95-bc82-e35c6f00db14","name":"Rāmāpuram","ru":"Rāmāpuram","country":"3b6c20fe-3756-41df-afb7-7d3991cd459b","countryCode":"IN","state":"02323f9d-445a-47a8-9144-35d6cb646d07","stateCode":"AP","latitude":"15.28749000","longitude":"77.86722000"},{"id":"8ee0f6c9-a720-45aa-96cc-a171ba0e8ff0","name":"Rāyachoti","ru":"Rāyachoti","country":"3b6c20fe-3756-41df-afb7-7d3991cd459b","countryCode":"IN","state":"02323f9d-445a-47a8-9144-35d6cb646d07","stateCode":"AP","latitude":"14.05723000","longitude":"78.75056000"},{"id":"70f637ba-6593-47c3-8d00-af9dbdb4b01f","name":"Rāyadrug","ru":"Rāyadrug","country":"3b6c20fe-3756-41df-afb7-7d3991cd459b","countryCode":"IN","state":"02323f9d-445a-47a8-9144-35d6cb646d07","stateCode":"AP","latitude":"14.69971000","longitude":"76.85241000"},{"id":"4dc91e5c-6e0c-406e-858c-1502417fb404","name":"Rāzampeta","ru":"Rāzampeta","country":"3b6c20fe-3756-41df-afb7-7d3991cd459b","countryCode":"IN","state":"02323f9d-445a-47a8-9144-35d6cb646d07","stateCode":"AP","latitude":"14.19544000","longitude":"79.15896000"},{"id":"ac9cc1a9-4651-4d80-bc68-9aef0512bd58","name":"Rāzām","ru":"Rāzām","country":"3b6c20fe-3756-41df-afb7-7d3991cd459b","countryCode":"IN","state":"02323f9d-445a-47a8-9144-35d6cb646d07","stateCode":"AP","latitude":"18.44909000","longitude":"83.65957000"},{"id":"5a8f9f19-cfe1-4896-8ab3-0d38b4d4ea62","name":"Rāzole","ru":"Rāzole","country":"3b6c20fe-3756-41df-afb7-7d3991cd459b","countryCode":"IN","state":"02323f9d-445a-47a8-9144-35d6cb646d07","stateCode":"AP","latitude":"16.47608000","longitude":"81.83912000"},{"id":"3730fa95-6643-40b9-8860-db355a2f7798","name":"Renigunta","ru":"Renigunta","country":"3b6c20fe-3756-41df-afb7-7d3991cd459b","countryCode":"IN","state":"02323f9d-445a-47a8-9144-35d6cb646d07","stateCode":"AP","latitude":"13.65143000","longitude":"79.51256000"},{"id":"e56e0e43-a365-4b05-9446-8edcc0db2aaa","name":"Repalle","ru":"Repalle","country":"3b6c20fe-3756-41df-afb7-7d3991cd459b","countryCode":"IN","state":"02323f9d-445a-47a8-9144-35d6cb646d07","stateCode":"AP","latitude":"16.01840000","longitude":"80.82958000"},{"id":"157972ff-37b3-4fa3-a4d8-8e5427483441","name":"Sattenapalle","ru":"Sattenapalle","country":"3b6c20fe-3756-41df-afb7-7d3991cd459b","countryCode":"IN","state":"02323f9d-445a-47a8-9144-35d6cb646d07","stateCode":"AP","latitude":"16.39381000","longitude":"80.15221000"},{"id":"a737c0a6-4586-4218-afea-0f102ea65fb1","name":"Sālūr","ru":"Sālūr","country":"3b6c20fe-3756-41df-afb7-7d3991cd459b","countryCode":"IN","state":"02323f9d-445a-47a8-9144-35d6cb646d07","stateCode":"AP","latitude":"18.51716000","longitude":"83.20548000"},{"id":"c7622d9e-458e-4034-b01a-36b18d1a46cf","name":"Sāmalkot","ru":"Sāmalkot","country":"3b6c20fe-3756-41df-afb7-7d3991cd459b","countryCode":"IN","state":"02323f9d-445a-47a8-9144-35d6cb646d07","stateCode":"AP","latitude":"17.05675000","longitude":"82.17639000"},{"id":"7b5e2571-af37-4989-9ef1-fa8dee1a034c","name":"Sūlūru","ru":"Sūlūru","country":"3b6c20fe-3756-41df-afb7-7d3991cd459b","countryCode":"IN","state":"02323f9d-445a-47a8-9144-35d6cb646d07","stateCode":"AP","latitude":"13.70000000","longitude":"80.01667000"},{"id":"6c4d7c5e-0e73-4b7b-9e38-a4dc14c69272","name":"Singarāyakonda","ru":"Singarāyakonda","country":"3b6c20fe-3756-41df-afb7-7d3991cd459b","countryCode":"IN","state":"02323f9d-445a-47a8-9144-35d6cb646d07","stateCode":"AP","latitude":"15.23046000","longitude":"80.02794000"},{"id":"c42afd5b-5b92-4024-afa9-f809e33c394b","name":"Sompeta","ru":"Sompeta","country":"3b6c20fe-3756-41df-afb7-7d3991cd459b","countryCode":"IN","state":"02323f9d-445a-47a8-9144-35d6cb646d07","stateCode":"AP","latitude":"18.94419000","longitude":"84.58449000"},{"id":"c32e573d-a63c-4435-b561-9166456b25be","name":"Srīkākulam","ru":"Srīkākulam","country":"3b6c20fe-3756-41df-afb7-7d3991cd459b","countryCode":"IN","state":"02323f9d-445a-47a8-9144-35d6cb646d07","stateCode":"AP","latitude":"18.50000000","longitude":"84.00000000"},{"id":"8f1d041a-d107-408c-b3dc-ad11b17698b5","name":"Srīsailain","ru":"Srīsailain","country":"3b6c20fe-3756-41df-afb7-7d3991cd459b","countryCode":"IN","state":"02323f9d-445a-47a8-9144-35d6cb646d07","stateCode":"AP","latitude":"16.07217000","longitude":"78.86816000"},{"id":"ba6768c4-0036-42fa-b75b-f925d1d412b6","name":"Srikakulam","ru":"Srikakulam","country":"3b6c20fe-3756-41df-afb7-7d3991cd459b","countryCode":"IN","state":"02323f9d-445a-47a8-9144-35d6cb646d07","stateCode":"AP","latitude":"18.29890000","longitude":"83.89751000"},{"id":"b54a0a67-8965-4c8a-af93-f4b262f301ae","name":"Tanuku","ru":"Tanuku","country":"3b6c20fe-3756-41df-afb7-7d3991cd459b","countryCode":"IN","state":"02323f9d-445a-47a8-9144-35d6cb646d07","stateCode":"AP","latitude":"16.75438000","longitude":"81.68143000"},{"id":"03927727-89ea-496d-95db-12ac8578cb0b","name":"Tādepalle","ru":"Tādepalle","country":"3b6c20fe-3756-41df-afb7-7d3991cd459b","countryCode":"IN","state":"02323f9d-445a-47a8-9144-35d6cb646d07","stateCode":"AP","latitude":"16.48333000","longitude":"80.60000000"},{"id":"3f0af8ed-b5d6-450a-ad34-22eca0f5ece4","name":"Tādepallegūdem","ru":"Tādepallegūdem","country":"3b6c20fe-3756-41df-afb7-7d3991cd459b","countryCode":"IN","state":"02323f9d-445a-47a8-9144-35d6cb646d07","stateCode":"AP","latitude":"16.81467000","longitude":"81.52717000"},{"id":"18bf2b57-9e04-4ea9-84aa-2212b563a74f","name":"Tādpatri","ru":"Tādpatri","country":"3b6c20fe-3756-41df-afb7-7d3991cd459b","countryCode":"IN","state":"02323f9d-445a-47a8-9144-35d6cb646d07","stateCode":"AP","latitude":"14.90832000","longitude":"78.01031000"},{"id":"43e2635d-c10b-49fd-8959-7f2a48e3c28a","name":"Tekkali","ru":"Tekkali","country":"3b6c20fe-3756-41df-afb7-7d3991cd459b","countryCode":"IN","state":"02323f9d-445a-47a8-9144-35d6cb646d07","stateCode":"AP","latitude":"18.60570000","longitude":"84.23546000"},{"id":"d3adacbd-5760-4398-8536-133e88104ed4","name":"Tirumala","ru":"Tirumala","country":"3b6c20fe-3756-41df-afb7-7d3991cd459b","countryCode":"IN","state":"02323f9d-445a-47a8-9144-35d6cb646d07","stateCode":"AP","latitude":"13.68333000","longitude":"79.35000000"},{"id":"2822a765-b8da-452f-99bd-6e8b56f0db2f","name":"Tirupati","ru":"Tirupati","country":"3b6c20fe-3756-41df-afb7-7d3991cd459b","countryCode":"IN","state":"02323f9d-445a-47a8-9144-35d6cb646d07","stateCode":"AP","latitude":"13.63551000","longitude":"79.41989000"},{"id":"1bae7d86-efac-4378-a17b-e83076be4ead","name":"Tuni","ru":"Tuni","country":"3b6c20fe-3756-41df-afb7-7d3991cd459b","countryCode":"IN","state":"02323f9d-445a-47a8-9144-35d6cb646d07","stateCode":"AP","latitude":"17.35905000","longitude":"82.54607000"},{"id":"e4ce7d20-bbeb-4ded-bc25-3ac54906cb7a","name":"Uravakonda","ru":"Uravakonda","country":"3b6c20fe-3756-41df-afb7-7d3991cd459b","countryCode":"IN","state":"02323f9d-445a-47a8-9144-35d6cb646d07","stateCode":"AP","latitude":"14.94348000","longitude":"77.25494000"},{"id":"8112a9e0-5728-48ff-b7f5-88e013ddb754","name":"vadlamuru","ru":"vadlamuru","country":"3b6c20fe-3756-41df-afb7-7d3991cd459b","countryCode":"IN","state":"02323f9d-445a-47a8-9144-35d6cb646d07","stateCode":"AP","latitude":"17.09545000","longitude":"82.16565000"},{"id":"e7f08cad-c63b-4a4e-a110-cfca977a7988","name":"Vadlapūdi","ru":"Vadlapūdi","country":"3b6c20fe-3756-41df-afb7-7d3991cd459b","countryCode":"IN","state":"02323f9d-445a-47a8-9144-35d6cb646d07","stateCode":"AP","latitude":"14.31119000","longitude":"79.80430000"},{"id":"638e1f95-b7ac-4b6f-849f-6274d3053c65","name":"Venkatagiri","ru":"Venkatagiri","country":"3b6c20fe-3756-41df-afb7-7d3991cd459b","countryCode":"IN","state":"02323f9d-445a-47a8-9144-35d6cb646d07","stateCode":"AP","latitude":"13.96005000","longitude":"79.58032000"},{"id":"99c34030-7d77-46b4-a485-4d9e6072e77c","name":"Vepagunta","ru":"Vepagunta","country":"3b6c20fe-3756-41df-afb7-7d3991cd459b","countryCode":"IN","state":"02323f9d-445a-47a8-9144-35d6cb646d07","stateCode":"AP","latitude":"17.77844000","longitude":"83.21577000"},{"id":"f98b8985-44f0-442a-8109-26c2b2ab8516","name":"Vetapālem","ru":"Vetapālem","country":"3b6c20fe-3756-41df-afb7-7d3991cd459b","countryCode":"IN","state":"02323f9d-445a-47a8-9144-35d6cb646d07","stateCode":"AP","latitude":"15.78502000","longitude":"80.30663000"},{"id":"15c95b16-5c03-4655-97d8-5f20a8ef0a6f","name":"Vijayawada","ru":"Vijayawada","country":"3b6c20fe-3756-41df-afb7-7d3991cd459b","countryCode":"IN","state":"02323f9d-445a-47a8-9144-35d6cb646d07","stateCode":"AP","latitude":"16.50745000","longitude":"80.64660000"},{"id":"e64e49a8-7aeb-4cbb-a098-ee2997f2ec0c","name":"Vinukonda","ru":"Vinukonda","country":"3b6c20fe-3756-41df-afb7-7d3991cd459b","countryCode":"IN","state":"02323f9d-445a-47a8-9144-35d6cb646d07","stateCode":"AP","latitude":"16.05310000","longitude":"79.73964000"},{"id":"85d2fbbf-2508-47bb-af04-c46a78a8c51c","name":"Visakhapatnam","ru":"Visakhapatnam","country":"3b6c20fe-3756-41df-afb7-7d3991cd459b","countryCode":"IN","state":"02323f9d-445a-47a8-9144-35d6cb646d07","stateCode":"AP","latitude":"17.68009000","longitude":"83.20161000"},{"id":"98890b17-126c-4588-aec9-2616b79e19db","name":"Vishākhapatnam","ru":"Vishākhapatnam","country":"3b6c20fe-3756-41df-afb7-7d3991cd459b","countryCode":"IN","state":"02323f9d-445a-47a8-9144-35d6cb646d07","stateCode":"AP","latitude":"17.73333000","longitude":"83.26667000"},{"id":"fd112fca-6f75-496d-9578-3ba313b53c37","name":"Vizianagaram","ru":"Vizianagaram","country":"3b6c20fe-3756-41df-afb7-7d3991cd459b","countryCode":"IN","state":"02323f9d-445a-47a8-9144-35d6cb646d07","stateCode":"AP","latitude":"18.11692000","longitude":"83.41148000"},{"id":"902b7bc0-033b-4b7b-bd20-853666d2dc40","name":"Vizianagaram District","ru":"Vizianagaram District","country":"3b6c20fe-3756-41df-afb7-7d3991cd459b","countryCode":"IN","state":"02323f9d-445a-47a8-9144-35d6cb646d07","stateCode":"AP","latitude":"18.41102000","longitude":"83.37677000"},{"id":"5147b544-252c-492c-8b41-afffa67853de","name":"Vuyyūru","ru":"Vuyyūru","country":"3b6c20fe-3756-41df-afb7-7d3991cd459b","countryCode":"IN","state":"02323f9d-445a-47a8-9144-35d6cb646d07","stateCode":"AP","latitude":"16.36307000","longitude":"80.84406000"},{"id":"2fe2e553-f082-46bd-a117-462af2cf76d2","name":"West Godāvari","ru":"West Godāvari","country":"3b6c20fe-3756-41df-afb7-7d3991cd459b","countryCode":"IN","state":"02323f9d-445a-47a8-9144-35d6cb646d07","stateCode":"AP","latitude":"17.00000000","longitude":"81.16667000"},{"id":"fd8bef80-f2ce-4257-be52-9d808b86088b","name":"Yanam","ru":"Yanam","country":"3b6c20fe-3756-41df-afb7-7d3991cd459b","countryCode":"IN","state":"02323f9d-445a-47a8-9144-35d6cb646d07","stateCode":"AP","latitude":"16.73308000","longitude":"82.21364000"},{"id":"4563a1dc-0d71-49d3-8bc0-cb3f075d7288","name":"Yanamalakuduru","ru":"Yanamalakuduru","country":"3b6c20fe-3756-41df-afb7-7d3991cd459b","countryCode":"IN","state":"02323f9d-445a-47a8-9144-35d6cb646d07","stateCode":"AP","latitude":"16.48531000","longitude":"80.66746000"},{"id":"6eb9631b-7f36-4ee2-b70a-9389395b1486","name":"Yārāda","ru":"Yārāda","country":"3b6c20fe-3756-41df-afb7-7d3991cd459b","countryCode":"IN","state":"02323f9d-445a-47a8-9144-35d6cb646d07","stateCode":"AP","latitude":"17.65872000","longitude":"83.27419000"},{"id":"9599f363-c28d-434f-9bcc-fb475bbbd078","name":"Along","ru":"Along","country":"3b6c20fe-3756-41df-afb7-7d3991cd459b","countryCode":"IN","state":"16a77faa-215c-41b2-b348-953ae212f51c","stateCode":"AR","latitude":"28.16951000","longitude":"94.80060000"},{"id":"9ce22081-9745-48e3-b0f8-dd2a481d19ef","name":"Anjaw","ru":"Anjaw","country":"3b6c20fe-3756-41df-afb7-7d3991cd459b","countryCode":"IN","state":"16a77faa-215c-41b2-b348-953ae212f51c","stateCode":"AR","latitude":"28.06549000","longitude":"96.82878000"},{"id":"6b22b530-4944-4f93-a28a-05af3f86000e","name":"Bāsār","ru":"Bāsār","country":"3b6c20fe-3756-41df-afb7-7d3991cd459b","countryCode":"IN","state":"16a77faa-215c-41b2-b348-953ae212f51c","stateCode":"AR","latitude":"27.99008000","longitude":"94.69451000"},{"id":"32fc0ff2-8e20-4290-bab3-ecc5e5e7216b","name":"Bomdila","ru":"Bomdila","country":"3b6c20fe-3756-41df-afb7-7d3991cd459b","countryCode":"IN","state":"16a77faa-215c-41b2-b348-953ae212f51c","stateCode":"AR","latitude":"27.26475000","longitude":"92.42472000"},{"id":"a83a6412-e0b3-4486-98f0-74ffe0063403","name":"Changlang","ru":"Changlang","country":"3b6c20fe-3756-41df-afb7-7d3991cd459b","countryCode":"IN","state":"16a77faa-215c-41b2-b348-953ae212f51c","stateCode":"AR","latitude":"27.36265000","longitude":"96.34518000"},{"id":"8fbcfb53-72a4-4ea2-8d4a-d837fb7e5a34","name":"Dibāng Valley","ru":"Dibāng Valley","country":"3b6c20fe-3756-41df-afb7-7d3991cd459b","countryCode":"IN","state":"16a77faa-215c-41b2-b348-953ae212f51c","stateCode":"AR","latitude":"28.70000000","longitude":"95.70000000"},{"id":"879ea8f3-8d03-458e-b07e-3ead634f037a","name":"East Kameng","ru":"East Kameng","country":"3b6c20fe-3756-41df-afb7-7d3991cd459b","countryCode":"IN","state":"16a77faa-215c-41b2-b348-953ae212f51c","stateCode":"AR","latitude":"27.30000000","longitude":"93.05000000"},{"id":"7d650a06-c488-4c15-a61a-d894b6d5f96f","name":"East Siang","ru":"East Siang","country":"3b6c20fe-3756-41df-afb7-7d3991cd459b","countryCode":"IN","state":"16a77faa-215c-41b2-b348-953ae212f51c","stateCode":"AR","latitude":"28.12379000","longitude":"95.16339000"},{"id":"9e2fcb74-de13-4907-b097-42f36fc1d0c9","name":"Hayuliang","ru":"Hayuliang","country":"3b6c20fe-3756-41df-afb7-7d3991cd459b","countryCode":"IN","state":"16a77faa-215c-41b2-b348-953ae212f51c","stateCode":"AR","latitude":"28.07301000","longitude":"96.54305000"},{"id":"8686f4bc-cb76-41c9-8b88-b99abb5bfca5","name":"Itānagar","ru":"Itānagar","country":"3b6c20fe-3756-41df-afb7-7d3991cd459b","countryCode":"IN","state":"16a77faa-215c-41b2-b348-953ae212f51c","stateCode":"AR","latitude":"27.08694000","longitude":"93.60987000"},{"id":"6d9d7218-8fe8-41cb-9282-a8f4099a3aaa","name":"Khonsa","ru":"Khonsa","country":"3b6c20fe-3756-41df-afb7-7d3991cd459b","countryCode":"IN","state":"16a77faa-215c-41b2-b348-953ae212f51c","stateCode":"AR","latitude":"27.01667000","longitude":"95.56667000"},{"id":"8328e851-371a-4286-90da-8d0894f6a666","name":"Kurung Kumey","ru":"Kurung Kumey","country":"3b6c20fe-3756-41df-afb7-7d3991cd459b","countryCode":"IN","state":"16a77faa-215c-41b2-b348-953ae212f51c","stateCode":"AR","latitude":"27.99983000","longitude":"93.39240000"},{"id":"de889b7e-a645-47ff-9ca5-3339ceb9b25a","name":"Lohit District","ru":"Lohit District","country":"3b6c20fe-3756-41df-afb7-7d3991cd459b","countryCode":"IN","state":"16a77faa-215c-41b2-b348-953ae212f51c","stateCode":"AR","latitude":"27.84012000","longitude":"96.19521000"},{"id":"2dcdf3e3-3f1f-467c-a0e9-b0229472ed1c","name":"Lower Dibang Valley","ru":"Lower Dibang Valley","country":"3b6c20fe-3756-41df-afb7-7d3991cd459b","countryCode":"IN","state":"16a77faa-215c-41b2-b348-953ae212f51c","stateCode":"AR","latitude":"28.37258000","longitude":"95.88040000"},{"id":"1274a208-c8f5-4bfd-867e-0640b7b1b902","name":"Lower Subansiri","ru":"Lower Subansiri","country":"3b6c20fe-3756-41df-afb7-7d3991cd459b","countryCode":"IN","state":"16a77faa-215c-41b2-b348-953ae212f51c","stateCode":"AR","latitude":"27.62554000","longitude":"93.93908000"},{"id":"c5d8ccea-b5eb-483f-b2b7-07ae6229c400","name":"Margherita","ru":"Margherita","country":"3b6c20fe-3756-41df-afb7-7d3991cd459b","countryCode":"IN","state":"16a77faa-215c-41b2-b348-953ae212f51c","stateCode":"AR","latitude":"27.28482000","longitude":"95.66796000"},{"id":"d627864f-a1bd-43f1-baff-94c2ff6fc117","name":"Naharlagun","ru":"Naharlagun","country":"3b6c20fe-3756-41df-afb7-7d3991cd459b","countryCode":"IN","state":"16a77faa-215c-41b2-b348-953ae212f51c","stateCode":"AR","latitude":"27.10467000","longitude":"93.69518000"},{"id":"f5bde6d6-d961-49ca-8b0a-c2baa731ba1c","name":"Pāsighāt","ru":"Pāsighāt","country":"3b6c20fe-3756-41df-afb7-7d3991cd459b","countryCode":"IN","state":"16a77faa-215c-41b2-b348-953ae212f51c","stateCode":"AR","latitude":"28.06631000","longitude":"95.32678000"},{"id":"0164bb6f-2f6a-4764-8439-fc09f774b59d","name":"Tawang","ru":"Tawang","country":"3b6c20fe-3756-41df-afb7-7d3991cd459b","countryCode":"IN","state":"16a77faa-215c-41b2-b348-953ae212f51c","stateCode":"AR","latitude":"27.57417000","longitude":"91.92437000"},{"id":"46ce7ce3-a876-443a-92df-a6d2625db75c","name":"Tezu","ru":"Tezu","country":"3b6c20fe-3756-41df-afb7-7d3991cd459b","countryCode":"IN","state":"16a77faa-215c-41b2-b348-953ae212f51c","stateCode":"AR","latitude":"27.91256000","longitude":"96.12882000"},{"id":"c7bf6a06-feb1-42da-bf15-bbabfbf847b0","name":"Tirāp","ru":"Tirāp","country":"3b6c20fe-3756-41df-afb7-7d3991cd459b","countryCode":"IN","state":"16a77faa-215c-41b2-b348-953ae212f51c","stateCode":"AR","latitude":"27.01917000","longitude":"95.51788000"},{"id":"1db9e6cd-6b25-4462-823a-f51b54c33990","name":"Upper Siang","ru":"Upper Siang","country":"3b6c20fe-3756-41df-afb7-7d3991cd459b","countryCode":"IN","state":"16a77faa-215c-41b2-b348-953ae212f51c","stateCode":"AR","latitude":"28.83355000","longitude":"94.91806000"},{"id":"4434a320-fe82-4d43-afc7-cc107fe7390a","name":"Upper Subansiri","ru":"Upper Subansiri","country":"3b6c20fe-3756-41df-afb7-7d3991cd459b","countryCode":"IN","state":"16a77faa-215c-41b2-b348-953ae212f51c","stateCode":"AR","latitude":"28.30000000","longitude":"94.00000000"},{"id":"8c350d25-c6e7-41f7-bc81-77576f25d83a","name":"West Kameng","ru":"West Kameng","country":"3b6c20fe-3756-41df-afb7-7d3991cd459b","countryCode":"IN","state":"16a77faa-215c-41b2-b348-953ae212f51c","stateCode":"AR","latitude":"27.40000000","longitude":"92.35000000"},{"id":"812abffe-2885-473b-95ff-39324f837b45","name":"West Siang","ru":"West Siang","country":"3b6c20fe-3756-41df-afb7-7d3991cd459b","countryCode":"IN","state":"16a77faa-215c-41b2-b348-953ae212f51c","stateCode":"AR","latitude":"28.40000000","longitude":"94.55000000"},{"id":"0e72c057-d6a0-4afd-bd6e-6ccb9d42d9c7","name":"Ziro","ru":"Ziro","country":"3b6c20fe-3756-41df-afb7-7d3991cd459b","countryCode":"IN","state":"16a77faa-215c-41b2-b348-953ae212f51c","stateCode":"AR","latitude":"27.59497000","longitude":"93.83854000"},{"id":"62a2d24c-9085-4971-8347-398f7f53a753","name":"Abhayāpuri","ru":"Abhayāpuri","country":"3b6c20fe-3756-41df-afb7-7d3991cd459b","countryCode":"IN","state":"86761816-c68e-4215-a5a2-707c918c3ad8","stateCode":"AS","latitude":"26.32255000","longitude":"90.68526000"},{"id":"0af1a0ae-339a-4bdd-8e46-b3ac63ce6fac","name":"Amguri","ru":"Amguri","country":"3b6c20fe-3756-41df-afb7-7d3991cd459b","countryCode":"IN","state":"86761816-c68e-4215-a5a2-707c918c3ad8","stateCode":"AS","latitude":"26.81482000","longitude":"94.52614000"},{"id":"d0a1a647-5298-48e1-b6d5-3084292e4c5c","name":"Badarpur","ru":"Badarpur","country":"3b6c20fe-3756-41df-afb7-7d3991cd459b","countryCode":"IN","state":"86761816-c68e-4215-a5a2-707c918c3ad8","stateCode":"AS","latitude":"24.86852000","longitude":"92.59606000"},{"id":"91a32324-6ada-4590-b8f3-863ff35a6792","name":"Baksa","ru":"Baksa","country":"3b6c20fe-3756-41df-afb7-7d3991cd459b","countryCode":"IN","state":"86761816-c68e-4215-a5a2-707c918c3ad8","stateCode":"AS","latitude":"26.69804000","longitude":"91.15142000"},{"id":"316b031e-386e-488b-813f-4ef0e09c230d","name":"Barpathār","ru":"Barpathār","country":"3b6c20fe-3756-41df-afb7-7d3991cd459b","countryCode":"IN","state":"86761816-c68e-4215-a5a2-707c918c3ad8","stateCode":"AS","latitude":"26.28709000","longitude":"93.88844000"},{"id":"fda39eb1-ee0c-45a2-ba67-6e470a77e742","name":"Barpeta","ru":"Barpeta","country":"3b6c20fe-3756-41df-afb7-7d3991cd459b","countryCode":"IN","state":"86761816-c68e-4215-a5a2-707c918c3ad8","stateCode":"AS","latitude":"26.47104000","longitude":"91.03080000"},{"id":"ac54c6b4-2853-48f9-ad55-288335426ca8","name":"Barpeta Road","ru":"Barpeta Road","country":"3b6c20fe-3756-41df-afb7-7d3991cd459b","countryCode":"IN","state":"86761816-c68e-4215-a5a2-707c918c3ad8","stateCode":"AS","latitude":"26.50284000","longitude":"90.96937000"},{"id":"4f365eac-d4d6-4b2f-93e5-868e59e8e08f","name":"Bāsugaon","ru":"Bāsugaon","country":"3b6c20fe-3756-41df-afb7-7d3991cd459b","countryCode":"IN","state":"86761816-c68e-4215-a5a2-707c918c3ad8","stateCode":"AS","latitude":"26.46742000","longitude":"90.41951000"},{"id":"9ae9c3ba-4f1c-4718-b124-178ed3f98043","name":"Bihpuriāgaon","ru":"Bihpuriāgaon","country":"3b6c20fe-3756-41df-afb7-7d3991cd459b","countryCode":"IN","state":"86761816-c68e-4215-a5a2-707c918c3ad8","stateCode":"AS","latitude":"27.01718000","longitude":"93.91673000"},{"id":"55746113-a3cd-4b29-8ebf-564553da9832","name":"Bijni","ru":"Bijni","country":"3b6c20fe-3756-41df-afb7-7d3991cd459b","countryCode":"IN","state":"86761816-c68e-4215-a5a2-707c918c3ad8","stateCode":"AS","latitude":"26.49588000","longitude":"90.70298000"},{"id":"25cacb3c-df37-4ec2-b1cc-c9485d205dc5","name":"Bilāsipāra","ru":"Bilāsipāra","country":"3b6c20fe-3756-41df-afb7-7d3991cd459b","countryCode":"IN","state":"86761816-c68e-4215-a5a2-707c918c3ad8","stateCode":"AS","latitude":"26.23285000","longitude":"90.23410000"},{"id":"2a283f13-b84a-44a8-a34b-611e7e9742df","name":"Bokajān","ru":"Bokajān","country":"3b6c20fe-3756-41df-afb7-7d3991cd459b","countryCode":"IN","state":"86761816-c68e-4215-a5a2-707c918c3ad8","stateCode":"AS","latitude":"26.02131000","longitude":"93.77945000"},{"id":"80807b15-6e82-4983-8c50-368d40f9e4c6","name":"Bokākhāt","ru":"Bokākhāt","country":"3b6c20fe-3756-41df-afb7-7d3991cd459b","countryCode":"IN","state":"86761816-c68e-4215-a5a2-707c918c3ad8","stateCode":"AS","latitude":"26.64018000","longitude":"93.60052000"},{"id":"c225fe40-a905-48bc-8e6d-92c7ac09cef3","name":"Bongaigaon","ru":"Bongaigaon","country":"3b6c20fe-3756-41df-afb7-7d3991cd459b","countryCode":"IN","state":"86761816-c68e-4215-a5a2-707c918c3ad8","stateCode":"AS","latitude":"26.46030000","longitude":"90.64640000"},{"id":"aee0a8d6-7926-4143-94f7-a088ce5e855a","name":"Cāchār","ru":"Cāchār","country":"3b6c20fe-3756-41df-afb7-7d3991cd459b","countryCode":"IN","state":"86761816-c68e-4215-a5a2-707c918c3ad8","stateCode":"AS","latitude":"24.78213000","longitude":"92.85771000"},{"id":"5e083d0f-3a48-42d5-bff8-28fec22fe7ca","name":"Chābua","ru":"Chābua","country":"3b6c20fe-3756-41df-afb7-7d3991cd459b","countryCode":"IN","state":"86761816-c68e-4215-a5a2-707c918c3ad8","stateCode":"AS","latitude":"27.48253000","longitude":"95.17451000"},{"id":"928dde07-1a35-4d69-a4bc-3cfc5e36d323","name":"Chāpar","ru":"Chāpar","country":"3b6c20fe-3756-41df-afb7-7d3991cd459b","countryCode":"IN","state":"86761816-c68e-4215-a5a2-707c918c3ad8","stateCode":"AS","latitude":"26.27266000","longitude":"90.44556000"},{"id":"b4321011-571b-4ba6-932f-954882412918","name":"Chirang","ru":"Chirang","country":"3b6c20fe-3756-41df-afb7-7d3991cd459b","countryCode":"IN","state":"86761816-c68e-4215-a5a2-707c918c3ad8","stateCode":"AS","latitude":"26.52527000","longitude":"90.49066000"},{"id":"b123e292-0537-4f0c-bcae-adaa71f19033","name":"Darrang","ru":"Darrang","country":"3b6c20fe-3756-41df-afb7-7d3991cd459b","countryCode":"IN","state":"86761816-c68e-4215-a5a2-707c918c3ad8","stateCode":"AS","latitude":"26.51195000","longitude":"92.16843000"},{"id":"6e55409c-c2a0-4d7d-90c2-2b1590f40501","name":"Dergaon","ru":"Dergaon","country":"3b6c20fe-3756-41df-afb7-7d3991cd459b","countryCode":"IN","state":"86761816-c68e-4215-a5a2-707c918c3ad8","stateCode":"AS","latitude":"26.70000000","longitude":"93.96667000"},{"id":"cdeb2161-1483-407b-ac97-c79e38311efc","name":"Dhekiajuli","ru":"Dhekiajuli","country":"3b6c20fe-3756-41df-afb7-7d3991cd459b","countryCode":"IN","state":"86761816-c68e-4215-a5a2-707c918c3ad8","stateCode":"AS","latitude":"26.70367000","longitude":"92.47808000"},{"id":"664c0888-1ae2-46b9-a80c-63870ab5bd1c","name":"Dhemaji","ru":"Dhemaji","country":"3b6c20fe-3756-41df-afb7-7d3991cd459b","countryCode":"IN","state":"86761816-c68e-4215-a5a2-707c918c3ad8","stateCode":"AS","latitude":"27.60910000","longitude":"94.79420000"},{"id":"271df192-e2d1-46bf-b207-2525db0c12d3","name":"Dhemāji","ru":"Dhemāji","country":"3b6c20fe-3756-41df-afb7-7d3991cd459b","countryCode":"IN","state":"86761816-c68e-4215-a5a2-707c918c3ad8","stateCode":"AS","latitude":"27.48333000","longitude":"94.58333000"},{"id":"b2ccbc6c-2ac9-44a6-ac07-eb388890d235","name":"Dhing","ru":"Dhing","country":"3b6c20fe-3756-41df-afb7-7d3991cd459b","countryCode":"IN","state":"86761816-c68e-4215-a5a2-707c918c3ad8","stateCode":"AS","latitude":"26.46793000","longitude":"92.47336000"},{"id":"7de184d4-893e-46b3-80d3-419ac268c5b3","name":"Dhubri","ru":"Dhubri","country":"3b6c20fe-3756-41df-afb7-7d3991cd459b","countryCode":"IN","state":"86761816-c68e-4215-a5a2-707c918c3ad8","stateCode":"AS","latitude":"26.06749000","longitude":"90.02238000"},{"id":"cc76fa0b-0ece-40f5-8ef3-0d1e439ca23e","name":"Dhuburi","ru":"Dhuburi","country":"3b6c20fe-3756-41df-afb7-7d3991cd459b","countryCode":"IN","state":"86761816-c68e-4215-a5a2-707c918c3ad8","stateCode":"AS","latitude":"26.01856000","longitude":"89.98564000"},{"id":"67bf3a84-1833-4c6a-946c-3b19fb848c1e","name":"Dibrugarh","ru":"Dibrugarh","country":"3b6c20fe-3756-41df-afb7-7d3991cd459b","countryCode":"IN","state":"86761816-c68e-4215-a5a2-707c918c3ad8","stateCode":"AS","latitude":"27.50000000","longitude":"95.00000000"},{"id":"aaea78b2-667b-4362-b82a-c041ad7a3915","name":"Digboi","ru":"Digboi","country":"3b6c20fe-3756-41df-afb7-7d3991cd459b","countryCode":"IN","state":"86761816-c68e-4215-a5a2-707c918c3ad8","stateCode":"AS","latitude":"27.39321000","longitude":"95.61839000"},{"id":"a942662a-652a-46b1-9355-7d5dbba57b3e","name":"Dima Hasao District","ru":"Dima Hasao District","country":"3b6c20fe-3756-41df-afb7-7d3991cd459b","countryCode":"IN","state":"86761816-c68e-4215-a5a2-707c918c3ad8","stateCode":"AS","latitude":"25.50000000","longitude":"93.00000000"},{"id":"338ad4fb-54b2-421f-bede-a0342e255d8c","name":"Diphu","ru":"Diphu","country":"3b6c20fe-3756-41df-afb7-7d3991cd459b","countryCode":"IN","state":"86761816-c68e-4215-a5a2-707c918c3ad8","stateCode":"AS","latitude":"25.84341000","longitude":"93.43116000"},{"id":"2502ec1e-9119-4567-b943-baae40d26b6b","name":"Dispur","ru":"Dispur","country":"3b6c20fe-3756-41df-afb7-7d3991cd459b","countryCode":"IN","state":"86761816-c68e-4215-a5a2-707c918c3ad8","stateCode":"AS","latitude":"26.13564000","longitude":"91.80069000"},{"id":"487e89f6-b2fa-4a01-964a-0a1d60cf1d93","name":"Duliāgaon","ru":"Duliāgaon","country":"3b6c20fe-3756-41df-afb7-7d3991cd459b","countryCode":"IN","state":"86761816-c68e-4215-a5a2-707c918c3ad8","stateCode":"AS","latitude":"27.37227000","longitude":"95.30754000"},{"id":"d2b6eafa-aaf8-4771-8225-cb705292019c","name":"Dum Duma","ru":"Dum Duma","country":"3b6c20fe-3756-41df-afb7-7d3991cd459b","countryCode":"IN","state":"86761816-c68e-4215-a5a2-707c918c3ad8","stateCode":"AS","latitude":"27.56884000","longitude":"95.55664000"},{"id":"9f5b2087-30f6-4e4d-8bae-4ec8a9189730","name":"Gauripur","ru":"Gauripur","country":"3b6c20fe-3756-41df-afb7-7d3991cd459b","countryCode":"IN","state":"86761816-c68e-4215-a5a2-707c918c3ad8","stateCode":"AS","latitude":"26.08334000","longitude":"89.96118000"},{"id":"16ba4ce3-e3a1-491f-bdeb-86a9e9ec741e","name":"Goālpāra","ru":"Goālpāra","country":"3b6c20fe-3756-41df-afb7-7d3991cd459b","countryCode":"IN","state":"86761816-c68e-4215-a5a2-707c918c3ad8","stateCode":"AS","latitude":"26.12791000","longitude":"90.60974000"},{"id":"af33b827-2f0c-4f05-8069-dcfcf638475f","name":"Gohpur","ru":"Gohpur","country":"3b6c20fe-3756-41df-afb7-7d3991cd459b","countryCode":"IN","state":"86761816-c68e-4215-a5a2-707c918c3ad8","stateCode":"AS","latitude":"26.88184000","longitude":"93.61560000"},{"id":"12aed799-ffa7-4306-b147-da2e006ed56a","name":"Golaghat","ru":"Golaghat","country":"3b6c20fe-3756-41df-afb7-7d3991cd459b","countryCode":"IN","state":"86761816-c68e-4215-a5a2-707c918c3ad8","stateCode":"AS","latitude":"26.40920000","longitude":"93.91193000"},{"id":"33d93f7f-51c1-46bf-9f52-1da55a821282","name":"Golakganj","ru":"Golakganj","country":"3b6c20fe-3756-41df-afb7-7d3991cd459b","countryCode":"IN","state":"86761816-c68e-4215-a5a2-707c918c3ad8","stateCode":"AS","latitude":"26.10216000","longitude":"89.82275000"},{"id":"f231164f-da69-4c66-990a-ffb49e4f2f07","name":"Golāghāt","ru":"Golāghāt","country":"3b6c20fe-3756-41df-afb7-7d3991cd459b","countryCode":"IN","state":"86761816-c68e-4215-a5a2-707c918c3ad8","stateCode":"AS","latitude":"26.51167000","longitude":"93.95951000"},{"id":"b59f9580-ecf8-43cd-b6ce-31e9dcf2881a","name":"Goshaingaon","ru":"Goshaingaon","country":"3b6c20fe-3756-41df-afb7-7d3991cd459b","countryCode":"IN","state":"86761816-c68e-4215-a5a2-707c918c3ad8","stateCode":"AS","latitude":"26.43946000","longitude":"89.96307000"},{"id":"1b4639ce-1644-4e30-aa3c-23712a8544cf","name":"Guwahati","ru":"Guwahati","country":"3b6c20fe-3756-41df-afb7-7d3991cd459b","countryCode":"IN","state":"86761816-c68e-4215-a5a2-707c918c3ad8","stateCode":"AS","latitude":"26.18440000","longitude":"91.74580000"},{"id":"01101abe-b4c3-4bcc-93e2-8ed1053504a3","name":"Hailakandi","ru":"Hailakandi","country":"3b6c20fe-3756-41df-afb7-7d3991cd459b","countryCode":"IN","state":"86761816-c68e-4215-a5a2-707c918c3ad8","stateCode":"AS","latitude":"24.50170000","longitude":"92.60069000"},{"id":"d2ce38a2-c019-4f49-975c-717f8637c5da","name":"Hailākāndi","ru":"Hailākāndi","country":"3b6c20fe-3756-41df-afb7-7d3991cd459b","countryCode":"IN","state":"86761816-c68e-4215-a5a2-707c918c3ad8","stateCode":"AS","latitude":"24.68394000","longitude":"92.56097000"},{"id":"e7a11574-9490-4795-bdba-144d055b9d1e","name":"Hāflong","ru":"Hāflong","country":"3b6c20fe-3756-41df-afb7-7d3991cd459b","countryCode":"IN","state":"86761816-c68e-4215-a5a2-707c918c3ad8","stateCode":"AS","latitude":"25.16478000","longitude":"93.01744000"},{"id":"4385b54e-1ba7-46b8-b6d8-da224df7af6e","name":"Hājo","ru":"Hājo","country":"3b6c20fe-3756-41df-afb7-7d3991cd459b","countryCode":"IN","state":"86761816-c68e-4215-a5a2-707c918c3ad8","stateCode":"AS","latitude":"26.24520000","longitude":"91.52525000"},{"id":"a95b6319-ecff-40b4-80a4-63b61329b41e","name":"Hojāi","ru":"Hojāi","country":"3b6c20fe-3756-41df-afb7-7d3991cd459b","countryCode":"IN","state":"86761816-c68e-4215-a5a2-707c918c3ad8","stateCode":"AS","latitude":"26.00281000","longitude":"92.85605000"},{"id":"82a17254-c685-4c23-a7fd-1f618eb0fb48","name":"Howli","ru":"Howli","country":"3b6c20fe-3756-41df-afb7-7d3991cd459b","countryCode":"IN","state":"86761816-c68e-4215-a5a2-707c918c3ad8","stateCode":"AS","latitude":"26.42237000","longitude":"90.98004000"},{"id":"5194d958-89a3-4b70-a348-59ab540a9ab3","name":"Jogīghopa","ru":"Jogīghopa","country":"3b6c20fe-3756-41df-afb7-7d3991cd459b","countryCode":"IN","state":"86761816-c68e-4215-a5a2-707c918c3ad8","stateCode":"AS","latitude":"26.22646000","longitude":"90.57247000"},{"id":"711519e0-e0b9-4823-b6d7-81ae8d65a450","name":"Jorhat","ru":"Jorhat","country":"3b6c20fe-3756-41df-afb7-7d3991cd459b","countryCode":"IN","state":"86761816-c68e-4215-a5a2-707c918c3ad8","stateCode":"AS","latitude":"26.80000000","longitude":"94.26000000"},{"id":"b8537176-1f38-4aa1-b141-e294900e447c","name":"Jorhāt","ru":"Jorhāt","country":"3b6c20fe-3756-41df-afb7-7d3991cd459b","countryCode":"IN","state":"86761816-c68e-4215-a5a2-707c918c3ad8","stateCode":"AS","latitude":"26.75751000","longitude":"94.20306000"},{"id":"9d453643-d344-4870-8db4-fae79bce26af","name":"Kamrup Metropolitan","ru":"Kamrup Metropolitan","country":"3b6c20fe-3756-41df-afb7-7d3991cd459b","countryCode":"IN","state":"86761816-c68e-4215-a5a2-707c918c3ad8","stateCode":"AS","latitude":"26.05375000","longitude":"92.00763000"},{"id":"eb9d5fa0-c7ed-4bfb-ab6f-940e3a8021ec","name":"Karīmganj","ru":"Karīmganj","country":"3b6c20fe-3756-41df-afb7-7d3991cd459b","countryCode":"IN","state":"86761816-c68e-4215-a5a2-707c918c3ad8","stateCode":"AS","latitude":"24.86919000","longitude":"92.35543000"},{"id":"61ae21ae-503f-4a4e-9fe9-efaf6be81e65","name":"Karimganj","ru":"Karimganj","country":"3b6c20fe-3756-41df-afb7-7d3991cd459b","countryCode":"IN","state":"86761816-c68e-4215-a5a2-707c918c3ad8","stateCode":"AS","latitude":"24.60000000","longitude":"92.40000000"},{"id":"673e54e0-8d76-4f8a-aa77-e8136fca1d92","name":"Kāmrūp","ru":"Kāmrūp","country":"3b6c20fe-3756-41df-afb7-7d3991cd459b","countryCode":"IN","state":"86761816-c68e-4215-a5a2-707c918c3ad8","stateCode":"AS","latitude":"26.22322000","longitude":"91.65344000"},{"id":"1442900d-e456-47da-979f-9e262a886fab","name":"Kārbi Ānglong","ru":"Kārbi Ānglong","country":"3b6c20fe-3756-41df-afb7-7d3991cd459b","countryCode":"IN","state":"86761816-c68e-4215-a5a2-707c918c3ad8","stateCode":"AS","latitude":"26.00000000","longitude":"93.50000000"},{"id":"88a9f172-10a8-42dd-bbb1-ba699d95fbab","name":"Khārupatia","ru":"Khārupatia","country":"3b6c20fe-3756-41df-afb7-7d3991cd459b","countryCode":"IN","state":"86761816-c68e-4215-a5a2-707c918c3ad8","stateCode":"AS","latitude":"26.51839000","longitude":"92.14722000"},{"id":"59e04d79-42ba-431a-af22-a7a45bda2c7e","name":"Kokrajhar","ru":"Kokrajhar","country":"3b6c20fe-3756-41df-afb7-7d3991cd459b","countryCode":"IN","state":"86761816-c68e-4215-a5a2-707c918c3ad8","stateCode":"AS","latitude":"26.60000000","longitude":"90.20000000"},{"id":"2ccff2a3-ec14-4c4b-93b9-da0c8db9ed4d","name":"Lakhimpur","ru":"Lakhimpur","country":"3b6c20fe-3756-41df-afb7-7d3991cd459b","countryCode":"IN","state":"86761816-c68e-4215-a5a2-707c918c3ad8","stateCode":"AS","latitude":"27.35000000","longitude":"94.25000000"},{"id":"09b42112-e086-47b8-bfab-2b9826f74c3d","name":"Lakhipur","ru":"Lakhipur","country":"3b6c20fe-3756-41df-afb7-7d3991cd459b","countryCode":"IN","state":"86761816-c68e-4215-a5a2-707c918c3ad8","stateCode":"AS","latitude":"24.79281000","longitude":"93.00910000"},{"id":"39e57a29-176b-4faa-acfe-e32022dd7a1b","name":"Lāla","ru":"Lāla","country":"3b6c20fe-3756-41df-afb7-7d3991cd459b","countryCode":"IN","state":"86761816-c68e-4215-a5a2-707c918c3ad8","stateCode":"AS","latitude":"24.55418000","longitude":"92.61592000"},{"id":"6ce37316-2b0b-4c9a-a8f3-e5f0917075ea","name":"Lumding Railway Colony","ru":"Lumding Railway Colony","country":"3b6c20fe-3756-41df-afb7-7d3991cd459b","countryCode":"IN","state":"86761816-c68e-4215-a5a2-707c918c3ad8","stateCode":"AS","latitude":"25.74903000","longitude":"93.16998000"},{"id":"08aa60f5-f136-4f9d-a10f-014562844c14","name":"Mahur","ru":"Mahur","country":"3b6c20fe-3756-41df-afb7-7d3991cd459b","countryCode":"IN","state":"86761816-c68e-4215-a5a2-707c918c3ad8","stateCode":"AS","latitude":"25.18305000","longitude":"93.11342000"},{"id":"a8c56799-6a3a-4fb3-9e96-879f7c085b92","name":"Maibong","ru":"Maibong","country":"3b6c20fe-3756-41df-afb7-7d3991cd459b","countryCode":"IN","state":"86761816-c68e-4215-a5a2-707c918c3ad8","stateCode":"AS","latitude":"25.30125000","longitude":"93.13811000"},{"id":"13657f20-4214-4b4d-a315-66b7548b26fc","name":"Mangaldai","ru":"Mangaldai","country":"3b6c20fe-3756-41df-afb7-7d3991cd459b","countryCode":"IN","state":"86761816-c68e-4215-a5a2-707c918c3ad8","stateCode":"AS","latitude":"26.44212000","longitude":"92.03047000"},{"id":"98c8fbc8-1656-4e8f-ad15-537302cd0c82","name":"Mariāni","ru":"Mariāni","country":"3b6c20fe-3756-41df-afb7-7d3991cd459b","countryCode":"IN","state":"86761816-c68e-4215-a5a2-707c918c3ad8","stateCode":"AS","latitude":"26.65725000","longitude":"94.31529000"},{"id":"b28318c5-d946-4da9-b118-27c8510a92da","name":"Mākum","ru":"Mākum","country":"3b6c20fe-3756-41df-afb7-7d3991cd459b","countryCode":"IN","state":"86761816-c68e-4215-a5a2-707c918c3ad8","stateCode":"AS","latitude":"27.48652000","longitude":"95.43646000"},{"id":"2c360dbf-9aea-477a-84bf-b62f01f19d93","name":"Morānha","ru":"Morānha","country":"3b6c20fe-3756-41df-afb7-7d3991cd459b","countryCode":"IN","state":"86761816-c68e-4215-a5a2-707c918c3ad8","stateCode":"AS","latitude":"27.18735000","longitude":"94.91557000"},{"id":"36f5702e-abb8-4f5d-99e9-b0f041e405d7","name":"Morigaon","ru":"Morigaon","country":"3b6c20fe-3756-41df-afb7-7d3991cd459b","countryCode":"IN","state":"86761816-c68e-4215-a5a2-707c918c3ad8","stateCode":"AS","latitude":"26.25213000","longitude":"92.34238000"},{"id":"9fe04de7-723c-4ad5-a216-caafdb499451","name":"Nagaon","ru":"Nagaon","country":"3b6c20fe-3756-41df-afb7-7d3991cd459b","countryCode":"IN","state":"86761816-c68e-4215-a5a2-707c918c3ad8","stateCode":"AS","latitude":"26.35037000","longitude":"92.69225000"},{"id":"040b0bbd-d0fc-45e2-8a69-08cc9d2005c8","name":"Nahorkatiya","ru":"Nahorkatiya","country":"3b6c20fe-3756-41df-afb7-7d3991cd459b","countryCode":"IN","state":"86761816-c68e-4215-a5a2-707c918c3ad8","stateCode":"AS","latitude":"27.28912000","longitude":"95.34180000"},{"id":"93e9203d-e090-4737-8f0d-37f16389556d","name":"Nalbari","ru":"Nalbari","country":"3b6c20fe-3756-41df-afb7-7d3991cd459b","countryCode":"IN","state":"86761816-c68e-4215-a5a2-707c918c3ad8","stateCode":"AS","latitude":"26.50000000","longitude":"91.40000000"},{"id":"35a7e2cf-6dff-4b3d-a96e-a20cf7b7c743","name":"Nāmrup","ru":"Nāmrup","country":"3b6c20fe-3756-41df-afb7-7d3991cd459b","countryCode":"IN","state":"86761816-c68e-4215-a5a2-707c918c3ad8","stateCode":"AS","latitude":"27.19395000","longitude":"95.31929000"},{"id":"536a40d7-7aa8-4e5c-b627-d30b50abc738","name":"Nāzirā","ru":"Nāzirā","country":"3b6c20fe-3756-41df-afb7-7d3991cd459b","countryCode":"IN","state":"86761816-c68e-4215-a5a2-707c918c3ad8","stateCode":"AS","latitude":"26.91649000","longitude":"94.73611000"},{"id":"2a096c99-6e61-42f6-ba97-c1ac6e5a1bd0","name":"North Guwāhāti","ru":"North Guwāhāti","country":"3b6c20fe-3756-41df-afb7-7d3991cd459b","countryCode":"IN","state":"86761816-c68e-4215-a5a2-707c918c3ad8","stateCode":"AS","latitude":"26.19749000","longitude":"91.72020000"},{"id":"a49bb05b-8c1b-4385-8af5-c1bd92d33604","name":"North Lakhimpur","ru":"North Lakhimpur","country":"3b6c20fe-3756-41df-afb7-7d3991cd459b","countryCode":"IN","state":"86761816-c68e-4215-a5a2-707c918c3ad8","stateCode":"AS","latitude":"27.23517000","longitude":"94.10357000"},{"id":"cc8541f2-774a-46f1-a6e6-c503e0158c56","name":"Numāligarh","ru":"Numāligarh","country":"3b6c20fe-3756-41df-afb7-7d3991cd459b","countryCode":"IN","state":"86761816-c68e-4215-a5a2-707c918c3ad8","stateCode":"AS","latitude":"26.62249000","longitude":"93.72225000"},{"id":"8514a6ad-5111-4241-a0d4-20734e68840f","name":"Palāsbāri","ru":"Palāsbāri","country":"3b6c20fe-3756-41df-afb7-7d3991cd459b","countryCode":"IN","state":"86761816-c68e-4215-a5a2-707c918c3ad8","stateCode":"AS","latitude":"26.12388000","longitude":"91.53974000"},{"id":"8899611b-4cc6-4fa3-bd91-2c124a6747dc","name":"Rahā","ru":"Rahā","country":"3b6c20fe-3756-41df-afb7-7d3991cd459b","countryCode":"IN","state":"86761816-c68e-4215-a5a2-707c918c3ad8","stateCode":"AS","latitude":"26.23333000","longitude":"92.51667000"},{"id":"c0841052-2393-4f5f-96b7-8d61e32f7316","name":"Rangāpāra","ru":"Rangāpāra","country":"3b6c20fe-3756-41df-afb7-7d3991cd459b","countryCode":"IN","state":"86761816-c68e-4215-a5a2-707c918c3ad8","stateCode":"AS","latitude":"26.83772000","longitude":"92.66876000"},{"id":"72a0c15a-4704-4197-9402-eae58da3fc7b","name":"Rangia","ru":"Rangia","country":"3b6c20fe-3756-41df-afb7-7d3991cd459b","countryCode":"IN","state":"86761816-c68e-4215-a5a2-707c918c3ad8","stateCode":"AS","latitude":"26.44931000","longitude":"91.61356000"},{"id":"85ae14a9-1ba6-4a89-857a-26a04fe17716","name":"Sapatgrām","ru":"Sapatgrām","country":"3b6c20fe-3756-41df-afb7-7d3991cd459b","countryCode":"IN","state":"86761816-c68e-4215-a5a2-707c918c3ad8","stateCode":"AS","latitude":"26.33732000","longitude":"90.12360000"},{"id":"76ec5343-4042-4145-b0af-8b3fcdd7ebf7","name":"Sarupathar","ru":"Sarupathar","country":"3b6c20fe-3756-41df-afb7-7d3991cd459b","countryCode":"IN","state":"86761816-c68e-4215-a5a2-707c918c3ad8","stateCode":"AS","latitude":"26.20600000","longitude":"96.81000000"},{"id":"67931845-49c9-40ff-8208-4e96046de468","name":"Sibsāgar","ru":"Sibsāgar","country":"3b6c20fe-3756-41df-afb7-7d3991cd459b","countryCode":"IN","state":"86761816-c68e-4215-a5a2-707c918c3ad8","stateCode":"AS","latitude":"26.98427000","longitude":"94.63784000"},{"id":"a20adb26-cad3-4428-b7da-9983a72e85e4","name":"Silapathar","ru":"Silapathar","country":"3b6c20fe-3756-41df-afb7-7d3991cd459b","countryCode":"IN","state":"86761816-c68e-4215-a5a2-707c918c3ad8","stateCode":"AS","latitude":"27.59441000","longitude":"94.72402000"},{"id":"924fc022-4531-431d-9ede-354e1f71591f","name":"Silchar","ru":"Silchar","country":"3b6c20fe-3756-41df-afb7-7d3991cd459b","countryCode":"IN","state":"86761816-c68e-4215-a5a2-707c918c3ad8","stateCode":"AS","latitude":"24.82733000","longitude":"92.79787000"},{"id":"bddf0d06-bf5d-4bf1-a82a-ac9bb08f099d","name":"Soalkuchi","ru":"Soalkuchi","country":"3b6c20fe-3756-41df-afb7-7d3991cd459b","countryCode":"IN","state":"86761816-c68e-4215-a5a2-707c918c3ad8","stateCode":"AS","latitude":"26.16806000","longitude":"91.57111000"},{"id":"a9c9801b-f3b3-47c1-b604-9010deb9c894","name":"Sonāri","ru":"Sonāri","country":"3b6c20fe-3756-41df-afb7-7d3991cd459b","countryCode":"IN","state":"86761816-c68e-4215-a5a2-707c918c3ad8","stateCode":"AS","latitude":"27.02462000","longitude":"95.01629000"},{"id":"a6065bd9-38d7-4a15-8adf-791c28879cc8","name":"Sonitpur","ru":"Sonitpur","country":"3b6c20fe-3756-41df-afb7-7d3991cd459b","countryCode":"IN","state":"86761816-c68e-4215-a5a2-707c918c3ad8","stateCode":"AS","latitude":"26.76748000","longitude":"92.96425000"},{"id":"d8317c1d-56ca-45ec-8a19-440744da70e3","name":"Sorbhog","ru":"Sorbhog","country":"3b6c20fe-3756-41df-afb7-7d3991cd459b","countryCode":"IN","state":"86761816-c68e-4215-a5a2-707c918c3ad8","stateCode":"AS","latitude":"26.48612000","longitude":"90.88590000"},{"id":"dcac6099-1421-4491-9905-31f8b7c8aac7","name":"Tezpur","ru":"Tezpur","country":"3b6c20fe-3756-41df-afb7-7d3991cd459b","countryCode":"IN","state":"86761816-c68e-4215-a5a2-707c918c3ad8","stateCode":"AS","latitude":"26.63333000","longitude":"92.80000000"},{"id":"a045ec90-3b7e-4506-80dc-6233c11b3baa","name":"Tinsukia","ru":"Tinsukia","country":"3b6c20fe-3756-41df-afb7-7d3991cd459b","countryCode":"IN","state":"86761816-c68e-4215-a5a2-707c918c3ad8","stateCode":"AS","latitude":"27.60000000","longitude":"95.60000000"},{"id":"25aedec9-a981-4549-b19e-2771d88869e6","name":"Titābar","ru":"Titābar","country":"3b6c20fe-3756-41df-afb7-7d3991cd459b","countryCode":"IN","state":"86761816-c68e-4215-a5a2-707c918c3ad8","stateCode":"AS","latitude":"26.60140000","longitude":"94.20386000"},{"id":"e34eac54-5b76-4909-8431-394fc6295cc5","name":"Udalguri","ru":"Udalguri","country":"3b6c20fe-3756-41df-afb7-7d3991cd459b","countryCode":"IN","state":"86761816-c68e-4215-a5a2-707c918c3ad8","stateCode":"AS","latitude":"26.75367000","longitude":"92.10215000"},{"id":"d74ea81f-e42b-4a4f-991e-d656881c572b","name":"Amarpur","ru":"Amarpur","country":"3b6c20fe-3756-41df-afb7-7d3991cd459b","countryCode":"IN","state":"72378b38-4d4e-4c50-ad64-e5f6501ac0ff","stateCode":"BR","latitude":"25.03967000","longitude":"86.90247000"},{"id":"4a64f3e6-75d6-4d5f-a14a-052d56bcd411","name":"Araria","ru":"Araria","country":"3b6c20fe-3756-41df-afb7-7d3991cd459b","countryCode":"IN","state":"72378b38-4d4e-4c50-ad64-e5f6501ac0ff","stateCode":"BR","latitude":"26.20000000","longitude":"87.40000000"},{"id":"44d2fd60-d318-4894-aad7-2d817b5494b5","name":"Arāria","ru":"Arāria","country":"3b6c20fe-3756-41df-afb7-7d3991cd459b","countryCode":"IN","state":"72378b38-4d4e-4c50-ad64-e5f6501ac0ff","stateCode":"BR","latitude":"26.14934000","longitude":"87.51323000"},{"id":"2e1428dc-37f8-46c3-9d00-fe3500ed0557","name":"Arrah","ru":"Arrah","country":"3b6c20fe-3756-41df-afb7-7d3991cd459b","countryCode":"IN","state":"72378b38-4d4e-4c50-ad64-e5f6501ac0ff","stateCode":"BR","latitude":"25.55629000","longitude":"84.66335000"},{"id":"d60ab9b8-c11c-40dc-a8f2-48e5f629da1a","name":"Arwal","ru":"Arwal","country":"3b6c20fe-3756-41df-afb7-7d3991cd459b","countryCode":"IN","state":"72378b38-4d4e-4c50-ad64-e5f6501ac0ff","stateCode":"BR","latitude":"25.16158000","longitude":"84.69040000"},{"id":"ac92defb-127c-401f-92c0-ee020e8c7875","name":"Asarganj","ru":"Asarganj","country":"3b6c20fe-3756-41df-afb7-7d3991cd459b","countryCode":"IN","state":"72378b38-4d4e-4c50-ad64-e5f6501ac0ff","stateCode":"BR","latitude":"25.15046000","longitude":"86.68639000"},{"id":"143f8ce7-0471-4675-8820-7923c46f9012","name":"Aurangābād","ru":"Aurangābād","country":"3b6c20fe-3756-41df-afb7-7d3991cd459b","countryCode":"IN","state":"72378b38-4d4e-4c50-ad64-e5f6501ac0ff","stateCode":"BR","latitude":"24.75204000","longitude":"84.37420000"},{"id":"2c8684a6-f2d1-49bd-9234-3b65ac6eb89a","name":"Bagaha","ru":"Bagaha","country":"3b6c20fe-3756-41df-afb7-7d3991cd459b","countryCode":"IN","state":"72378b38-4d4e-4c50-ad64-e5f6501ac0ff","stateCode":"BR","latitude":"27.09918000","longitude":"84.09003000"},{"id":"4538197a-13fe-4def-8786-525ea5a77e09","name":"Bahādurganj","ru":"Bahādurganj","country":"3b6c20fe-3756-41df-afb7-7d3991cd459b","countryCode":"IN","state":"72378b38-4d4e-4c50-ad64-e5f6501ac0ff","stateCode":"BR","latitude":"26.26172000","longitude":"87.82443000"},{"id":"f0931a6e-c92d-4d92-8900-cbfd15d23ae0","name":"Bairāgnia","ru":"Bairāgnia","country":"3b6c20fe-3756-41df-afb7-7d3991cd459b","countryCode":"IN","state":"72378b38-4d4e-4c50-ad64-e5f6501ac0ff","stateCode":"BR","latitude":"26.74063000","longitude":"85.27323000"},{"id":"086585d1-287a-4087-a318-c26e3c47d3b4","name":"Baisi","ru":"Baisi","country":"3b6c20fe-3756-41df-afb7-7d3991cd459b","countryCode":"IN","state":"72378b38-4d4e-4c50-ad64-e5f6501ac0ff","stateCode":"BR","latitude":"25.86302000","longitude":"87.74487000"},{"id":"c62b950d-6ed9-4d75-978f-863fe2640511","name":"Bakhtiyārpur","ru":"Bakhtiyārpur","country":"3b6c20fe-3756-41df-afb7-7d3991cd459b","countryCode":"IN","state":"72378b38-4d4e-4c50-ad64-e5f6501ac0ff","stateCode":"BR","latitude":"25.46179000","longitude":"85.53179000"},{"id":"7ee7e853-086f-460a-a546-81fe00b8931a","name":"Bangaon","ru":"Bangaon","country":"3b6c20fe-3756-41df-afb7-7d3991cd459b","countryCode":"IN","state":"72378b38-4d4e-4c50-ad64-e5f6501ac0ff","stateCode":"BR","latitude":"25.86728000","longitude":"86.51152000"},{"id":"6201661d-2085-46d8-bcc7-659ef8607d69","name":"Banka","ru":"Banka","country":"3b6c20fe-3756-41df-afb7-7d3991cd459b","countryCode":"IN","state":"72378b38-4d4e-4c50-ad64-e5f6501ac0ff","stateCode":"BR","latitude":"24.89214000","longitude":"86.98425000"},{"id":"f765fbcb-4e37-4fbc-8e22-8c270f9bcbe8","name":"Banmankhi","ru":"Banmankhi","country":"3b6c20fe-3756-41df-afb7-7d3991cd459b","countryCode":"IN","state":"72378b38-4d4e-4c50-ad64-e5f6501ac0ff","stateCode":"BR","latitude":"25.88857000","longitude":"87.19421000"},{"id":"c798db84-5e50-4b9c-a030-dcd7e052db1a","name":"Bar Bigha","ru":"Bar Bigha","country":"3b6c20fe-3756-41df-afb7-7d3991cd459b","countryCode":"IN","state":"72378b38-4d4e-4c50-ad64-e5f6501ac0ff","stateCode":"BR","latitude":"25.21855000","longitude":"85.73320000"},{"id":"afd39c6d-e743-4f36-a0dc-9b5fd9c6cc8f","name":"Barauli","ru":"Barauli","country":"3b6c20fe-3756-41df-afb7-7d3991cd459b","countryCode":"IN","state":"72378b38-4d4e-4c50-ad64-e5f6501ac0ff","stateCode":"BR","latitude":"26.38109000","longitude":"84.58648000"},{"id":"4634c3c8-38d1-4d6c-8952-cb2e6bc2ffc2","name":"Barhiya","ru":"Barhiya","country":"3b6c20fe-3756-41df-afb7-7d3991cd459b","countryCode":"IN","state":"72378b38-4d4e-4c50-ad64-e5f6501ac0ff","stateCode":"BR","latitude":"25.28814000","longitude":"86.02055000"},{"id":"86488546-a835-41fe-81d9-6e05407c28f9","name":"Bariārpur","ru":"Bariārpur","country":"3b6c20fe-3756-41df-afb7-7d3991cd459b","countryCode":"IN","state":"72378b38-4d4e-4c50-ad64-e5f6501ac0ff","stateCode":"BR","latitude":"25.28791000","longitude":"86.57643000"},{"id":"81ebef20-4084-444d-8e43-e02b35ca0290","name":"Bānka","ru":"Bānka","country":"3b6c20fe-3756-41df-afb7-7d3991cd459b","countryCode":"IN","state":"72378b38-4d4e-4c50-ad64-e5f6501ac0ff","stateCode":"BR","latitude":"24.88091000","longitude":"86.92257000"},{"id":"b03933d4-374e-48ec-ba68-da7e061410a9","name":"Bārh","ru":"Bārh","country":"3b6c20fe-3756-41df-afb7-7d3991cd459b","countryCode":"IN","state":"72378b38-4d4e-4c50-ad64-e5f6501ac0ff","stateCode":"BR","latitude":"25.48339000","longitude":"85.70928000"},{"id":"85966c66-fa62-442d-8f22-0b40839efe10","name":"Bāruni","ru":"Bāruni","country":"3b6c20fe-3756-41df-afb7-7d3991cd459b","countryCode":"IN","state":"72378b38-4d4e-4c50-ad64-e5f6501ac0ff","stateCode":"BR","latitude":"25.47509000","longitude":"85.96813000"},{"id":"48628693-bf4f-474a-9def-63625713e82c","name":"Bīrpur","ru":"Bīrpur","country":"3b6c20fe-3756-41df-afb7-7d3991cd459b","countryCode":"IN","state":"72378b38-4d4e-4c50-ad64-e5f6501ac0ff","stateCode":"BR","latitude":"26.50823000","longitude":"87.01194000"},{"id":"81b67863-0154-451f-8680-610602b60b36","name":"Begusarai","ru":"Begusarai","country":"3b6c20fe-3756-41df-afb7-7d3991cd459b","countryCode":"IN","state":"72378b38-4d4e-4c50-ad64-e5f6501ac0ff","stateCode":"BR","latitude":"25.41853000","longitude":"86.13389000"},{"id":"be64afd2-45cd-4c10-880f-743173723f59","name":"Begusarāi","ru":"Begusarāi","country":"3b6c20fe-3756-41df-afb7-7d3991cd459b","countryCode":"IN","state":"72378b38-4d4e-4c50-ad64-e5f6501ac0ff","stateCode":"BR","latitude":"25.50000000","longitude":"86.25000000"},{"id":"e4c2dff3-955c-4213-b4e7-f4f87bbd0bad","name":"Belsand","ru":"Belsand","country":"3b6c20fe-3756-41df-afb7-7d3991cd459b","countryCode":"IN","state":"72378b38-4d4e-4c50-ad64-e5f6501ac0ff","stateCode":"BR","latitude":"26.44365000","longitude":"85.40076000"},{"id":"3e9022e0-46dd-4c09-acf1-0dcbecc18abf","name":"Bettiah","ru":"Bettiah","country":"3b6c20fe-3756-41df-afb7-7d3991cd459b","countryCode":"IN","state":"72378b38-4d4e-4c50-ad64-e5f6501ac0ff","stateCode":"BR","latitude":"26.80229000","longitude":"84.50311000"},{"id":"d33f1ad1-2dab-4e35-aada-ee8b7d2b8022","name":"Bhabhua","ru":"Bhabhua","country":"3b6c20fe-3756-41df-afb7-7d3991cd459b","countryCode":"IN","state":"72378b38-4d4e-4c50-ad64-e5f6501ac0ff","stateCode":"BR","latitude":"25.04049000","longitude":"83.60749000"},{"id":"8d63d6ce-590a-475d-b808-7c6d2be58442","name":"Bhagirathpur","ru":"Bhagirathpur","country":"3b6c20fe-3756-41df-afb7-7d3991cd459b","countryCode":"IN","state":"72378b38-4d4e-4c50-ad64-e5f6501ac0ff","stateCode":"BR","latitude":"26.26950000","longitude":"86.06346000"},{"id":"9ecd2143-3ed4-4815-bc47-2265f137f42e","name":"Bhawanipur","ru":"Bhawanipur","country":"3b6c20fe-3756-41df-afb7-7d3991cd459b","countryCode":"IN","state":"72378b38-4d4e-4c50-ad64-e5f6501ac0ff","stateCode":"BR","latitude":"26.45352000","longitude":"87.02744000"},{"id":"38f4623a-d3a4-473e-9f89-317f1e7ee34d","name":"Bhāgalpur","ru":"Bhāgalpur","country":"3b6c20fe-3756-41df-afb7-7d3991cd459b","countryCode":"IN","state":"72378b38-4d4e-4c50-ad64-e5f6501ac0ff","stateCode":"BR","latitude":"25.29023000","longitude":"87.06665000"},{"id":"56bdfb81-7d95-419d-971e-3c1c4a5d1e1a","name":"Bhojpur","ru":"Bhojpur","country":"3b6c20fe-3756-41df-afb7-7d3991cd459b","countryCode":"IN","state":"72378b38-4d4e-4c50-ad64-e5f6501ac0ff","stateCode":"BR","latitude":"25.30886000","longitude":"84.44504000"},{"id":"b7b1ce0d-6457-4fff-990d-fa3760ce1bcc","name":"Bihār Sharīf","ru":"Bihār Sharīf","country":"3b6c20fe-3756-41df-afb7-7d3991cd459b","countryCode":"IN","state":"72378b38-4d4e-4c50-ad64-e5f6501ac0ff","stateCode":"BR","latitude":"25.20084000","longitude":"85.52389000"},{"id":"0849966c-5d8b-48d5-8f05-660050624228","name":"Bihārīganj","ru":"Bihārīganj","country":"3b6c20fe-3756-41df-afb7-7d3991cd459b","countryCode":"IN","state":"72378b38-4d4e-4c50-ad64-e5f6501ac0ff","stateCode":"BR","latitude":"25.73415000","longitude":"86.98837000"},{"id":"b89738e2-3fb8-4fbf-9d8d-918fc10719e6","name":"Bikramganj","ru":"Bikramganj","country":"3b6c20fe-3756-41df-afb7-7d3991cd459b","countryCode":"IN","state":"72378b38-4d4e-4c50-ad64-e5f6501ac0ff","stateCode":"BR","latitude":"25.21073000","longitude":"84.25508000"},{"id":"5e9b0505-94e0-4479-b4ad-791b363e8eec","name":"Buddh Gaya","ru":"Buddh Gaya","country":"3b6c20fe-3756-41df-afb7-7d3991cd459b","countryCode":"IN","state":"72378b38-4d4e-4c50-ad64-e5f6501ac0ff","stateCode":"BR","latitude":"24.69808000","longitude":"84.98690000"},{"id":"38f4c7c6-f636-4203-b341-95b905fa5ff6","name":"Buxar","ru":"Buxar","country":"3b6c20fe-3756-41df-afb7-7d3991cd459b","countryCode":"IN","state":"72378b38-4d4e-4c50-ad64-e5f6501ac0ff","stateCode":"BR","latitude":"25.50000000","longitude":"84.10000000"},{"id":"eb01ef76-fcf5-4f07-982d-a37ce5369317","name":"Chākia","ru":"Chākia","country":"3b6c20fe-3756-41df-afb7-7d3991cd459b","countryCode":"IN","state":"72378b38-4d4e-4c50-ad64-e5f6501ac0ff","stateCode":"BR","latitude":"26.41598000","longitude":"85.04665000"},{"id":"0a4dc792-cc4b-4953-b2e8-3cced31496a4","name":"Chāpra","ru":"Chāpra","country":"3b6c20fe-3756-41df-afb7-7d3991cd459b","countryCode":"IN","state":"72378b38-4d4e-4c50-ad64-e5f6501ac0ff","stateCode":"BR","latitude":"25.78031000","longitude":"84.74709000"},{"id":"5325dded-ac06-42cc-990b-537940581901","name":"Chhātāpur","ru":"Chhātāpur","country":"3b6c20fe-3756-41df-afb7-7d3991cd459b","countryCode":"IN","state":"72378b38-4d4e-4c50-ad64-e5f6501ac0ff","stateCode":"BR","latitude":"26.21965000","longitude":"87.00479000"},{"id":"b28ca729-21b1-4d08-b619-961d38549d05","name":"Colgong","ru":"Colgong","country":"3b6c20fe-3756-41df-afb7-7d3991cd459b","countryCode":"IN","state":"72378b38-4d4e-4c50-ad64-e5f6501ac0ff","stateCode":"BR","latitude":"25.26328000","longitude":"87.23264000"},{"id":"5616a7ec-1c7f-4c13-8ffe-7fba2bfb27ee","name":"Dalsingh Sarai","ru":"Dalsingh Sarai","country":"3b6c20fe-3756-41df-afb7-7d3991cd459b","countryCode":"IN","state":"72378b38-4d4e-4c50-ad64-e5f6501ac0ff","stateCode":"BR","latitude":"25.66795000","longitude":"85.83636000"},{"id":"0503a4a9-ed38-40a7-a898-70251041ce34","name":"Darbhanga","ru":"Darbhanga","country":"3b6c20fe-3756-41df-afb7-7d3991cd459b","countryCode":"IN","state":"72378b38-4d4e-4c50-ad64-e5f6501ac0ff","stateCode":"BR","latitude":"26.00000000","longitude":"86.00000000"},{"id":"b31e3aaf-be20-499d-8ffc-e122a610e824","name":"Daudnagar","ru":"Daudnagar","country":"3b6c20fe-3756-41df-afb7-7d3991cd459b","countryCode":"IN","state":"72378b38-4d4e-4c50-ad64-e5f6501ac0ff","stateCode":"BR","latitude":"25.03473000","longitude":"84.40095000"},{"id":"b91d72da-444c-4219-87ea-febe79e01e8a","name":"Dehri","ru":"Dehri","country":"3b6c20fe-3756-41df-afb7-7d3991cd459b","countryCode":"IN","state":"72378b38-4d4e-4c50-ad64-e5f6501ac0ff","stateCode":"BR","latitude":"24.90247000","longitude":"84.18217000"},{"id":"954a4eaa-ff56-4927-b7c6-da06e39deeda","name":"Dhāka","ru":"Dhāka","country":"3b6c20fe-3756-41df-afb7-7d3991cd459b","countryCode":"IN","state":"72378b38-4d4e-4c50-ad64-e5f6501ac0ff","stateCode":"BR","latitude":"26.67479000","longitude":"85.16698000"},{"id":"8f5f3538-8820-46de-ab35-356178300c6a","name":"Dighwāra","ru":"Dighwāra","country":"3b6c20fe-3756-41df-afb7-7d3991cd459b","countryCode":"IN","state":"72378b38-4d4e-4c50-ad64-e5f6501ac0ff","stateCode":"BR","latitude":"25.74434000","longitude":"85.01003000"},{"id":"b4886e6a-2c83-48cc-8ccc-c1271baedb44","name":"Dinapore","ru":"Dinapore","country":"3b6c20fe-3756-41df-afb7-7d3991cd459b","countryCode":"IN","state":"72378b38-4d4e-4c50-ad64-e5f6501ac0ff","stateCode":"BR","latitude":"25.63705000","longitude":"85.04794000"},{"id":"4725b57f-1acd-445a-b81a-e6ddacc6b750","name":"Dumra","ru":"Dumra","country":"3b6c20fe-3756-41df-afb7-7d3991cd459b","countryCode":"IN","state":"72378b38-4d4e-4c50-ad64-e5f6501ac0ff","stateCode":"BR","latitude":"26.56708000","longitude":"85.52040000"},{"id":"f132bcae-4c03-4801-9bc6-1031a438e7dd","name":"Dumraon","ru":"Dumraon","country":"3b6c20fe-3756-41df-afb7-7d3991cd459b","countryCode":"IN","state":"72378b38-4d4e-4c50-ad64-e5f6501ac0ff","stateCode":"BR","latitude":"25.55265000","longitude":"84.15149000"},{"id":"e889a1d9-6a56-47b8-8cf7-764c9b7016a8","name":"Fatwa","ru":"Fatwa","country":"3b6c20fe-3756-41df-afb7-7d3991cd459b","countryCode":"IN","state":"72378b38-4d4e-4c50-ad64-e5f6501ac0ff","stateCode":"BR","latitude":"25.50958000","longitude":"85.30504000"},{"id":"f01a6094-3ccf-4f5f-8cc9-a8afaadc8f9a","name":"Forbesganj","ru":"Forbesganj","country":"3b6c20fe-3756-41df-afb7-7d3991cd459b","countryCode":"IN","state":"72378b38-4d4e-4c50-ad64-e5f6501ac0ff","stateCode":"BR","latitude":"26.30253000","longitude":"87.26556000"},{"id":"cda26b8c-1093-4c73-a8a6-84ea5b1a49b7","name":"Gaya","ru":"Gaya","country":"3b6c20fe-3756-41df-afb7-7d3991cd459b","countryCode":"IN","state":"72378b38-4d4e-4c50-ad64-e5f6501ac0ff","stateCode":"BR","latitude":"24.79686000","longitude":"85.00385000"},{"id":"900bffb2-2871-4a3a-949a-29f536d60896","name":"Gayā","ru":"Gayā","country":"3b6c20fe-3756-41df-afb7-7d3991cd459b","countryCode":"IN","state":"72378b38-4d4e-4c50-ad64-e5f6501ac0ff","stateCode":"BR","latitude":"24.75000000","longitude":"85.00000000"},{"id":"9073afaf-d4b4-4abb-8485-55e99d30496c","name":"Ghoga","ru":"Ghoga","country":"3b6c20fe-3756-41df-afb7-7d3991cd459b","countryCode":"IN","state":"72378b38-4d4e-4c50-ad64-e5f6501ac0ff","stateCode":"BR","latitude":"25.21738000","longitude":"87.15710000"},{"id":"16ed1f3b-6266-4ded-b29c-4b0aa0089fe3","name":"Gopālganj","ru":"Gopālganj","country":"3b6c20fe-3756-41df-afb7-7d3991cd459b","countryCode":"IN","state":"72378b38-4d4e-4c50-ad64-e5f6501ac0ff","stateCode":"BR","latitude":"26.50000000","longitude":"84.33333000"},{"id":"ea60295a-2eb8-40cb-a0e9-5912dd0042d4","name":"Hājīpur","ru":"Hājīpur","country":"3b6c20fe-3756-41df-afb7-7d3991cd459b","countryCode":"IN","state":"72378b38-4d4e-4c50-ad64-e5f6501ac0ff","stateCode":"BR","latitude":"25.68544000","longitude":"85.20981000"},{"id":"3f18dc06-81f5-425a-bb99-645231530c52","name":"Hilsa","ru":"Hilsa","country":"3b6c20fe-3756-41df-afb7-7d3991cd459b","countryCode":"IN","state":"72378b38-4d4e-4c50-ad64-e5f6501ac0ff","stateCode":"BR","latitude":"25.31642000","longitude":"85.28234000"},{"id":"be227dad-a2da-4ec7-8df8-44de53179885","name":"Hisuā","ru":"Hisuā","country":"3b6c20fe-3756-41df-afb7-7d3991cd459b","countryCode":"IN","state":"72378b38-4d4e-4c50-ad64-e5f6501ac0ff","stateCode":"BR","latitude":"24.83360000","longitude":"85.41729000"},{"id":"4a73d2ba-187a-40b1-bc7c-50b4d578c2c8","name":"Islāmpur","ru":"Islāmpur","country":"3b6c20fe-3756-41df-afb7-7d3991cd459b","countryCode":"IN","state":"72378b38-4d4e-4c50-ad64-e5f6501ac0ff","stateCode":"BR","latitude":"25.14075000","longitude":"85.20587000"},{"id":"cc17042a-39d3-4910-8665-0ce06d8dda32","name":"Jagdīspur","ru":"Jagdīspur","country":"3b6c20fe-3756-41df-afb7-7d3991cd459b","countryCode":"IN","state":"72378b38-4d4e-4c50-ad64-e5f6501ac0ff","stateCode":"BR","latitude":"25.46811000","longitude":"84.41939000"},{"id":"b990592d-3a96-4a0c-94ce-6bdf23d31570","name":"Jahānābād","ru":"Jahānābād","country":"3b6c20fe-3756-41df-afb7-7d3991cd459b","countryCode":"IN","state":"72378b38-4d4e-4c50-ad64-e5f6501ac0ff","stateCode":"BR","latitude":"25.21368000","longitude":"84.98710000"},{"id":"a0ea31da-6122-476b-b693-49755d59bac5","name":"Jamālpur","ru":"Jamālpur","country":"3b6c20fe-3756-41df-afb7-7d3991cd459b","countryCode":"IN","state":"72378b38-4d4e-4c50-ad64-e5f6501ac0ff","stateCode":"BR","latitude":"25.31258000","longitude":"86.48888000"},{"id":"2103049f-4225-41c6-bec5-5e26c9562f50","name":"Jamūī","ru":"Jamūī","country":"3b6c20fe-3756-41df-afb7-7d3991cd459b","countryCode":"IN","state":"72378b38-4d4e-4c50-ad64-e5f6501ac0ff","stateCode":"BR","latitude":"24.92606000","longitude":"86.22531000"},{"id":"eefdedfb-1da5-4b48-8e6c-8f04b8a39741","name":"Jamui","ru":"Jamui","country":"3b6c20fe-3756-41df-afb7-7d3991cd459b","countryCode":"IN","state":"72378b38-4d4e-4c50-ad64-e5f6501ac0ff","stateCode":"BR","latitude":"24.92082000","longitude":"86.17538000"},{"id":"01ded803-ee63-463f-8ba1-ed7d76f77ce3","name":"Jaynagar","ru":"Jaynagar","country":"3b6c20fe-3756-41df-afb7-7d3991cd459b","countryCode":"IN","state":"72378b38-4d4e-4c50-ad64-e5f6501ac0ff","stateCode":"BR","latitude":"26.59048000","longitude":"86.13791000"},{"id":"0ae47949-9e9c-46e7-9058-498c3434053b","name":"Jehanabad","ru":"Jehanabad","country":"3b6c20fe-3756-41df-afb7-7d3991cd459b","countryCode":"IN","state":"72378b38-4d4e-4c50-ad64-e5f6501ac0ff","stateCode":"BR","latitude":"25.20701000","longitude":"84.99573000"},{"id":"0e38c68f-0f79-43b5-ba4f-53d941293de0","name":"Jhanjhārpur","ru":"Jhanjhārpur","country":"3b6c20fe-3756-41df-afb7-7d3991cd459b","countryCode":"IN","state":"72378b38-4d4e-4c50-ad64-e5f6501ac0ff","stateCode":"BR","latitude":"26.26467000","longitude":"86.27993000"},{"id":"de45ddc0-4f21-45ec-ad78-15ba76e37aac","name":"Jhā-Jhā","ru":"Jhā-Jhā","country":"3b6c20fe-3756-41df-afb7-7d3991cd459b","countryCode":"IN","state":"72378b38-4d4e-4c50-ad64-e5f6501ac0ff","stateCode":"BR","latitude":"24.77107000","longitude":"86.37888000"},{"id":"3036136f-2158-483c-96e1-0bb1591930ad","name":"Jogbani","ru":"Jogbani","country":"3b6c20fe-3756-41df-afb7-7d3991cd459b","countryCode":"IN","state":"72378b38-4d4e-4c50-ad64-e5f6501ac0ff","stateCode":"BR","latitude":"26.39905000","longitude":"87.26525000"},{"id":"a695e3a6-492a-4067-8dde-ebde5c3883f7","name":"Kaimur District","ru":"Kaimur District","country":"3b6c20fe-3756-41df-afb7-7d3991cd459b","countryCode":"IN","state":"72378b38-4d4e-4c50-ad64-e5f6501ac0ff","stateCode":"BR","latitude":"25.05077000","longitude":"83.58261000"},{"id":"22b9406d-6c7d-413a-894a-1b916660551b","name":"Kasba","ru":"Kasba","country":"3b6c20fe-3756-41df-afb7-7d3991cd459b","countryCode":"IN","state":"72378b38-4d4e-4c50-ad64-e5f6501ac0ff","stateCode":"BR","latitude":"25.85643000","longitude":"87.53836000"},{"id":"4ef9c9c1-9f6b-4023-a191-9908fd0ec992","name":"Katihar","ru":"Katihar","country":"3b6c20fe-3756-41df-afb7-7d3991cd459b","countryCode":"IN","state":"72378b38-4d4e-4c50-ad64-e5f6501ac0ff","stateCode":"BR","latitude":"25.50000000","longitude":"87.60000000"},{"id":"d1139e53-753a-431d-ae4b-b4d4f85dfc27","name":"Khagaria","ru":"Khagaria","country":"3b6c20fe-3756-41df-afb7-7d3991cd459b","countryCode":"IN","state":"72378b38-4d4e-4c50-ad64-e5f6501ac0ff","stateCode":"BR","latitude":"25.50220000","longitude":"86.46708000"},{"id":"b446f890-8497-448e-ab7a-1938ce363892","name":"Khagaul","ru":"Khagaul","country":"3b6c20fe-3756-41df-afb7-7d3991cd459b","countryCode":"IN","state":"72378b38-4d4e-4c50-ad64-e5f6501ac0ff","stateCode":"BR","latitude":"25.57898000","longitude":"85.04564000"},{"id":"96b51c82-9a8a-4e18-8b65-56b854d7035b","name":"Kharagpur","ru":"Kharagpur","country":"3b6c20fe-3756-41df-afb7-7d3991cd459b","countryCode":"IN","state":"72378b38-4d4e-4c50-ad64-e5f6501ac0ff","stateCode":"BR","latitude":"25.12446000","longitude":"86.55578000"},{"id":"b98bcff3-9abd-47f9-a131-43c7edffbbd9","name":"Khusropur","ru":"Khusropur","country":"3b6c20fe-3756-41df-afb7-7d3991cd459b","countryCode":"IN","state":"72378b38-4d4e-4c50-ad64-e5f6501ac0ff","stateCode":"BR","latitude":"25.48174000","longitude":"85.38492000"},{"id":"94e2612c-5f44-430c-ae9e-b274d679f61a","name":"Kishanganj","ru":"Kishanganj","country":"3b6c20fe-3756-41df-afb7-7d3991cd459b","countryCode":"IN","state":"72378b38-4d4e-4c50-ad64-e5f6501ac0ff","stateCode":"BR","latitude":"26.30000000","longitude":"88.00000000"},{"id":"b495a1eb-e036-425b-bd86-1cabc6ab6354","name":"Koāth","ru":"Koāth","country":"3b6c20fe-3756-41df-afb7-7d3991cd459b","countryCode":"IN","state":"72378b38-4d4e-4c50-ad64-e5f6501ac0ff","stateCode":"BR","latitude":"25.32643000","longitude":"84.25983000"},{"id":"7c946e0f-2e7c-4511-91b9-451706580286","name":"Koelwār","ru":"Koelwār","country":"3b6c20fe-3756-41df-afb7-7d3991cd459b","countryCode":"IN","state":"72378b38-4d4e-4c50-ad64-e5f6501ac0ff","stateCode":"BR","latitude":"25.58055000","longitude":"84.79751000"},{"id":"d3daf290-e302-47e7-9108-ca5eae0b30c8","name":"Lakhisarai","ru":"Lakhisarai","country":"3b6c20fe-3756-41df-afb7-7d3991cd459b","countryCode":"IN","state":"72378b38-4d4e-4c50-ad64-e5f6501ac0ff","stateCode":"BR","latitude":"25.20000000","longitude":"86.20000000"},{"id":"fe0b135a-2dca-432d-aeb1-5d40e3ca877f","name":"Lālganj","ru":"Lālganj","country":"3b6c20fe-3756-41df-afb7-7d3991cd459b","countryCode":"IN","state":"72378b38-4d4e-4c50-ad64-e5f6501ac0ff","stateCode":"BR","latitude":"25.86894000","longitude":"85.17394000"},{"id":"7dbb092c-131e-44ca-8ae9-01d043a30ee1","name":"Luckeesarai","ru":"Luckeesarai","country":"3b6c20fe-3756-41df-afb7-7d3991cd459b","countryCode":"IN","state":"72378b38-4d4e-4c50-ad64-e5f6501ac0ff","stateCode":"BR","latitude":"25.17650000","longitude":"86.09470000"},