[{"id":"171dc434-581e-4cf1-83f0-595397beb71e","name":"Aglona","ru":"Aglona","country":"d78ac786-1766-4c4e-900a-2af5f4d4dd0f","countryCode":"LV","state":"0c5e3621-d3c7-4812-8a9c-fadf32ade696","stateCode":"001","latitude":"56.13274000","longitude":"27.00682000"},{"id":"39912520-eb29-4ba0-b460-15936a2dad62","name":"Aizkraukle","ru":"Aizkraukle","country":"d78ac786-1766-4c4e-900a-2af5f4d4dd0f","countryCode":"LV","state":"ecdf27d4-b911-4abf-b30e-746eead37dff","stateCode":"002","latitude":"56.60477000","longitude":"25.25534000"},{"id":"f5c5d767-46ef-4b46-9be2-34bb0a61719b","name":"Aizpute","ru":"Aizpute","country":"d78ac786-1766-4c4e-900a-2af5f4d4dd0f","countryCode":"LV","state":"f9597178-5851-4173-94e1-0e545eb52c94","stateCode":"003","latitude":"56.72108000","longitude":"21.60156000"},{"id":"e761ceff-6457-482f-a8e6-33d48a09d3f5","name":"Aknīste","ru":"Aknīste","country":"d78ac786-1766-4c4e-900a-2af5f4d4dd0f","countryCode":"LV","state":"e172afd2-9ee2-4425-bf9e-57004ebdc8c9","stateCode":"004","latitude":"56.16152000","longitude":"25.74783000"},{"id":"0e7ef35a-2d2b-4946-bb6c-4918c191f4e9","name":"Alūksne","ru":"Alūksne","country":"d78ac786-1766-4c4e-900a-2af5f4d4dd0f","countryCode":"LV","state":"79a183db-c65a-4bc8-ad90-1d7382ed8926","stateCode":"007","latitude":"57.42162000","longitude":"27.04662000"},{"id":"b8933903-e258-4c3a-9678-a717c8da5515","name":"Aloja","ru":"Aloja","country":"d78ac786-1766-4c4e-900a-2af5f4d4dd0f","countryCode":"LV","state":"dfed8c17-8ad6-4ab3-86c9-f0de8c748d95","stateCode":"005","latitude":"57.76723000","longitude":"24.87743000"},{"id":"ceb89b22-7a85-48d8-8b5a-6a1b5f26909f","name":"Staicele","ru":"Staicele","country":"d78ac786-1766-4c4e-900a-2af5f4d4dd0f","countryCode":"LV","state":"dfed8c17-8ad6-4ab3-86c9-f0de8c748d95","stateCode":"005","latitude":"57.83579000","longitude":"24.74706000"},{"id":"c8cc9b09-257f-461a-aa0a-13fdd572a491","name":"Alsunga","ru":"Alsunga","country":"d78ac786-1766-4c4e-900a-2af5f4d4dd0f","countryCode":"LV","state":"fdb4ad24-fdfb-449c-aabb-0d3c64f707e0","stateCode":"006","latitude":"56.98194000","longitude":"21.55938000"},{"id":"9e2aa810-d3da-4d64-8c6a-a40d306c63dc","name":"Ape","ru":"Ape","country":"d78ac786-1766-4c4e-900a-2af5f4d4dd0f","countryCode":"LV","state":"7cb7e3f4-c7fe-4e84-b55c-6a857ab09e85","stateCode":"009","latitude":"57.53928000","longitude":"26.69291000"},{"id":"13ce090d-a7dd-4e6f-9f29-7da6255cf3aa","name":"Auce","ru":"Auce","country":"d78ac786-1766-4c4e-900a-2af5f4d4dd0f","countryCode":"LV","state":"92cc80db-4c72-4edd-92d3-100f0c5337fd","stateCode":"010","latitude":"56.45981000","longitude":"22.90169000"},{"id":"54c74dab-e6c9-4c6e-9200-d67cf632b6d3","name":"Ķegums","ru":"Ķegums","country":"d78ac786-1766-4c4e-900a-2af5f4d4dd0f","countryCode":"LV","state":"2a698728-28d8-4f04-a25f-6edcebbbc275","stateCode":"051","latitude":"56.74510000","longitude":"24.72439000"},{"id":"f20efb22-7a40-4d65-baeb-6e73e69046a3","name":"Ķekava","ru":"Ķekava","country":"d78ac786-1766-4c4e-900a-2af5f4d4dd0f","countryCode":"LV","state":"d0848132-bf0c-4f20-87e3-452c9408135f","stateCode":"052","latitude":"56.82662000","longitude":"24.23000000"},{"id":"803517cd-20ea-4464-a395-cfa45e073aba","name":"Baloži","ru":"Baloži","country":"d78ac786-1766-4c4e-900a-2af5f4d4dd0f","countryCode":"LV","state":"d0848132-bf0c-4f20-87e3-452c9408135f","stateCode":"052","latitude":"56.87643000","longitude":"24.11825000"},{"id":"4ecf882a-67db-4db4-a02a-5a9592c8bfc1","name":"Ērgļi","ru":"Ērgļi","country":"d78ac786-1766-4c4e-900a-2af5f4d4dd0f","countryCode":"LV","state":"3dd82977-f83e-4e08-b182-31cd9985c952","stateCode":"030","latitude":"56.89752000","longitude":"25.63668000"},{"id":"30b75e26-d4d9-4324-b91e-1ba4f14f1894","name":"Piņķi","ru":"Piņķi","country":"d78ac786-1766-4c4e-900a-2af5f4d4dd0f","countryCode":"LV","state":"df0431b5-6d18-454e-ac1d-eb282a7ba91d","stateCode":"012","latitude":"56.94189000","longitude":"23.91365000"},{"id":"8421762f-b739-4a1e-92a3-36ba25a18e9d","name":"Baldone","ru":"Baldone","country":"d78ac786-1766-4c4e-900a-2af5f4d4dd0f","countryCode":"LV","state":"4730b963-8168-49e5-b59b-25f1881fc07d","stateCode":"013","latitude":"56.74451000","longitude":"24.40078000"},{"id":"6264f157-1259-4f78-8a4f-1cd91e0b4a04","name":"Baltinava","ru":"Baltinava","country":"d78ac786-1766-4c4e-900a-2af5f4d4dd0f","countryCode":"LV","state":"2d6692e8-6652-423c-b06c-d79e75eb14f2","stateCode":"014","latitude":"56.94394000","longitude":"27.64401000"},{"id":"1880e887-964c-4fda-a975-3639376181c0","name":"Balvi","ru":"Balvi","country":"d78ac786-1766-4c4e-900a-2af5f4d4dd0f","countryCode":"LV","state":"6bfdac39-c5a2-4f25-9aa1-b7fc0b51e96b","stateCode":"015","latitude":"57.13130000","longitude":"27.26583000"},{"id":"ffab935d-8883-470f-a9b9-5c074f2ed109","name":"Bauska","ru":"Bauska","country":"d78ac786-1766-4c4e-900a-2af5f4d4dd0f","countryCode":"LV","state":"8d7f9c21-b75d-4470-8702-45eec02e4ec1","stateCode":"016","latitude":"56.40794000","longitude":"24.19443000"},{"id":"28d07f19-3df1-4c1d-a249-7ddc271ef2a6","name":"Mūrmuiža","ru":"Mūrmuiža","country":"d78ac786-1766-4c4e-900a-2af5f4d4dd0f","countryCode":"LV","state":"d12aceea-4c13-4d0d-a523-903f9b696626","stateCode":"017","latitude":"57.47312000","longitude":"25.49174000"},{"id":"0cd9df37-d134-4c13-bd2d-deebef95683f","name":"Brocēni","ru":"Brocēni","country":"d78ac786-1766-4c4e-900a-2af5f4d4dd0f","countryCode":"LV","state":"83be4c51-f25b-4d0d-9391-3650598ed479","stateCode":"018","latitude":"56.67890000","longitude":"22.56945000"},{"id":"c561602a-19d2-417b-8fc1-1c5834771218","name":"Carnikava","ru":"Carnikava","country":"d78ac786-1766-4c4e-900a-2af5f4d4dd0f","countryCode":"LV","state":"a9090648-4a4a-45bb-bb54-b765cc2da1d7","stateCode":"020","latitude":"57.12935000","longitude":"24.28423000"},{"id":"2fe9877a-3c9f-45ff-8cab-2d90c60002c8","name":"Cēsis","ru":"Cēsis","country":"d78ac786-1766-4c4e-900a-2af5f4d4dd0f","countryCode":"LV","state":"8968b759-5d0b-4ba5-91a1-9da6b639247b","stateCode":"022","latitude":"57.31188000","longitude":"25.27456000"},{"id":"06631e1c-86de-49b7-9add-2427710af48d","name":"Cesvaine","ru":"Cesvaine","country":"d78ac786-1766-4c4e-900a-2af5f4d4dd0f","countryCode":"LV","state":"540be979-6b21-4da4-8a27-c5bc8f8bb0ec","stateCode":"021","latitude":"56.96754000","longitude":"26.30764000"},{"id":"480467d8-8b35-4890-83b6-09f7b234e046","name":"Cibla","ru":"Cibla","country":"d78ac786-1766-4c4e-900a-2af5f4d4dd0f","countryCode":"LV","state":"b5877ab5-934e-4c24-9e42-c005a1d2ac9c","stateCode":"023","latitude":"56.54980000","longitude":"27.88370000"},{"id":"dd8c8c09-05dc-4030-984d-d29e4354f7ab","name":"Dagda","ru":"Dagda","country":"d78ac786-1766-4c4e-900a-2af5f4d4dd0f","countryCode":"LV","state":"1424294f-c727-4bf2-b29f-064579b9e48c","stateCode":"024","latitude":"56.09512000","longitude":"27.53723000"},{"id":"8ce5dfca-0381-451b-8475-856c0d5a2d92","name":"Daugavpils","ru":"Daugavpils","country":"d78ac786-1766-4c4e-900a-2af5f4d4dd0f","countryCode":"LV","state":"812dd510-3943-4859-9927-00a9b1dfcc7f","stateCode":"025","latitude":"55.88333000","longitude":"26.53333000"},{"id":"5211b904-ab8a-49ad-9258-0ceda9a8330d","name":"Dobele","ru":"Dobele","country":"d78ac786-1766-4c4e-900a-2af5f4d4dd0f","countryCode":"LV","state":"1fc42bc8-5b9d-42de-b0d9-e778a9e518d9","stateCode":"026","latitude":"56.62372000","longitude":"23.27510000"},{"id":"7220a30d-43e8-40d5-b819-80fb677fee8e","name":"Dundaga","ru":"Dundaga","country":"d78ac786-1766-4c4e-900a-2af5f4d4dd0f","countryCode":"LV","state":"9b2162f4-bcfa-42f3-9eac-3685c9bd3c6b","stateCode":"027","latitude":"57.50498000","longitude":"22.35041000"},{"id":"1eff9aaf-8e3f-4857-bd10-c6b7e46a848a","name":"Lieģi","ru":"Lieģi","country":"d78ac786-1766-4c4e-900a-2af5f4d4dd0f","countryCode":"LV","state":"453ab84b-28b6-4f4a-89bf-57b5e489b53d","stateCode":"028","latitude":"56.58173000","longitude":"21.33399000"},{"id":"a93571b2-a7d6-4cce-8203-0855ec70757a","name":"Smārde","ru":"Smārde","country":"d78ac786-1766-4c4e-900a-2af5f4d4dd0f","countryCode":"LV","state":"ec2c31ed-1307-4463-94bb-9ad96c245d40","stateCode":"029","latitude":"56.95420000","longitude":"23.33736000"},{"id":"41c5ef69-312a-465e-99db-7293fcd8155c","name":"Garkalne","ru":"Garkalne","country":"d78ac786-1766-4c4e-900a-2af5f4d4dd0f","countryCode":"LV","state":"d4f7e8bc-0813-45c8-b6e4-fe8c4119467c","stateCode":"031","latitude":"57.04486000","longitude":"24.41951000"},{"id":"3e450205-e7e4-488d-87d5-6f980d253814","name":"Grobiņa","ru":"Grobiņa","country":"d78ac786-1766-4c4e-900a-2af5f4d4dd0f","countryCode":"LV","state":"506c6079-a690-498f-8416-3dfdc5a0bdd0","stateCode":"032","latitude":"56.53521000","longitude":"21.16782000"},{"id":"13a91c8a-fd76-465f-8290-a06785b7c98b","name":"Gulbene","ru":"Gulbene","country":"d78ac786-1766-4c4e-900a-2af5f4d4dd0f","countryCode":"LV","state":"cd3588cb-c94f-4be7-bbb4-11e3afe4ce8f","stateCode":"033","latitude":"57.17767000","longitude":"26.75291000"},{"id":"e6523f55-5e44-4ff5-a768-02017bb1ac6e","name":"Iecava","ru":"Iecava","country":"d78ac786-1766-4c4e-900a-2af5f4d4dd0f","countryCode":"LV","state":"d98d9bf0-3ca3-466f-81c9-7d7610e3ee40","stateCode":"034","latitude":"56.59766000","longitude":"24.20763000"},{"id":"a8aa2236-1432-41ac-a312-90006594b19c","name":"Ikšķile","ru":"Ikšķile","country":"d78ac786-1766-4c4e-900a-2af5f4d4dd0f","countryCode":"LV","state":"006ea318-97e8-4bd4-a6a4-c69fbeacec68","stateCode":"035","latitude":"56.83399000","longitude":"24.49679000"},{"id":"08a458a1-2f7e-4f75-9d16-ed640385c470","name":"Ilūkste","ru":"Ilūkste","country":"d78ac786-1766-4c4e-900a-2af5f4d4dd0f","countryCode":"LV","state":"30406d04-6b9e-4346-b5f4-d25b9b787888","stateCode":"036","latitude":"55.97754000","longitude":"26.29655000"},{"id":"5c22d1a0-3a74-4cb1-8672-bb8c784b0fb2","name":"Inčukalns","ru":"Inčukalns","country":"d78ac786-1766-4c4e-900a-2af5f4d4dd0f","countryCode":"LV","state":"8953ff73-0bfd-450b-a4b0-d34a2fef35a8","stateCode":"037","latitude":"57.09867000","longitude":"24.68630000"},{"id":"05b394d7-076e-4a5d-964e-a02f6b390b04","name":"Vangaži","ru":"Vangaži","country":"d78ac786-1766-4c4e-900a-2af5f4d4dd0f","countryCode":"LV","state":"8953ff73-0bfd-450b-a4b0-d34a2fef35a8","stateCode":"037","latitude":"57.09358000","longitude":"24.54468000"},{"id":"6be4707f-7487-47cb-bd2e-1495cea87da7","name":"Jaunjelgava","ru":"Jaunjelgava","country":"d78ac786-1766-4c4e-900a-2af5f4d4dd0f","countryCode":"LV","state":"fdf8814b-cdc9-4046-a845-1429562c5b8b","stateCode":"038","latitude":"56.61319000","longitude":"25.08316000"},{"id":"fe86ad20-bcac-499e-a893-50ab93882ca9","name":"Jaunpils","ru":"Jaunpils","country":"d78ac786-1766-4c4e-900a-2af5f4d4dd0f","countryCode":"LV","state":"f88ad2d3-06ad-47fc-be57-9badc4f7156a","stateCode":"040","latitude":"56.73137000","longitude":"23.01247000"},{"id":"ae3a77fe-ed5e-4a2b-bb84-ead80f6f434e","name":"Jūrmala","ru":"Jūrmala","country":"d78ac786-1766-4c4e-900a-2af5f4d4dd0f","countryCode":"LV","state":"5c20891c-8d28-4115-8489-a8a5b50ff77f","stateCode":"JUR","latitude":"56.96800000","longitude":"23.77038000"},{"id":"70972732-7b32-4976-810f-19168895ae35","name":"Jēkabpils","ru":"Jēkabpils","country":"d78ac786-1766-4c4e-900a-2af5f4d4dd0f","countryCode":"LV","state":"6ffc821b-acf3-44f2-b343-56fe4c105d5e","stateCode":"042","latitude":"56.49903000","longitude":"25.85735000"},{"id":"ad229f78-fe21-4ab4-b428-fd40cfe2a4b5","name":"Krustpils","ru":"Krustpils","country":"d78ac786-1766-4c4e-900a-2af5f4d4dd0f","countryCode":"LV","state":"6ffc821b-acf3-44f2-b343-56fe4c105d5e","stateCode":"042","latitude":"56.51068000","longitude":"25.86117000"},{"id":"75d22ead-c45c-4b43-aa9d-56afcb9d041c","name":"Jelgava","ru":"Jelgava","country":"d78ac786-1766-4c4e-900a-2af5f4d4dd0f","countryCode":"LV","state":"5acdffc3-6feb-400e-8fac-e1128e072ade","stateCode":"JEL","latitude":"56.65000000","longitude":"23.71278000"},{"id":"e27d4374-2a99-4347-9394-5dbfcd7d538f","name":"Tīreļi","ru":"Tīreļi","country":"d78ac786-1766-4c4e-900a-2af5f4d4dd0f","countryCode":"LV","state":"30813cb9-7897-4585-a96d-3d77d42a5be8","stateCode":"041","latitude":"56.83991000","longitude":"23.58902000"},{"id":"058b2731-933c-4129-bf23-836389083f51","name":"Kandava","ru":"Kandava","country":"d78ac786-1766-4c4e-900a-2af5f4d4dd0f","countryCode":"LV","state":"d280ad23-2ae7-45f4-8f4e-0d56f78270f7","stateCode":"043","latitude":"57.04087000","longitude":"22.77466000"},{"id":"90ba6680-0bdd-471b-a13b-ac39b50d317f","name":"Kārsava","ru":"Kārsava","country":"d78ac786-1766-4c4e-900a-2af5f4d4dd0f","countryCode":"LV","state":"55ccda45-19af-4e36-ace5-6097bbdefcb9","stateCode":"044","latitude":"56.78405000","longitude":"27.68829000"},{"id":"358cd728-403f-46ea-b21d-2151fe5e40eb","name":"Kocēni","ru":"Kocēni","country":"d78ac786-1766-4c4e-900a-2af5f4d4dd0f","countryCode":"LV","state":"bb12b498-0101-4b53-8465-46dcf79f1dd8","stateCode":"045","latitude":"57.52057000","longitude":"25.33821000"},{"id":"9ca433bc-7b1d-4012-9378-227f69ba2d05","name":"Koknese","ru":"Koknese","country":"d78ac786-1766-4c4e-900a-2af5f4d4dd0f","countryCode":"LV","state":"3686ddcd-d4f9-4dd5-8567-8928af189cbd","stateCode":"046","latitude":"56.65163000","longitude":"25.43637000"},{"id":"002fc8ff-bbba-4fbf-9224-de0aba1180fd","name":"Krāslava","ru":"Krāslava","country":"d78ac786-1766-4c4e-900a-2af5f4d4dd0f","countryCode":"LV","state":"546d2fb0-4b51-4e99-9bcc-54876f46e45c","stateCode":"047","latitude":"55.89514000","longitude":"27.16799000"},{"id":"7b03a059-24d8-4a3e-850e-62944a69239d","name":"Kuldīga","ru":"Kuldīga","country":"d78ac786-1766-4c4e-900a-2af5f4d4dd0f","countryCode":"LV","state":"093864ad-96a1-4fff-89f4-fde07aee1903","stateCode":"050","latitude":"56.97399000","longitude":"21.95721000"},{"id":"cff4fb06-3a3d-4850-9276-20d9813f5955","name":"Līgatne","ru":"Līgatne","country":"d78ac786-1766-4c4e-900a-2af5f4d4dd0f","countryCode":"LV","state":"205805ff-3d98-48b9-9de9-46fe3d1f4c11","stateCode":"055","latitude":"57.23429000","longitude":"25.04059000"},{"id":"e3b8126b-51a9-4c2d-b9b5-28421ff8a804","name":"Līvāni","ru":"Līvāni","country":"d78ac786-1766-4c4e-900a-2af5f4d4dd0f","countryCode":"LV","state":"498514b1-9998-4289-ade5-a93b5c413d55","stateCode":"056","latitude":"56.35431000","longitude":"26.17579000"},{"id":"e773e781-4136-45ac-8801-3582b3fb53b4","name":"Lielvārde","ru":"Lielvārde","country":"d78ac786-1766-4c4e-900a-2af5f4d4dd0f","countryCode":"LV","state":"2bb1e973-1987-4cbf-a3ad-955b9e7b38d4","stateCode":"053","latitude":"56.72066000","longitude":"24.80743000"},{"id":"f40ba735-ebb8-4489-ad33-e48150b641c8","name":"Karosta","ru":"Karosta","country":"d78ac786-1766-4c4e-900a-2af5f4d4dd0f","countryCode":"LV","state":"b557bcaa-273d-4d0b-890c-d5deb75733e0","stateCode":"LPX","latitude":"56.55128000","longitude":"21.01287000"},{"id":"3c16a917-3ea1-415d-94cc-0fe7656b54e0","name":"Liepāja","ru":"Liepāja","country":"d78ac786-1766-4c4e-900a-2af5f4d4dd0f","countryCode":"LV","state":"b557bcaa-273d-4d0b-890c-d5deb75733e0","stateCode":"LPX","latitude":"56.50474000","longitude":"21.01085000"},{"id":"a76aed78-8430-438c-902e-a195e87b092a","name":"Limbaži","ru":"Limbaži","country":"d78ac786-1766-4c4e-900a-2af5f4d4dd0f","countryCode":"LV","state":"b5a7990c-0e34-4085-bd82-57a1a6339b1e","stateCode":"054","latitude":"57.51287000","longitude":"24.71941000"},{"id":"b10f0abf-e602-41af-bc1c-84f7aa5e8f8e","name":"Lubāna","ru":"Lubāna","country":"d78ac786-1766-4c4e-900a-2af5f4d4dd0f","countryCode":"LV","state":"b23d9e63-d432-4a61-96d8-4563a52c196d","stateCode":"057","latitude":"56.90425000","longitude":"26.71606000"},{"id":"ba3406ca-730a-492d-88e8-d9ec4a19c7ab","name":"Ludza","ru":"Ludza","country":"d78ac786-1766-4c4e-900a-2af5f4d4dd0f","countryCode":"LV","state":"866547b9-a3d1-4645-a7d9-aefc5c957fa4","stateCode":"058","latitude":"56.53958000","longitude":"27.71891000"},{"id":"072ff548-6f2a-4320-b83e-6de940f4683e","name":"Madona","ru":"Madona","country":"d78ac786-1766-4c4e-900a-2af5f4d4dd0f","countryCode":"LV","state":"1311eb5c-b678-4e13-a4fa-a448c359c3d6","stateCode":"059","latitude":"56.85329000","longitude":"26.21698000"},{"id":"cbfb58b2-e749-4b5d-96a5-6c1c84c15142","name":"Mazsalaca","ru":"Mazsalaca","country":"d78ac786-1766-4c4e-900a-2af5f4d4dd0f","countryCode":"LV","state":"29101d3e-b3d3-464a-95d1-378a0dfb3fa4","stateCode":"060","latitude":"57.86329000","longitude":"25.05475000"},{"id":"dc1e9ce7-ac33-4fc3-ae04-8e0a28faba44","name":"Mālpils","ru":"Mālpils","country":"d78ac786-1766-4c4e-900a-2af5f4d4dd0f","countryCode":"LV","state":"f012c142-1d38-4a12-81c2-76459b3d6942","stateCode":"061","latitude":"57.01010000","longitude":"24.95783000"},{"id":"b2e4fb55-e244-4a1c-ad73-0561e8f69212","name":"Mārupe","ru":"Mārupe","country":"d78ac786-1766-4c4e-900a-2af5f4d4dd0f","countryCode":"LV","state":"c20d71a2-58a6-4b5b-b8dc-5c4efcaf05c1","stateCode":"062","latitude":"56.90544000","longitude":"24.05113000"},{"id":"b1b929e0-6f70-4be3-9ac4-613bb36d2c40","name":"Naukšēni","ru":"Naukšēni","country":"d78ac786-1766-4c4e-900a-2af5f4d4dd0f","countryCode":"LV","state":"4e8fbbb7-f065-4495-b832-5cda21e1662c","stateCode":"064","latitude":"57.88349000","longitude":"25.45609000"},{"id":"5232b864-563f-4f47-b797-2c5c510d9a86","name":"Nīca","ru":"Nīca","country":"d78ac786-1766-4c4e-900a-2af5f4d4dd0f","countryCode":"LV","state":"e033dd81-3b2d-4c5f-bc56-d85cddbb95b8","stateCode":"066","latitude":"56.34601000","longitude":"21.06401000"},{"id":"f7f68a91-b1ed-4de6-9aa0-69c8aad41ac9","name":"Nereta","ru":"Nereta","country":"d78ac786-1766-4c4e-900a-2af5f4d4dd0f","countryCode":"LV","state":"583771ba-ebe5-479a-95f5-2a8c0822077e","stateCode":"065","latitude":"56.20279000","longitude":"25.30752000"},{"id":"00caeea7-576a-4125-b407-a58d99380fa1","name":"Jumprava","ru":"Jumprava","country":"d78ac786-1766-4c4e-900a-2af5f4d4dd0f","countryCode":"LV","state":"5e1dfc53-2cc9-437b-afa5-269306af51e3","stateCode":"067","latitude":"56.67613000","longitude":"24.97210000"},{"id":"8dfe2b8c-a4d7-4cd5-a0b3-4ed6fc07f328","name":"Ogre","ru":"Ogre","country":"d78ac786-1766-4c4e-900a-2af5f4d4dd0f","countryCode":"LV","state":"5e1dfc53-2cc9-437b-afa5-269306af51e3","stateCode":"067","latitude":"56.81620000","longitude":"24.61401000"},{"id":"812d7cc2-36d0-403d-935a-684e229cbf7e","name":"Olaine","ru":"Olaine","country":"d78ac786-1766-4c4e-900a-2af5f4d4dd0f","countryCode":"LV","state":"f145bce7-9840-4d0f-893a-9b28189c55c3","stateCode":"068","latitude":"56.79472000","longitude":"23.93580000"},{"id":"8c3919d2-950f-4f58-be58-0e6701ce6cfc","name":"Ozolnieki","ru":"Ozolnieki","country":"d78ac786-1766-4c4e-900a-2af5f4d4dd0f","countryCode":"LV","state":"b38f281c-23b5-46b3-9fef-f3591bcfabf3","stateCode":"069","latitude":"56.68986000","longitude":"23.77610000"},{"id":"2832a951-d94d-447f-a680-35d04cf6a82f","name":"Stalbe","ru":"Stalbe","country":"d78ac786-1766-4c4e-900a-2af5f4d4dd0f","countryCode":"LV","state":"690d8644-d97b-4033-8af5-c7d809ab979f","stateCode":"070","latitude":"57.37065000","longitude":"25.03106000"},{"id":"b9be72da-23be-48e6-939b-e0306c6b4b1b","name":"Pāvilosta","ru":"Pāvilosta","country":"d78ac786-1766-4c4e-900a-2af5f4d4dd0f","countryCode":"LV","state":"08a541c9-ad13-440d-9172-6e7b72aeffb2","stateCode":"071","latitude":"56.88791000","longitude":"21.18593000"},{"id":"4fb0a12a-ca78-4a58-bbcf-2f62debb32eb","name":"Pļaviņas","ru":"Pļaviņas","country":"d78ac786-1766-4c4e-900a-2af5f4d4dd0f","countryCode":"LV","state":"69db11d0-1e4f-451a-847a-a392ec1d6373","stateCode":"072","latitude":"56.61780000","longitude":"25.72552000"},{"id":"8e6fb47b-748e-40a6-8ae3-b78cfcc14fb3","name":"Jaunaglona","ru":"Jaunaglona","country":"d78ac786-1766-4c4e-900a-2af5f4d4dd0f","countryCode":"LV","state":"c9d7d1b0-ef73-4575-b062-bf068abd6d90","stateCode":"073","latitude":"56.16066000","longitude":"27.00714000"},{"id":"e70a8591-ef45-4942-859f-b05b8421bbde","name":"Preiļi","ru":"Preiļi","country":"d78ac786-1766-4c4e-900a-2af5f4d4dd0f","countryCode":"LV","state":"c9d7d1b0-ef73-4575-b062-bf068abd6d90","stateCode":"073","latitude":"56.29444000","longitude":"26.72459000"},{"id":"f03e4703-9fd3-492c-8695-86fb13844abf","name":"Priekuļi","ru":"Priekuļi","country":"d78ac786-1766-4c4e-900a-2af5f4d4dd0f","countryCode":"LV","state":"cf79d40e-adbb-40d6-8b4e-6c66ce969d34","stateCode":"075","latitude":"57.31500000","longitude":"25.36147000"},{"id":"e5bc092e-e491-49de-a7b8-a136b5142475","name":"Priekule","ru":"Priekule","country":"d78ac786-1766-4c4e-900a-2af5f4d4dd0f","countryCode":"LV","state":"cb418ed0-03ff-477a-b663-0d749549ab2f","stateCode":"074","latitude":"56.44679000","longitude":"21.58968000"},{"id":"2962eb0b-8381-4546-abcc-5e38e9051198","name":"Rauna","ru":"Rauna","country":"d78ac786-1766-4c4e-900a-2af5f4d4dd0f","countryCode":"LV","state":"73829309-f0a2-4fa6-9cd0-ce6d7cf99098","stateCode":"076","latitude":"57.33173000","longitude":"25.60947000"},{"id":"fef271fa-a416-4a6f-982d-b2ffcf942e49","name":"Rūjiena","ru":"Rūjiena","country":"d78ac786-1766-4c4e-900a-2af5f4d4dd0f","countryCode":"LV","state":"b3ec5c28-6e5f-46fb-b596-7d5bf55c1f77","stateCode":"084","latitude":"57.89752000","longitude":"25.33155000"},{"id":"83c294f1-32a4-4bf5-b56f-38c0cefafd8f","name":"Rēzekne","ru":"Rēzekne","country":"d78ac786-1766-4c4e-900a-2af5f4d4dd0f","countryCode":"LV","state":"4f590b88-0d49-46c3-b38e-8cb916d71338","stateCode":"REZ","latitude":"56.51028000","longitude":"27.34000000"},{"id":"d003cbf8-8f4e-43b7-b62a-2df995819ac6","name":"Riebiņi","ru":"Riebiņi","country":"d78ac786-1766-4c4e-900a-2af5f4d4dd0f","countryCode":"LV","state":"4c139c15-c2db-48d3-90d6-bb4e64d72470","stateCode":"078","latitude":"56.34280000","longitude":"26.79995000"},{"id":"3c4a4c40-5e0a-435a-8435-2168ccba9b09","name":"Bolderaja","ru":"Bolderaja","country":"d78ac786-1766-4c4e-900a-2af5f4d4dd0f","countryCode":"LV","state":"969dba71-7025-4db2-97fe-4e971fe14505","stateCode":"RIX","latitude":"57.03132000","longitude":"24.05571000"},{"id":"5e9ee370-a365-4b35-a1e9-1bf596d7866b","name":"Daugavgrīva","ru":"Daugavgrīva","country":"d78ac786-1766-4c4e-900a-2af5f4d4dd0f","countryCode":"LV","state":"969dba71-7025-4db2-97fe-4e971fe14505","stateCode":"RIX","latitude":"57.04315000","longitude":"24.03613000"},{"id":"30590f6d-8e1e-4a6f-a29c-d46b65e4d9c0","name":"Jaunciems","ru":"Jaunciems","country":"d78ac786-1766-4c4e-900a-2af5f4d4dd0f","countryCode":"LV","state":"969dba71-7025-4db2-97fe-4e971fe14505","stateCode":"RIX","latitude":"57.03910000","longitude":"24.17413000"},{"id":"33c06630-fe71-4373-9ce7-c977ea8ce1f2","name":"Mežaparks","ru":"Mežaparks","country":"d78ac786-1766-4c4e-900a-2af5f4d4dd0f","countryCode":"LV","state":"969dba71-7025-4db2-97fe-4e971fe14505","stateCode":"RIX","latitude":"57.00008000","longitude":"24.15997000"},{"id":"e3d988d6-d897-4168-b88c-63ec9ae83248","name":"Riga","ru":"Riga","country":"d78ac786-1766-4c4e-900a-2af5f4d4dd0f","countryCode":"LV","state":"969dba71-7025-4db2-97fe-4e971fe14505","stateCode":"RIX","latitude":"56.94600000","longitude":"24.10589000"},{"id":"6b7688a3-3944-4497-a55b-5d1b2d1b8672","name":"Roja","ru":"Roja","country":"d78ac786-1766-4c4e-900a-2af5f4d4dd0f","countryCode":"LV","state":"e9ab4b73-d423-4f2a-b197-008737cbad84","stateCode":"079","latitude":"57.50146000","longitude":"22.80881000"},{"id":"35619374-626c-4cbd-80d6-4b4004efb20c","name":"Ropaži","ru":"Ropaži","country":"d78ac786-1766-4c4e-900a-2af5f4d4dd0f","countryCode":"LV","state":"71fc74a7-cd8a-4572-9242-7d8bd11bd891","stateCode":"080","latitude":"56.97470000","longitude":"24.63295000"},{"id":"7d67ff09-fb40-4a86-b5b8-9824bf88444e","name":"Rucava","ru":"Rucava","country":"d78ac786-1766-4c4e-900a-2af5f4d4dd0f","countryCode":"LV","state":"1d49433c-5225-4583-b402-5ea4861b84da","stateCode":"081","latitude":"56.16314000","longitude":"21.16156000"},{"id":"915563b6-8744-4bcf-93b8-93b7abe3f177","name":"Rugāji","ru":"Rugāji","country":"d78ac786-1766-4c4e-900a-2af5f4d4dd0f","countryCode":"LV","state":"64750ee7-ec8d-483a-8cf7-23f3e861b89d","stateCode":"082","latitude":"57.00325000","longitude":"27.13371000"},{"id":"f7b8290e-3c04-4fe8-b035-6b119e56424a","name":"Pilsrundāle","ru":"Pilsrundāle","country":"d78ac786-1766-4c4e-900a-2af5f4d4dd0f","countryCode":"LV","state":"d5de2f29-39e4-4157-8f83-b9129ff03188","stateCode":"083","latitude":"56.41812000","longitude":"24.01625000"},{"id":"ebd81109-b0ab-441d-92a4-7d88619a03fd","name":"Ainaži","ru":"Ainaži","country":"d78ac786-1766-4c4e-900a-2af5f4d4dd0f","countryCode":"LV","state":"3476fb28-0197-4cf6-a6a4-0ab22aebb62f","stateCode":"086","latitude":"57.86348000","longitude":"24.35853000"},{"id":"2c853356-cd1e-4990-9c51-e1642bf17893","name":"Salacgrīva","ru":"Salacgrīva","country":"d78ac786-1766-4c4e-900a-2af5f4d4dd0f","countryCode":"LV","state":"3476fb28-0197-4cf6-a6a4-0ab22aebb62f","stateCode":"086","latitude":"57.75312000","longitude":"24.35895000"},{"id":"47a6b586-d570-4f19-93e6-312f4ae59f4c","name":"Salaspils","ru":"Salaspils","country":"d78ac786-1766-4c4e-900a-2af5f4d4dd0f","countryCode":"LV","state":"f09a1556-b56e-4e44-a5bf-bcab84928be6","stateCode":"087","latitude":"56.86014000","longitude":"24.36544000"},{"id":"88a96a4c-448a-4308-8022-ac53b3dc7b52","name":"Saldus","ru":"Saldus","country":"d78ac786-1766-4c4e-900a-2af5f4d4dd0f","countryCode":"LV","state":"97172503-5718-4c81-959b-659bb6efbc26","stateCode":"088","latitude":"56.66363000","longitude":"22.48807000"},{"id":"685d1bdd-5d0c-402e-a03a-e83be53e7bcd","name":"Saulkrasti","ru":"Saulkrasti","country":"d78ac786-1766-4c4e-900a-2af5f4d4dd0f","countryCode":"LV","state":"506baf8e-1506-46f6-ab7e-753548df1761","stateCode":"089","latitude":"57.26224000","longitude":"24.41471000"},{"id":"f3a2c00d-cea0-461b-8cea-6a6268ad2a0d","name":"Engure","ru":"Engure","country":"d78ac786-1766-4c4e-900a-2af5f4d4dd0f","countryCode":"LV","state":"6581e0ae-3c06-44c9-b5a8-1ad013e5178a","stateCode":"090","latitude":"57.16061000","longitude":"23.22527000"},{"id":"d41e54be-727f-4ef6-be91-604adfd3375c","name":"Tukums","ru":"Tukums","country":"d78ac786-1766-4c4e-900a-2af5f4d4dd0f","countryCode":"LV","state":"6581e0ae-3c06-44c9-b5a8-1ad013e5178a","stateCode":"090","latitude":"56.96764000","longitude":"23.15554000"},{"id":"b3b88908-1f90-4084-b96c-0762f949cefe","name":"Sigulda","ru":"Sigulda","country":"d78ac786-1766-4c4e-900a-2af5f4d4dd0f","countryCode":"LV","state":"86604bef-78bb-4e18-937b-b8b570e93b74","stateCode":"091","latitude":"57.15375000","longitude":"24.85953000"},{"id":"548ab0d3-8db6-42b5-877c-bb4fc551a8dd","name":"Skrīveri","ru":"Skrīveri","country":"d78ac786-1766-4c4e-900a-2af5f4d4dd0f","countryCode":"LV","state":"f4c3e345-cda0-4ae0-bece-885ddcf72ab9","stateCode":"092","latitude":"56.64500000","longitude":"25.12058000"},{"id":"4075c82a-c52b-411f-b2a9-4355f6bded2f","name":"Skrunda","ru":"Skrunda","country":"d78ac786-1766-4c4e-900a-2af5f4d4dd0f","countryCode":"LV","state":"06bdc4de-6482-46af-9e30-893d62682ea8","stateCode":"093","latitude":"56.67749000","longitude":"22.01649000"},{"id":"082a76d7-5978-4a3b-ab49-3c7b73809864","name":"Smiltene","ru":"Smiltene","country":"d78ac786-1766-4c4e-900a-2af5f4d4dd0f","countryCode":"LV","state":"22a4d93b-01c7-4549-ad3f-eb908871c012","stateCode":"094","latitude":"57.42444000","longitude":"25.90164000"},{"id":"7c4068d1-f15d-46da-967a-eb34ea97612d","name":"Ulbroka","ru":"Ulbroka","country":"d78ac786-1766-4c4e-900a-2af5f4d4dd0f","countryCode":"LV","state":"c026ac55-de72-465f-ae45-17d3eea85c31","stateCode":"095","latitude":"56.93630000","longitude":"24.30387000"},{"id":"32502d56-994a-4665-b322-71b568db247f","name":"Seda","ru":"Seda","country":"d78ac786-1766-4c4e-900a-2af5f4d4dd0f","countryCode":"LV","state":"e06acba5-98b0-4ef1-b552-bb4101ac13ea","stateCode":"096","latitude":"57.65042000","longitude":"25.75089000"},{"id":"6ba4a9e0-6f2e-4271-8f0c-f377db7f9574","name":"Strenči","ru":"Strenči","country":"d78ac786-1766-4c4e-900a-2af5f4d4dd0f","countryCode":"LV","state":"e06acba5-98b0-4ef1-b552-bb4101ac13ea","stateCode":"096","latitude":"57.62574000","longitude":"25.68535000"},{"id":"4472ef5c-22b9-4acb-9776-c09b96d22936","name":"Sabile","ru":"Sabile","country":"d78ac786-1766-4c4e-900a-2af5f4d4dd0f","countryCode":"LV","state":"5cd52ce4-e0c5-4560-9566-dcaea1b4a3ab","stateCode":"097","latitude":"57.04577000","longitude":"22.57261000"},{"id":"c4d2762b-d615-4a5a-b2ab-c7dd937474e1","name":"Stende","ru":"Stende","country":"d78ac786-1766-4c4e-900a-2af5f4d4dd0f","countryCode":"LV","state":"5cd52ce4-e0c5-4560-9566-dcaea1b4a3ab","stateCode":"097","latitude":"57.14497000","longitude":"22.53482000"},{"id":"906607b5-c28f-46df-82b5-f887d9479d14","name":"Talsi","ru":"Talsi","country":"d78ac786-1766-4c4e-900a-2af5f4d4dd0f","countryCode":"LV","state":"5cd52ce4-e0c5-4560-9566-dcaea1b4a3ab","stateCode":"097","latitude":"57.24562000","longitude":"22.58137000"},{"id":"1d274ba1-3465-4daa-b16e-055650dac76e","name":"Valdemārpils","ru":"Valdemārpils","country":"d78ac786-1766-4c4e-900a-2af5f4d4dd0f","countryCode":"LV","state":"5cd52ce4-e0c5-4560-9566-dcaea1b4a3ab","stateCode":"097","latitude":"57.37068000","longitude":"22.59188000"},{"id":"05940b35-7c6f-4fc3-bed3-8a8729289ecc","name":"Tērvete","ru":"Tērvete","country":"d78ac786-1766-4c4e-900a-2af5f4d4dd0f","countryCode":"LV","state":"3b791a19-3fed-481e-8169-582d6f5330f7","stateCode":"098","latitude":"56.47989000","longitude":"23.38895000"},{"id":"a8758cfe-3b3c-4916-837f-bc1bd5587558","name":"Zelmeņi","ru":"Zelmeņi","country":"d78ac786-1766-4c4e-900a-2af5f4d4dd0f","countryCode":"LV","state":"3b791a19-3fed-481e-8169-582d6f5330f7","stateCode":"098","latitude":"56.45167000","longitude":"23.35194000"},{"id":"c6b9c927-fa44-439b-9fff-f52e45b9b27c","name":"Vaiņode","ru":"Vaiņode","country":"d78ac786-1766-4c4e-900a-2af5f4d4dd0f","countryCode":"LV","state":"0db0ee09-c7c5-44be-bbe5-1b7f43026d99","stateCode":"100","latitude":"56.41848000","longitude":"21.85405000"},{"id":"f78ad563-06b0-491e-9da8-ff8b636675df","name":"Valka","ru":"Valka","country":"d78ac786-1766-4c4e-900a-2af5f4d4dd0f","countryCode":"LV","state":"12bd3145-05fc-49a1-aae2-fd2c6ab8f77f","stateCode":"101","latitude":"57.77520000","longitude":"26.01013000"},{"id":"9c08fd74-7924-476a-9b3a-aac78fb03c33","name":"Valmiera","ru":"Valmiera","country":"d78ac786-1766-4c4e-900a-2af5f4d4dd0f","countryCode":"LV","state":"1260505c-fe1c-4c40-aab9-32f16448526c","stateCode":"VMR","latitude":"57.54108000","longitude":"25.42751000"},{"id":"86d2ec7f-ccc4-4983-9290-2fc24137d12d","name":"Varakļāni","ru":"Varakļāni","country":"d78ac786-1766-4c4e-900a-2af5f4d4dd0f","countryCode":"LV","state":"5ef1ef34-dc66-42b8-b28e-6e74ade9979b","stateCode":"102","latitude":"56.60826000","longitude":"26.75377000"},{"id":"68d018b7-65cf-4cc9-9d00-769a267ad78f","name":"Vecvārkava","ru":"Vecvārkava","country":"d78ac786-1766-4c4e-900a-2af5f4d4dd0f","countryCode":"LV","state":"7453d37a-1d99-48b8-9d64-e0944343bc3c","stateCode":"103","latitude":"56.19838000","longitude":"26.50811000"},{"id":"f495d818-7a29-4d26-bc84-6aa60ec91581","name":"Vecpiebalga","ru":"Vecpiebalga","country":"d78ac786-1766-4c4e-900a-2af5f4d4dd0f","countryCode":"LV","state":"c73f232a-fb53-4018-aa2c-928f66523981","stateCode":"104","latitude":"57.06090000","longitude":"25.81624000"},{"id":"e2a3994e-7f73-4366-a806-bcef0b10797f","name":"Vecumnieki","ru":"Vecumnieki","country":"d78ac786-1766-4c4e-900a-2af5f4d4dd0f","countryCode":"LV","state":"78a48b49-700a-4672-a7d8-58815e90e1b3","stateCode":"105","latitude":"56.60608000","longitude":"24.52232000"},{"id":"3e12a062-6991-49b5-9224-b0c15694dd3d","name":"Ventspils","ru":"Ventspils","country":"d78ac786-1766-4c4e-900a-2af5f4d4dd0f","countryCode":"LV","state":"f6e582a6-c2c6-44ec-9789-227d3ec8eff5","stateCode":"VEN","latitude":"57.38988000","longitude":"21.57288000"},{"id":"757e7c48-f256-4273-800d-e46c726ef2fd","name":"Piltene","ru":"Piltene","country":"d78ac786-1766-4c4e-900a-2af5f4d4dd0f","countryCode":"LV","state":"8fd7160c-5d80-415d-92ab-5256815dd063","stateCode":"106","latitude":"57.22426000","longitude":"21.67439000"},{"id":"0ff4e0ca-322d-4915-950c-0665ada2a6d9","name":"Viļaka","ru":"Viļaka","country":"d78ac786-1766-4c4e-900a-2af5f4d4dd0f","countryCode":"LV","state":"f0f4e134-eeee-491d-bd09-8d431dd42c45","stateCode":"108","latitude":"57.18458000","longitude":"27.67220000"},{"id":"70c7f582-580c-4f0a-9d3e-ecf4ecaa8464","name":"Viļāni","ru":"Viļāni","country":"d78ac786-1766-4c4e-900a-2af5f4d4dd0f","countryCode":"LV","state":"145f41fd-db53-45ea-9ce2-0056e2cfbe1c","stateCode":"109","latitude":"56.55253000","longitude":"26.92449000"},{"id":"22a163e4-caec-4afd-a6d8-c190c84b14f9","name":"Viesīte","ru":"Viesīte","country":"d78ac786-1766-4c4e-900a-2af5f4d4dd0f","countryCode":"LV","state":"4624eb18-cef6-4773-a3d2-cf668cf01418","stateCode":"107","latitude":"56.34751000","longitude":"25.55514000"},{"id":"dbe025e5-d6be-4ae2-88b0-6d3a3da8794a","name":"Zilupe","ru":"Zilupe","country":"d78ac786-1766-4c4e-900a-2af5f4d4dd0f","countryCode":"LV","state":"f5af6d55-583d-4e83-9b2b-43fb97cb14d6","stateCode":"110","latitude":"56.38616000","longitude":"28.12165000"}]