[{"id":"da7f752f-149d-4291-a370-b119b2cadba1","name":"Çorovodë","ru":"Çorovodë","country":"6211f738-d81a-4e52-9ecf-37f1fa498ec2","countryCode":"AL","state":"73cb42a1-a54a-44e9-bd1a-77285f27a479","stateCode":"BR","latitude":"40.50417000","longitude":"20.22722000"},{"id":"394c9c5e-9c85-48e1-be64-bf6acaa189c1","name":"Banaj","ru":"Banaj","country":"6211f738-d81a-4e52-9ecf-37f1fa498ec2","countryCode":"AL","state":"73cb42a1-a54a-44e9-bd1a-77285f27a479","stateCode":"BR","latitude":"40.82492000","longitude":"19.84074000"},{"id":"0a49c503-2d34-4918-949d-6176d95d4118","name":"Bashkia Berat","ru":"Bashkia Berat","country":"6211f738-d81a-4e52-9ecf-37f1fa498ec2","countryCode":"AL","state":"73cb42a1-a54a-44e9-bd1a-77285f27a479","stateCode":"BR","latitude":"40.69997000","longitude":"19.94983000"},{"id":"f1eed57a-c8ad-49d3-ae65-ec1a585823d0","name":"Bashkia Kuçovë","ru":"Bashkia Kuçovë","country":"6211f738-d81a-4e52-9ecf-37f1fa498ec2","countryCode":"AL","state":"73cb42a1-a54a-44e9-bd1a-77285f27a479","stateCode":"BR","latitude":"40.82489000","longitude":"19.95350000"},{"id":"93025fb7-d12b-47bc-b5cd-f55ed1553061","name":"Bashkia Poliçan","ru":"Bashkia Poliçan","country":"6211f738-d81a-4e52-9ecf-37f1fa498ec2","countryCode":"AL","state":"73cb42a1-a54a-44e9-bd1a-77285f27a479","stateCode":"BR","latitude":"40.58608000","longitude":"20.04535000"},{"id":"37561799-18b5-4d89-8ad3-37eb9dde9213","name":"Bashkia Skrapar","ru":"Bashkia Skrapar","country":"6211f738-d81a-4e52-9ecf-37f1fa498ec2","countryCode":"AL","state":"73cb42a1-a54a-44e9-bd1a-77285f27a479","stateCode":"BR","latitude":"40.56036000","longitude":"20.25477000"},{"id":"15671399-ed83-41af-8856-7c971b797cf8","name":"Berat","ru":"Berat","country":"6211f738-d81a-4e52-9ecf-37f1fa498ec2","countryCode":"AL","state":"73cb42a1-a54a-44e9-bd1a-77285f27a479","stateCode":"BR","latitude":"40.70583000","longitude":"19.95222000"},{"id":"41755640-b24f-4142-b25e-f2ebcae67b82","name":"Kuçovë","ru":"Kuçovë","country":"6211f738-d81a-4e52-9ecf-37f1fa498ec2","countryCode":"AL","state":"73cb42a1-a54a-44e9-bd1a-77285f27a479","stateCode":"BR","latitude":"40.80028000","longitude":"19.91667000"},{"id":"3d95a148-f63b-4e8f-ac9f-80c6027f1aaf","name":"Poliçan","ru":"Poliçan","country":"6211f738-d81a-4e52-9ecf-37f1fa498ec2","countryCode":"AL","state":"73cb42a1-a54a-44e9-bd1a-77285f27a479","stateCode":"BR","latitude":"40.61222000","longitude":"20.09806000"},{"id":"412cff72-4d18-407e-b1e9-6738ddebd2e8","name":"Rrethi i Beratit","ru":"Rrethi i Beratit","country":"6211f738-d81a-4e52-9ecf-37f1fa498ec2","countryCode":"AL","state":"73cb42a1-a54a-44e9-bd1a-77285f27a479","stateCode":"BR","latitude":"40.66667000","longitude":"20.00000000"},{"id":"6032bea6-4d69-4afd-9e83-bb81cf529aeb","name":"Rrethi i Kuçovës","ru":"Rrethi i Kuçovës","country":"6211f738-d81a-4e52-9ecf-37f1fa498ec2","countryCode":"AL","state":"73cb42a1-a54a-44e9-bd1a-77285f27a479","stateCode":"BR","latitude":"40.83333000","longitude":"19.91667000"},{"id":"2ba93f4f-1d28-4d19-9f30-8bb6ed6a0cc7","name":"Rrethi i Skraparit","ru":"Rrethi i Skraparit","country":"6211f738-d81a-4e52-9ecf-37f1fa498ec2","countryCode":"AL","state":"73cb42a1-a54a-44e9-bd1a-77285f27a479","stateCode":"BR","latitude":"40.55000000","longitude":"20.26667000"},{"id":"322bf737-ba50-44cc-8874-009f03875a8b","name":"Ura Vajgurore","ru":"Ura Vajgurore","country":"6211f738-d81a-4e52-9ecf-37f1fa498ec2","countryCode":"AL","state":"73cb42a1-a54a-44e9-bd1a-77285f27a479","stateCode":"BR","latitude":"40.76889000","longitude":"19.87778000"},{"id":"9b3cd3b4-f8ef-4997-af5f-866322e81acd","name":"Bashkia Bulqizë","ru":"Bashkia Bulqizë","country":"6211f738-d81a-4e52-9ecf-37f1fa498ec2","countryCode":"AL","state":"590b3e86-1ff9-4f5d-8d2b-5cb40c57ae93","stateCode":"09","latitude":"41.47152000","longitude":"20.33192000"},{"id":"2bbd31cc-4cd5-49a8-88ba-00cfbdd382ba","name":"Bashkia Klos","ru":"Bashkia Klos","country":"6211f738-d81a-4e52-9ecf-37f1fa498ec2","countryCode":"AL","state":"590b3e86-1ff9-4f5d-8d2b-5cb40c57ae93","stateCode":"09","latitude":"41.50826000","longitude":"20.07107000"},{"id":"670f4a05-d630-4106-adf6-88db72b3c849","name":"Bashkia Mat","ru":"Bashkia Mat","country":"6211f738-d81a-4e52-9ecf-37f1fa498ec2","countryCode":"AL","state":"590b3e86-1ff9-4f5d-8d2b-5cb40c57ae93","stateCode":"09","latitude":"41.63317000","longitude":"20.01228000"},{"id":"3641c8c4-aa9f-4986-9d21-024e3832ded2","name":"Bulqizë","ru":"Bulqizë","country":"6211f738-d81a-4e52-9ecf-37f1fa498ec2","countryCode":"AL","state":"590b3e86-1ff9-4f5d-8d2b-5cb40c57ae93","stateCode":"09","latitude":"41.49167000","longitude":"20.22194000"},{"id":"833f8c7e-4f3e-4efe-902b-5b67f1c435fc","name":"Burrel","ru":"Burrel","country":"6211f738-d81a-4e52-9ecf-37f1fa498ec2","countryCode":"AL","state":"590b3e86-1ff9-4f5d-8d2b-5cb40c57ae93","stateCode":"09","latitude":"41.61028000","longitude":"20.00889000"},{"id":"c22a5f15-3604-4b0d-92e1-2837f4bd4103","name":"Klos","ru":"Klos","country":"6211f738-d81a-4e52-9ecf-37f1fa498ec2","countryCode":"AL","state":"590b3e86-1ff9-4f5d-8d2b-5cb40c57ae93","stateCode":"09","latitude":"41.50694000","longitude":"20.08667000"},{"id":"184e1eb9-3a30-4a71-b2ab-f925a1464f7d","name":"Peshkopi","ru":"Peshkopi","country":"6211f738-d81a-4e52-9ecf-37f1fa498ec2","countryCode":"AL","state":"590b3e86-1ff9-4f5d-8d2b-5cb40c57ae93","stateCode":"09","latitude":"41.68500000","longitude":"20.42889000"},{"id":"f21e4984-2100-4976-8ecd-deefbb64aa68","name":"Rrethi i Bulqizës","ru":"Rrethi i Bulqizës","country":"6211f738-d81a-4e52-9ecf-37f1fa498ec2","countryCode":"AL","state":"590b3e86-1ff9-4f5d-8d2b-5cb40c57ae93","stateCode":"09","latitude":"41.50000000","longitude":"20.33333000"},{"id":"86998ff2-49ff-4a66-9e93-023e3b3025c7","name":"Rrethi i Dibrës","ru":"Rrethi i Dibrës","country":"6211f738-d81a-4e52-9ecf-37f1fa498ec2","countryCode":"AL","state":"590b3e86-1ff9-4f5d-8d2b-5cb40c57ae93","stateCode":"09","latitude":"41.75000000","longitude":"20.33333000"},{"id":"656e2944-cb1f-4018-bd50-bc8af364e492","name":"Rrethi i Matit","ru":"Rrethi i Matit","country":"6211f738-d81a-4e52-9ecf-37f1fa498ec2","countryCode":"AL","state":"590b3e86-1ff9-4f5d-8d2b-5cb40c57ae93","stateCode":"09","latitude":"41.58333000","longitude":"20.08333000"},{"id":"8ae8f69f-f089-47e7-90de-4ff5d21b2791","name":"Ulëz","ru":"Ulëz","country":"6211f738-d81a-4e52-9ecf-37f1fa498ec2","countryCode":"AL","state":"590b3e86-1ff9-4f5d-8d2b-5cb40c57ae93","stateCode":"09","latitude":"41.68278000","longitude":"19.89333000"},{"id":"5913a87b-c5e2-4108-80d7-45342f43d476","name":"Bashkia Durrës","ru":"Bashkia Durrës","country":"6211f738-d81a-4e52-9ecf-37f1fa498ec2","countryCode":"AL","state":"a67ee1b0-c07a-4f20-a46e-22f12c4997e8","stateCode":"DR","latitude":"41.42743000","longitude":"19.48690000"},{"id":"208a7adc-f410-42a8-a239-3a1b1dcc3b45","name":"Bashkia Krujë","ru":"Bashkia Krujë","country":"6211f738-d81a-4e52-9ecf-37f1fa498ec2","countryCode":"AL","state":"a67ee1b0-c07a-4f20-a46e-22f12c4997e8","stateCode":"DR","latitude":"41.50091000","longitude":"19.72571000"},{"id":"e82a2db0-ea95-4d06-bc20-7a92b8701aa5","name":"Bashkia Shijak","ru":"Bashkia Shijak","country":"6211f738-d81a-4e52-9ecf-37f1fa498ec2","countryCode":"AL","state":"a67ee1b0-c07a-4f20-a46e-22f12c4997e8","stateCode":"DR","latitude":"41.33558000","longitude":"19.58977000"},{"id":"fca560b6-4dd7-4869-ad97-b7c31c2fdb35","name":"Durrës","ru":"Durrës","country":"6211f738-d81a-4e52-9ecf-37f1fa498ec2","countryCode":"AL","state":"a67ee1b0-c07a-4f20-a46e-22f12c4997e8","stateCode":"DR","latitude":"41.32355000","longitude":"19.45469000"},{"id":"4baeb5d8-d459-451e-b840-19be5010567b","name":"Durrës District","ru":"Durrës District","country":"6211f738-d81a-4e52-9ecf-37f1fa498ec2","countryCode":"AL","state":"a67ee1b0-c07a-4f20-a46e-22f12c4997e8","stateCode":"DR","latitude":"41.31660000","longitude":"19.45000000"},{"id":"5d49249b-78fc-4408-97ba-0beb01e80ed7","name":"Fushë-Krujë","ru":"Fushë-Krujë","country":"6211f738-d81a-4e52-9ecf-37f1fa498ec2","countryCode":"AL","state":"a67ee1b0-c07a-4f20-a46e-22f12c4997e8","stateCode":"DR","latitude":"41.47833000","longitude":"19.71778000"},{"id":"cb2e15d2-a003-47be-b5ec-017eb16d4879","name":"Krujë","ru":"Krujë","country":"6211f738-d81a-4e52-9ecf-37f1fa498ec2","countryCode":"AL","state":"a67ee1b0-c07a-4f20-a46e-22f12c4997e8","stateCode":"DR","latitude":"41.50917000","longitude":"19.79278000"},{"id":"eaa75776-cd98-4e83-b4cc-78c5f8a92bc6","name":"Rrethi i Krujës","ru":"Rrethi i Krujës","country":"6211f738-d81a-4e52-9ecf-37f1fa498ec2","countryCode":"AL","state":"a67ee1b0-c07a-4f20-a46e-22f12c4997e8","stateCode":"DR","latitude":"41.55000000","longitude":"19.75000000"},{"id":"11863f94-b54a-4c1c-ae50-6c81096a5ca1","name":"Shijak","ru":"Shijak","country":"6211f738-d81a-4e52-9ecf-37f1fa498ec2","countryCode":"AL","state":"a67ee1b0-c07a-4f20-a46e-22f12c4997e8","stateCode":"DR","latitude":"41.34556000","longitude":"19.56722000"},{"id":"2668e578-117e-49fa-bd49-ba300547c144","name":"Sukth","ru":"Sukth","country":"6211f738-d81a-4e52-9ecf-37f1fa498ec2","countryCode":"AL","state":"a67ee1b0-c07a-4f20-a46e-22f12c4997e8","stateCode":"DR","latitude":"41.38056000","longitude":"19.53778000"},{"id":"a7b191c0-bf75-4bfd-a91c-1ed95d2bad0d","name":"Ballsh","ru":"Ballsh","country":"6211f738-d81a-4e52-9ecf-37f1fa498ec2","countryCode":"AL","state":"3ede8897-93ce-4ed8-80f8-dad2218cbea2","stateCode":"04","latitude":"40.59889000","longitude":"19.73472000"},{"id":"92c003b3-9d9e-4bc5-8414-18a7d1afd0f9","name":"Bashkia Divjakë","ru":"Bashkia Divjakë","country":"6211f738-d81a-4e52-9ecf-37f1fa498ec2","countryCode":"AL","state":"3ede8897-93ce-4ed8-80f8-dad2218cbea2","stateCode":"04","latitude":"40.95716000","longitude":"19.52364000"},{"id":"b181199b-07b0-450f-a0d0-17e5e042da23","name":"Bashkia Fier","ru":"Bashkia Fier","country":"6211f738-d81a-4e52-9ecf-37f1fa498ec2","countryCode":"AL","state":"3ede8897-93ce-4ed8-80f8-dad2218cbea2","stateCode":"04","latitude":"40.72937000","longitude":"19.48690000"},{"id":"5cbe1723-b98b-4944-8095-0fdfc2cedeca","name":"Bashkia Mallakastër","ru":"Bashkia Mallakastër","country":"6211f738-d81a-4e52-9ecf-37f1fa498ec2","countryCode":"AL","state":"3ede8897-93ce-4ed8-80f8-dad2218cbea2","stateCode":"04","latitude":"40.55669000","longitude":"19.77347000"},{"id":"ead996c4-cb9a-4e4a-8822-fba5a7926111","name":"Bashkia Patos","ru":"Bashkia Patos","country":"6211f738-d81a-4e52-9ecf-37f1fa498ec2","countryCode":"AL","state":"3ede8897-93ce-4ed8-80f8-dad2218cbea2","stateCode":"04","latitude":"40.67793000","longitude":"19.65591000"},{"id":"20e19b00-a4fd-4186-8b4f-3621de094703","name":"Divjakë","ru":"Divjakë","country":"6211f738-d81a-4e52-9ecf-37f1fa498ec2","countryCode":"AL","state":"3ede8897-93ce-4ed8-80f8-dad2218cbea2","stateCode":"04","latitude":"40.99667000","longitude":"19.52944000"},{"id":"645b8e7d-9aaa-44cd-b350-e991582e3447","name":"Fier","ru":"Fier","country":"6211f738-d81a-4e52-9ecf-37f1fa498ec2","countryCode":"AL","state":"3ede8897-93ce-4ed8-80f8-dad2218cbea2","stateCode":"04","latitude":"40.72389000","longitude":"19.55611000"},{"id":"06b33113-5061-4d1f-8991-62b5230e648a","name":"Fier-Çifçi","ru":"Fier-Çifçi","country":"6211f738-d81a-4e52-9ecf-37f1fa498ec2","countryCode":"AL","state":"3ede8897-93ce-4ed8-80f8-dad2218cbea2","stateCode":"04","latitude":"40.71667000","longitude":"19.56667000"},{"id":"5ce4a8f3-717e-4fe5-96a1-0ec117596427","name":"Lushnjë","ru":"Lushnjë","country":"6211f738-d81a-4e52-9ecf-37f1fa498ec2","countryCode":"AL","state":"3ede8897-93ce-4ed8-80f8-dad2218cbea2","stateCode":"04","latitude":"40.94194000","longitude":"19.70500000"},{"id":"613dac81-7e6b-4218-92a0-dafdc5ba9f27","name":"Patos","ru":"Patos","country":"6211f738-d81a-4e52-9ecf-37f1fa498ec2","countryCode":"AL","state":"3ede8897-93ce-4ed8-80f8-dad2218cbea2","stateCode":"04","latitude":"40.68333000","longitude":"19.61944000"},{"id":"3aee142f-2321-4199-bc7c-e2bd439e64cd","name":"Patos Fshat","ru":"Patos Fshat","country":"6211f738-d81a-4e52-9ecf-37f1fa498ec2","countryCode":"AL","state":"3ede8897-93ce-4ed8-80f8-dad2218cbea2","stateCode":"04","latitude":"40.64278000","longitude":"19.65083000"},{"id":"974e0e56-9171-406d-8a18-3bee7a624c00","name":"Roskovec","ru":"Roskovec","country":"6211f738-d81a-4e52-9ecf-37f1fa498ec2","countryCode":"AL","state":"3ede8897-93ce-4ed8-80f8-dad2218cbea2","stateCode":"04","latitude":"40.73750000","longitude":"19.70222000"},{"id":"4fa53f45-f05b-4b9b-89f0-e8629d45d132","name":"Rrethi i Mallakastrës","ru":"Rrethi i Mallakastrës","country":"6211f738-d81a-4e52-9ecf-37f1fa498ec2","countryCode":"AL","state":"3ede8897-93ce-4ed8-80f8-dad2218cbea2","stateCode":"04","latitude":"40.55000000","longitude":"19.78333000"},{"id":"966c334b-b1e5-465d-966f-62280da6fe34","name":"Bashkia Dropull","ru":"Bashkia Dropull","country":"6211f738-d81a-4e52-9ecf-37f1fa498ec2","countryCode":"AL","state":"9b4ef4fc-0e63-4f6d-9899-4a3ab7b6620e","stateCode":"GJ","latitude":"39.98584000","longitude":"20.30529000"},{"id":"d6d90673-685f-49ba-b229-67971db7bfc0","name":"Bashkia Kelcyrë","ru":"Bashkia Kelcyrë","country":"6211f738-d81a-4e52-9ecf-37f1fa498ec2","countryCode":"AL","state":"9b4ef4fc-0e63-4f6d-9899-4a3ab7b6620e","stateCode":"GJ","latitude":"40.36196000","longitude":"20.16476000"},{"id":"3c063be4-a4f2-43c7-95cb-58c7d947d5c0","name":"Bashkia Libohovë","ru":"Bashkia Libohovë","country":"6211f738-d81a-4e52-9ecf-37f1fa498ec2","countryCode":"AL","state":"9b4ef4fc-0e63-4f6d-9899-4a3ab7b6620e","stateCode":"GJ","latitude":"40.10754000","longitude":"20.25753000"},{"id":"24978bb7-0d71-41c0-a963-0b4cf0c88b3b","name":"Bashkia Memaliaj","ru":"Bashkia Memaliaj","country":"6211f738-d81a-4e52-9ecf-37f1fa498ec2","countryCode":"AL","state":"9b4ef4fc-0e63-4f6d-9899-4a3ab7b6620e","stateCode":"GJ","latitude":"40.41524000","longitude":"19.96911000"},{"id":"f96a9f38-392b-481d-af1b-db04e2e9ff81","name":"Bashkia Përmet","ru":"Bashkia Përmet","country":"6211f738-d81a-4e52-9ecf-37f1fa498ec2","countryCode":"AL","state":"9b4ef4fc-0e63-4f6d-9899-4a3ab7b6620e","stateCode":"GJ","latitude":"40.23246000","longitude":"20.41091000"},{"id":"dd258a6b-5c68-4beb-b518-f49aa80fa28d","name":"Bashkia Tepelenë","ru":"Bashkia Tepelenë","country":"6211f738-d81a-4e52-9ecf-37f1fa498ec2","countryCode":"AL","state":"9b4ef4fc-0e63-4f6d-9899-4a3ab7b6620e","stateCode":"GJ","latitude":"40.26736000","longitude":"19.97003000"},{"id":"730e0cf6-e25e-44bb-925a-340b30f9d6ed","name":"Gjinkar","ru":"Gjinkar","country":"6211f738-d81a-4e52-9ecf-37f1fa498ec2","countryCode":"AL","state":"9b4ef4fc-0e63-4f6d-9899-4a3ab7b6620e","stateCode":"GJ","latitude":"40.19944000","longitude":"20.40611000"},{"id":"d204b43d-4c30-4226-b090-9154cd31a1d6","name":"Gjirokastër","ru":"Gjirokastër","country":"6211f738-d81a-4e52-9ecf-37f1fa498ec2","countryCode":"AL","state":"9b4ef4fc-0e63-4f6d-9899-4a3ab7b6620e","stateCode":"GJ","latitude":"40.07583000","longitude":"20.13889000"},{"id":"3f59c9aa-b13e-4d18-9e52-08958e95ec75","name":"Këlcyrë","ru":"Këlcyrë","country":"6211f738-d81a-4e52-9ecf-37f1fa498ec2","countryCode":"AL","state":"9b4ef4fc-0e63-4f6d-9899-4a3ab7b6620e","stateCode":"GJ","latitude":"40.31306000","longitude":"20.18944000"},{"id":"fa5c57cb-e87e-456f-88f7-e6be1dc9dff5","name":"Lazarat","ru":"Lazarat","country":"6211f738-d81a-4e52-9ecf-37f1fa498ec2","countryCode":"AL","state":"9b4ef4fc-0e63-4f6d-9899-4a3ab7b6620e","stateCode":"GJ","latitude":"40.04667000","longitude":"20.14750000"},{"id":"6e3e944c-c336-4fb5-b3f6-733847c1c518","name":"Libohovë","ru":"Libohovë","country":"6211f738-d81a-4e52-9ecf-37f1fa498ec2","countryCode":"AL","state":"9b4ef4fc-0e63-4f6d-9899-4a3ab7b6620e","stateCode":"GJ","latitude":"40.03111000","longitude":"20.26306000"},{"id":"6cafe774-d901-4ad7-b401-7844221f81d6","name":"Memaliaj","ru":"Memaliaj","country":"6211f738-d81a-4e52-9ecf-37f1fa498ec2","countryCode":"AL","state":"9b4ef4fc-0e63-4f6d-9899-4a3ab7b6620e","stateCode":"GJ","latitude":"40.35167000","longitude":"19.98028000"},{"id":"bdaa6d85-adce-44f1-911e-fa4dcd2540e7","name":"Përmet","ru":"Përmet","country":"6211f738-d81a-4e52-9ecf-37f1fa498ec2","countryCode":"AL","state":"9b4ef4fc-0e63-4f6d-9899-4a3ab7b6620e","stateCode":"GJ","latitude":"40.23361000","longitude":"20.35167000"},{"id":"9f50320d-3031-4ea3-8815-ab29d33cb71d","name":"Tepelenë","ru":"Tepelenë","country":"6211f738-d81a-4e52-9ecf-37f1fa498ec2","countryCode":"AL","state":"9b4ef4fc-0e63-4f6d-9899-4a3ab7b6620e","stateCode":"GJ","latitude":"40.29583000","longitude":"20.01917000"},{"id":"7531c266-b9d2-4e92-bc33-ba378bf8a12d","name":"Bashkia Devoll","ru":"Bashkia Devoll","country":"6211f738-d81a-4e52-9ecf-37f1fa498ec2","countryCode":"AL","state":"c9dd96da-df0d-4269-b117-5c43a4fd024e","stateCode":"06","latitude":"40.60078000","longitude":"20.93814000"},{"id":"8e315241-4e58-4133-9b60-8249f0223f92","name":"Bashkia Kolonjë","ru":"Bashkia Kolonjë","country":"6211f738-d81a-4e52-9ecf-37f1fa498ec2","countryCode":"AL","state":"c9dd96da-df0d-4269-b117-5c43a4fd024e","stateCode":"06","latitude":"40.31420000","longitude":"20.61482000"},{"id":"58f74d29-b8f3-4541-9c1d-a2ffed1dc491","name":"Bashkia Maliq","ru":"Bashkia Maliq","country":"6211f738-d81a-4e52-9ecf-37f1fa498ec2","countryCode":"AL","state":"c9dd96da-df0d-4269-b117-5c43a4fd024e","stateCode":"06","latitude":"40.75508000","longitude":"20.60748000"},{"id":"e40e412c-1eca-4a17-a93a-555698067d78","name":"Bashkia Pustec","ru":"Bashkia Pustec","country":"6211f738-d81a-4e52-9ecf-37f1fa498ec2","countryCode":"AL","state":"c9dd96da-df0d-4269-b117-5c43a4fd024e","stateCode":"06","latitude":"40.83591000","longitude":"20.89405000"},{"id":"6816e8d8-de46-4ca9-bfde-8a64484cb232","name":"Bilisht","ru":"Bilisht","country":"6211f738-d81a-4e52-9ecf-37f1fa498ec2","countryCode":"AL","state":"c9dd96da-df0d-4269-b117-5c43a4fd024e","stateCode":"06","latitude":"40.62750000","longitude":"20.99000000"},{"id":"b6876236-a718-46a3-a0ac-3d4b346af12f","name":"Ersekë","ru":"Ersekë","country":"6211f738-d81a-4e52-9ecf-37f1fa498ec2","countryCode":"AL","state":"c9dd96da-df0d-4269-b117-5c43a4fd024e","stateCode":"06","latitude":"40.33778000","longitude":"20.67889000"},{"id":"1a2d97de-a58f-4e4d-86dc-1fab5e939c26","name":"Korçë","ru":"Korçë","country":"6211f738-d81a-4e52-9ecf-37f1fa498ec2","countryCode":"AL","state":"c9dd96da-df0d-4269-b117-5c43a4fd024e","stateCode":"06","latitude":"40.61861000","longitude":"20.78083000"},{"id":"7232a93e-5f24-42f4-a67a-9e1a52847009","name":"Leskovik","ru":"Leskovik","country":"6211f738-d81a-4e52-9ecf-37f1fa498ec2","countryCode":"AL","state":"c9dd96da-df0d-4269-b117-5c43a4fd024e","stateCode":"06","latitude":"40.15139000","longitude":"20.59722000"},{"id":"dc1433ad-1366-4bf8-9fda-ad56f2543204","name":"Libonik","ru":"Libonik","country":"6211f738-d81a-4e52-9ecf-37f1fa498ec2","countryCode":"AL","state":"c9dd96da-df0d-4269-b117-5c43a4fd024e","stateCode":"06","latitude":"40.70444000","longitude":"20.70861000"},{"id":"1ecb97dc-134c-4d5a-b32d-59dd120efb32","name":"Maliq","ru":"Maliq","country":"6211f738-d81a-4e52-9ecf-37f1fa498ec2","countryCode":"AL","state":"c9dd96da-df0d-4269-b117-5c43a4fd024e","stateCode":"06","latitude":"40.70583000","longitude":"20.69972000"},{"id":"f852b0d7-7db3-4186-9aef-6eecf5aa462b","name":"Mborje","ru":"Mborje","country":"6211f738-d81a-4e52-9ecf-37f1fa498ec2","countryCode":"AL","state":"c9dd96da-df0d-4269-b117-5c43a4fd024e","stateCode":"06","latitude":"40.60333000","longitude":"20.80306000"},{"id":"08172d05-0fbc-4183-bb3a-412175375c62","name":"Pogradec","ru":"Pogradec","country":"6211f738-d81a-4e52-9ecf-37f1fa498ec2","countryCode":"AL","state":"c9dd96da-df0d-4269-b117-5c43a4fd024e","stateCode":"06","latitude":"40.90250000","longitude":"20.65250000"},{"id":"9e729b29-73b8-403d-868a-a4fd83f02fed","name":"Rrethi i Devollit","ru":"Rrethi i Devollit","country":"6211f738-d81a-4e52-9ecf-37f1fa498ec2","countryCode":"AL","state":"c9dd96da-df0d-4269-b117-5c43a4fd024e","stateCode":"06","latitude":"40.58333000","longitude":"20.91667000"},{"id":"c752a303-820c-450e-ba31-a0ad5ccebdc6","name":"Rrethi i Kolonjës","ru":"Rrethi i Kolonjës","country":"6211f738-d81a-4e52-9ecf-37f1fa498ec2","countryCode":"AL","state":"c9dd96da-df0d-4269-b117-5c43a4fd024e","stateCode":"06","latitude":"40.25000000","longitude":"20.66667000"},{"id":"d0c1ec84-7283-4b22-a9ff-695e1417b0b5","name":"Velçan","ru":"Velçan","country":"6211f738-d81a-4e52-9ecf-37f1fa498ec2","countryCode":"AL","state":"c9dd96da-df0d-4269-b117-5c43a4fd024e","stateCode":"06","latitude":"40.95472000","longitude":"20.46222000"},{"id":"d229aea1-16c7-445a-adea-0dd3ebd983ae","name":"Voskopojë","ru":"Voskopojë","country":"6211f738-d81a-4e52-9ecf-37f1fa498ec2","countryCode":"AL","state":"c9dd96da-df0d-4269-b117-5c43a4fd024e","stateCode":"06","latitude":"40.63306000","longitude":"20.58889000"},{"id":"7cac1b85-17c7-473d-ab94-796a3ba4a44a","name":"Bajram Curri","ru":"Bajram Curri","country":"6211f738-d81a-4e52-9ecf-37f1fa498ec2","countryCode":"AL","state":"ededde45-9d20-4ef6-b7d4-4f331d1ab97f","stateCode":"KU","latitude":"42.35734000","longitude":"20.07679000"},{"id":"9aa1325a-d983-4cda-a003-df1a50d66529","name":"Krumë","ru":"Krumë","country":"6211f738-d81a-4e52-9ecf-37f1fa498ec2","countryCode":"AL","state":"ededde45-9d20-4ef6-b7d4-4f331d1ab97f","stateCode":"KU","latitude":"42.19694000","longitude":"20.41333000"},{"id":"79b35b22-d2fb-4025-ab83-398f632acc89","name":"Kukës","ru":"Kukës","country":"6211f738-d81a-4e52-9ecf-37f1fa498ec2","countryCode":"AL","state":"ededde45-9d20-4ef6-b7d4-4f331d1ab97f","stateCode":"KU","latitude":"42.07694000","longitude":"20.42194000"},{"id":"d8326809-f27b-4204-a6ab-d53226fd93db","name":"Rrethi i Hasit","ru":"Rrethi i Hasit","country":"6211f738-d81a-4e52-9ecf-37f1fa498ec2","countryCode":"AL","state":"ededde45-9d20-4ef6-b7d4-4f331d1ab97f","stateCode":"KU","latitude":"42.16667000","longitude":"20.33333000"},{"id":"684578bd-d9b6-46cc-aa28-ac1e99582ca2","name":"Rrethi i Kukësit","ru":"Rrethi i Kukësit","country":"6211f738-d81a-4e52-9ecf-37f1fa498ec2","countryCode":"AL","state":"ededde45-9d20-4ef6-b7d4-4f331d1ab97f","stateCode":"KU","latitude":"42.00000000","longitude":"20.33333000"},{"id":"cf97865a-d0e3-4280-8e26-6eb1e9f7658c","name":"Bashkia Kurbin","ru":"Bashkia Kurbin","country":"6211f738-d81a-4e52-9ecf-37f1fa498ec2","countryCode":"AL","state":"1566ad0a-391b-4c33-8d69-a449a3f2402a","stateCode":"08","latitude":"41.62215000","longitude":"19.70734000"},{"id":"8c98bd9c-976f-4693-a673-c048cf777d2d","name":"Bashkia Lezhë","ru":"Bashkia Lezhë","country":"6211f738-d81a-4e52-9ecf-37f1fa498ec2","countryCode":"AL","state":"1566ad0a-391b-4c33-8d69-a449a3f2402a","stateCode":"08","latitude":"41.81320000","longitude":"19.64121000"},{"id":"089a7cf8-9edd-40ef-84ad-a5a8a34b2151","name":"Bashkia Mirditë","ru":"Bashkia Mirditë","country":"6211f738-d81a-4e52-9ecf-37f1fa498ec2","countryCode":"AL","state":"1566ad0a-391b-4c33-8d69-a449a3f2402a","stateCode":"08","latitude":"41.80953000","longitude":"19.99024000"},{"id":"693371f2-45a3-4ddc-80e6-d86485736b81","name":"Kurbnesh","ru":"Kurbnesh","country":"6211f738-d81a-4e52-9ecf-37f1fa498ec2","countryCode":"AL","state":"1566ad0a-391b-4c33-8d69-a449a3f2402a","stateCode":"08","latitude":"41.77972000","longitude":"20.08361000"},{"id":"bce919d4-aabb-4542-8e3c-661a3f2db10e","name":"Laç","ru":"Laç","country":"6211f738-d81a-4e52-9ecf-37f1fa498ec2","countryCode":"AL","state":"1566ad0a-391b-4c33-8d69-a449a3f2402a","stateCode":"08","latitude":"41.63556000","longitude":"19.71306000"},{"id":"213dd962-f9e8-4395-97ff-1df05c5e2914","name":"Lezhë","ru":"Lezhë","country":"6211f738-d81a-4e52-9ecf-37f1fa498ec2","countryCode":"AL","state":"1566ad0a-391b-4c33-8d69-a449a3f2402a","stateCode":"08","latitude":"41.78361000","longitude":"19.64361000"},{"id":"7e31a59d-0447-454d-9380-b8b9703da21a","name":"Mamurras","ru":"Mamurras","country":"6211f738-d81a-4e52-9ecf-37f1fa498ec2","countryCode":"AL","state":"1566ad0a-391b-4c33-8d69-a449a3f2402a","stateCode":"08","latitude":"41.57750000","longitude":"19.69222000"},{"id":"715597ed-e0bc-4549-bb96-b97ea1c8d9c5","name":"Milot","ru":"Milot","country":"6211f738-d81a-4e52-9ecf-37f1fa498ec2","countryCode":"AL","state":"1566ad0a-391b-4c33-8d69-a449a3f2402a","stateCode":"08","latitude":"41.68389000","longitude":"19.71556000"},{"id":"c53ad5e3-a553-4ae0-a814-ba49e59c6537","name":"Rrëshen","ru":"Rrëshen","country":"6211f738-d81a-4e52-9ecf-37f1fa498ec2","countryCode":"AL","state":"1566ad0a-391b-4c33-8d69-a449a3f2402a","stateCode":"08","latitude":"41.76750000","longitude":"19.87556000"},{"id":"ba9fb6e0-1dd5-4efa-b871-5fa64b1499dd","name":"Rrethi i Kurbinit","ru":"Rrethi i Kurbinit","country":"6211f738-d81a-4e52-9ecf-37f1fa498ec2","countryCode":"AL","state":"1566ad0a-391b-4c33-8d69-a449a3f2402a","stateCode":"08","latitude":"41.63333000","longitude":"19.71667000"},{"id":"167dc00a-310c-4e57-a40d-bf941860e4af","name":"Rubik","ru":"Rubik","country":"6211f738-d81a-4e52-9ecf-37f1fa498ec2","countryCode":"AL","state":"1566ad0a-391b-4c33-8d69-a449a3f2402a","stateCode":"08","latitude":"41.77444000","longitude":"19.78611000"},{"id":"32451261-ad33-4299-8af6-69bc6084dead","name":"Shëngjin","ru":"Shëngjin","country":"6211f738-d81a-4e52-9ecf-37f1fa498ec2","countryCode":"AL","state":"1566ad0a-391b-4c33-8d69-a449a3f2402a","stateCode":"08","latitude":"41.81361000","longitude":"19.59389000"},{"id":"339464e1-e291-4c0c-8846-09f59ab9b927","name":"Bashkia Malësi e Madhe","ru":"Bashkia Malësi e Madhe","country":"6211f738-d81a-4e52-9ecf-37f1fa498ec2","countryCode":"AL","state":"31abd7be-9292-4738-869e-a24eaabb9831","stateCode":"SH","latitude":"42.36798000","longitude":"19.58977000"},{"id":"3270c33b-a817-46ff-9aa1-244c8a9480a0","name":"Bashkia Pukë","ru":"Bashkia Pukë","country":"6211f738-d81a-4e52-9ecf-37f1fa498ec2","countryCode":"AL","state":"31abd7be-9292-4738-869e-a24eaabb9831","stateCode":"SH","latitude":"42.02997000","longitude":"19.92778000"},{"id":"197161c2-73e2-4d98-b334-ff3400ef1fc4","name":"Bashkia Vau i Dejës","ru":"Bashkia Vau i Dejës","country":"6211f738-d81a-4e52-9ecf-37f1fa498ec2","countryCode":"AL","state":"31abd7be-9292-4738-869e-a24eaabb9831","stateCode":"SH","latitude":"42.04834000","longitude":"19.69999000"},{"id":"9b6ae0b6-c38f-4bb8-a563-b294c20787ed","name":"Fushë-Arrëz","ru":"Fushë-Arrëz","country":"6211f738-d81a-4e52-9ecf-37f1fa498ec2","countryCode":"AL","state":"31abd7be-9292-4738-869e-a24eaabb9831","stateCode":"SH","latitude":"42.06222000","longitude":"20.01667000"},{"id":"fcf165e1-be82-42f8-bf94-d64c26197dc1","name":"Koplik","ru":"Koplik","country":"6211f738-d81a-4e52-9ecf-37f1fa498ec2","countryCode":"AL","state":"31abd7be-9292-4738-869e-a24eaabb9831","stateCode":"SH","latitude":"42.21361000","longitude":"19.43639000"},{"id":"1eb6f794-19c6-454c-9e9c-514670df54d1","name":"Pukë","ru":"Pukë","country":"6211f738-d81a-4e52-9ecf-37f1fa498ec2","countryCode":"AL","state":"31abd7be-9292-4738-869e-a24eaabb9831","stateCode":"SH","latitude":"42.04444000","longitude":"19.89972000"},{"id":"b9fa4f17-f8b4-4225-bfe1-effff64bc507","name":"Rrethi i Malësia e Madhe","ru":"Rrethi i Malësia e Madhe","country":"6211f738-d81a-4e52-9ecf-37f1fa498ec2","countryCode":"AL","state":"31abd7be-9292-4738-869e-a24eaabb9831","stateCode":"SH","latitude":"42.33333000","longitude":"19.58333000"},{"id":"305e55c4-cffe-4270-9fc2-c5bc4f6823cf","name":"Rrethi i Shkodrës","ru":"Rrethi i Shkodrës","country":"6211f738-d81a-4e52-9ecf-37f1fa498ec2","countryCode":"AL","state":"31abd7be-9292-4738-869e-a24eaabb9831","stateCode":"SH","latitude":"42.06917000","longitude":"19.53506000"},{"id":"acc940b5-ea24-442d-b419-7831e9a2e358","name":"Shkodër","ru":"Shkodër","country":"6211f738-d81a-4e52-9ecf-37f1fa498ec2","countryCode":"AL","state":"31abd7be-9292-4738-869e-a24eaabb9831","stateCode":"SH","latitude":"42.06828000","longitude":"19.51258000"},{"id":"45255027-330a-4b5a-8240-80c36dac48eb","name":"Vau i Dejës","ru":"Vau i Dejës","country":"6211f738-d81a-4e52-9ecf-37f1fa498ec2","countryCode":"AL","state":"31abd7be-9292-4738-869e-a24eaabb9831","stateCode":"SH","latitude":"42.01000000","longitude":"19.62472000"},{"id":"e8ea3d75-1781-47cc-85b1-f0e8aa18160c","name":"Vukatanë","ru":"Vukatanë","country":"6211f738-d81a-4e52-9ecf-37f1fa498ec2","countryCode":"AL","state":"31abd7be-9292-4738-869e-a24eaabb9831","stateCode":"SH","latitude":"42.02806000","longitude":"19.54778000"},{"id":"d1f5128f-a572-4fef-af9c-788fcc79ce09","name":"Bashkia Kavajë","ru":"Bashkia Kavajë","country":"6211f738-d81a-4e52-9ecf-37f1fa498ec2","countryCode":"AL","state":"12cbd0e9-a6c1-4c96-bd5e-547bab2bb61e","stateCode":"TR","latitude":"41.18127000","longitude":"19.55579000"},{"id":"403aa9e3-2906-4674-9a36-e69731e19bfe","name":"Bashkia Vorë","ru":"Bashkia Vorë","country":"6211f738-d81a-4e52-9ecf-37f1fa498ec2","countryCode":"AL","state":"12cbd0e9-a6c1-4c96-bd5e-547bab2bb61e","stateCode":"TR","latitude":"41.39804000","longitude":"19.67703000"},{"id":"7f3ba449-d7ef-4bb3-9dc4-92afa50bf136","name":"Kamëz","ru":"Kamëz","country":"6211f738-d81a-4e52-9ecf-37f1fa498ec2","countryCode":"AL","state":"12cbd0e9-a6c1-4c96-bd5e-547bab2bb61e","stateCode":"TR","latitude":"41.38167000","longitude":"19.76028000"},{"id":"69865930-d1f8-4299-aefe-9900f6eababd","name":"Kavajë","ru":"Kavajë","country":"6211f738-d81a-4e52-9ecf-37f1fa498ec2","countryCode":"AL","state":"12cbd0e9-a6c1-4c96-bd5e-547bab2bb61e","stateCode":"TR","latitude":"41.18556000","longitude":"19.55694000"},{"id":"180a4551-8708-45df-b2d8-1d516ab1d82c","name":"Krrabë","ru":"Krrabë","country":"6211f738-d81a-4e52-9ecf-37f1fa498ec2","countryCode":"AL","state":"12cbd0e9-a6c1-4c96-bd5e-547bab2bb61e","stateCode":"TR","latitude":"41.21556000","longitude":"19.97139000"},{"id":"8b5b4412-0f8e-408a-bca7-7fd5a70c3e76","name":"Rrethi i Kavajës","ru":"Rrethi i Kavajës","country":"6211f738-d81a-4e52-9ecf-37f1fa498ec2","countryCode":"AL","state":"12cbd0e9-a6c1-4c96-bd5e-547bab2bb61e","stateCode":"TR","latitude":"41.16667000","longitude":"19.58333000"},{"id":"f1fa7456-facf-4e01-8162-eff8ec6debf9","name":"Rrethi i Tiranës","ru":"Rrethi i Tiranës","country":"6211f738-d81a-4e52-9ecf-37f1fa498ec2","countryCode":"AL","state":"12cbd0e9-a6c1-4c96-bd5e-547bab2bb61e","stateCode":"TR","latitude":"41.33333000","longitude":"19.91667000"},{"id":"7b41aa88-b5f4-41a1-b4bf-e0db946bfc6b","name":"Rrogozhinë","ru":"Rrogozhinë","country":"6211f738-d81a-4e52-9ecf-37f1fa498ec2","countryCode":"AL","state":"12cbd0e9-a6c1-4c96-bd5e-547bab2bb61e","stateCode":"TR","latitude":"41.07639000","longitude":"19.66528000"},{"id":"64a517eb-0960-4bec-aa18-57ac84e388b4","name":"Sinaballaj","ru":"Sinaballaj","country":"6211f738-d81a-4e52-9ecf-37f1fa498ec2","countryCode":"AL","state":"12cbd0e9-a6c1-4c96-bd5e-547bab2bb61e","stateCode":"TR","latitude":"41.06889000","longitude":"19.69944000"},{"id":"a2265750-5beb-4fc9-85e0-050da1dd6f04","name":"Tirana","ru":"Tirana","country":"6211f738-d81a-4e52-9ecf-37f1fa498ec2","countryCode":"AL","state":"12cbd0e9-a6c1-4c96-bd5e-547bab2bb61e","stateCode":"TR","latitude":"41.32750000","longitude":"19.81889000"},{"id":"fbf351ac-3fbb-4356-838e-149d78b11115","name":"Vorë","ru":"Vorë","country":"6211f738-d81a-4e52-9ecf-37f1fa498ec2","countryCode":"AL","state":"12cbd0e9-a6c1-4c96-bd5e-547bab2bb61e","stateCode":"TR","latitude":"41.39083000","longitude":"19.65500000"},{"id":"1dd22dae-4d52-4fea-998b-e84bccbd0aa1","name":"Bashkia Finiq","ru":"Bashkia Finiq","country":"6211f738-d81a-4e52-9ecf-37f1fa498ec2","countryCode":"AL","state":"175f0a99-50c7-452f-81fd-332dc76fa87a","stateCode":"12","latitude":"39.84393000","longitude":"20.16659000"},{"id":"8b947f25-d21b-497c-9e05-b4c94cce30b9","name":"Bashkia Himarë","ru":"Bashkia Himarë","country":"6211f738-d81a-4e52-9ecf-37f1fa498ec2","countryCode":"AL","state":"175f0a99-50c7-452f-81fd-332dc76fa87a","stateCode":"12","latitude":"40.11581000","longitude":"19.81389000"},{"id":"c19367b8-a366-4c2a-906d-f533c316bc94","name":"Bashkia Konispol","ru":"Bashkia Konispol","country":"6211f738-d81a-4e52-9ecf-37f1fa498ec2","countryCode":"AL","state":"175f0a99-50c7-452f-81fd-332dc76fa87a","stateCode":"12","latitude":"39.70064000","longitude":"20.13353000"},{"id":"ee552353-20f6-40b1-b95d-983e85355edf","name":"Bashkia Selenicë","ru":"Bashkia Selenicë","country":"6211f738-d81a-4e52-9ecf-37f1fa498ec2","countryCode":"AL","state":"175f0a99-50c7-452f-81fd-332dc76fa87a","stateCode":"12","latitude":"40.39503000","longitude":"19.65958000"},{"id":"eec6ca7d-8591-4095-ba7e-408ced8dcddd","name":"Bashkia Vlorë","ru":"Bashkia Vlorë","country":"6211f738-d81a-4e52-9ecf-37f1fa498ec2","countryCode":"AL","state":"175f0a99-50c7-452f-81fd-332dc76fa87a","stateCode":"12","latitude":"40.41340000","longitude":"19.49792000"},{"id":"b896bfc0-19ad-4166-8224-e770c7a71758","name":"Delvinë","ru":"Delvinë","country":"6211f738-d81a-4e52-9ecf-37f1fa498ec2","countryCode":"AL","state":"175f0a99-50c7-452f-81fd-332dc76fa87a","stateCode":"12","latitude":"39.95111000","longitude":"20.09778000"},{"id":"3a017b9c-3127-4c5a-9999-ac86d5711a67","name":"Himarë","ru":"Himarë","country":"6211f738-d81a-4e52-9ecf-37f1fa498ec2","countryCode":"AL","state":"175f0a99-50c7-452f-81fd-332dc76fa87a","stateCode":"12","latitude":"40.10167000","longitude":"19.74472000"},{"id":"c9aadbfd-eac3-47ed-8d80-0937610b14ec","name":"Konispol","ru":"Konispol","country":"6211f738-d81a-4e52-9ecf-37f1fa498ec2","countryCode":"AL","state":"175f0a99-50c7-452f-81fd-332dc76fa87a","stateCode":"12","latitude":"39.65889000","longitude":"20.18139000"},{"id":"e340a9ed-c503-40eb-a8b5-af6d201e500c","name":"Ksamil","ru":"Ksamil","country":"6211f738-d81a-4e52-9ecf-37f1fa498ec2","countryCode":"AL","state":"175f0a99-50c7-452f-81fd-332dc76fa87a","stateCode":"12","latitude":"39.76889000","longitude":"19.99972000"},{"id":"da94b193-32f6-4c9e-bfa0-f76685f6f7d6","name":"Orikum","ru":"Orikum","country":"6211f738-d81a-4e52-9ecf-37f1fa498ec2","countryCode":"AL","state":"175f0a99-50c7-452f-81fd-332dc76fa87a","stateCode":"12","latitude":"40.32528000","longitude":"19.47139000"},{"id":"c32c2a82-056c-4da3-b93c-d33323c90715","name":"Rrethi i Delvinës","ru":"Rrethi i Delvinës","country":"6211f738-d81a-4e52-9ecf-37f1fa498ec2","countryCode":"AL","state":"175f0a99-50c7-452f-81fd-332dc76fa87a","stateCode":"12","latitude":"39.91667000","longitude":"20.08333000"},{"id":"a494c88b-16d0-4a06-a3bd-cdbf06052a3e","name":"Sarandë","ru":"Sarandë","country":"6211f738-d81a-4e52-9ecf-37f1fa498ec2","countryCode":"AL","state":"175f0a99-50c7-452f-81fd-332dc76fa87a","stateCode":"12","latitude":"39.87534000","longitude":"20.00477000"},{"id":"51d14ce5-ddd6-4a92-9eda-175dc9b04df0","name":"Selenicë","ru":"Selenicë","country":"6211f738-d81a-4e52-9ecf-37f1fa498ec2","countryCode":"AL","state":"175f0a99-50c7-452f-81fd-332dc76fa87a","stateCode":"12","latitude":"40.53056000","longitude":"19.63583000"},{"id":"22d9a1c7-fa73-4365-a7ac-ccd4fb9dac32","name":"Vlorë","ru":"Vlorë","country":"6211f738-d81a-4e52-9ecf-37f1fa498ec2","countryCode":"AL","state":"175f0a99-50c7-452f-81fd-332dc76fa87a","stateCode":"12","latitude":"40.46860000","longitude":"19.48318000"}]