[{"id":"37fb8783-a6fd-42cf-b852-5a70f4240ae7","name":"Andau","ru":"Andau","country":"a6af3ee1-7869-4872-8069-9d2c61a051be","countryCode":"AT","state":"9f5d5e39-a2db-4ec9-a72b-03e0d67b8a28","stateCode":"1","latitude":"47.77441000","longitude":"17.03293000"},{"id":"073b9e53-f509-4994-81ab-07c7bb8d8d3d","name":"Antau","ru":"Antau","country":"a6af3ee1-7869-4872-8069-9d2c61a051be","countryCode":"AT","state":"9f5d5e39-a2db-4ec9-a72b-03e0d67b8a28","stateCode":"1","latitude":"47.77377000","longitude":"16.47984000"},{"id":"9f8061b6-a7a0-4549-8a0f-eb4113d325a1","name":"Apetlon","ru":"Apetlon","country":"a6af3ee1-7869-4872-8069-9d2c61a051be","countryCode":"AT","state":"9f5d5e39-a2db-4ec9-a72b-03e0d67b8a28","stateCode":"1","latitude":"47.74394000","longitude":"16.83020000"},{"id":"523f8065-177d-41c8-91e9-0b37f27d440f","name":"Bad Sauerbrunn","ru":"Bad Sauerbrunn","country":"a6af3ee1-7869-4872-8069-9d2c61a051be","countryCode":"AT","state":"9f5d5e39-a2db-4ec9-a72b-03e0d67b8a28","stateCode":"1","latitude":"47.77439000","longitude":"16.32841000"},{"id":"d808c9e1-c757-48f7-a631-08ee3307ab3c","name":"Bad Tatzmannsdorf","ru":"Bad Tatzmannsdorf","country":"a6af3ee1-7869-4872-8069-9d2c61a051be","countryCode":"AT","state":"9f5d5e39-a2db-4ec9-a72b-03e0d67b8a28","stateCode":"1","latitude":"47.33126000","longitude":"16.23067000"},{"id":"aaba0d71-f654-456a-91b1-e600460a5267","name":"Badersdorf","ru":"Badersdorf","country":"a6af3ee1-7869-4872-8069-9d2c61a051be","countryCode":"AT","state":"9f5d5e39-a2db-4ec9-a72b-03e0d67b8a28","stateCode":"1","latitude":"47.20000000","longitude":"16.36667000"},{"id":"f03b6b1f-07c5-4726-ab2d-895fb40f2ed3","name":"Bernstein","ru":"Bernstein","country":"a6af3ee1-7869-4872-8069-9d2c61a051be","countryCode":"AT","state":"9f5d5e39-a2db-4ec9-a72b-03e0d67b8a28","stateCode":"1","latitude":"47.40000000","longitude":"16.25000000"},{"id":"1cd4744b-c5ad-41d5-9727-efd46c07fb4f","name":"Bocksdorf","ru":"Bocksdorf","country":"a6af3ee1-7869-4872-8069-9d2c61a051be","countryCode":"AT","state":"9f5d5e39-a2db-4ec9-a72b-03e0d67b8a28","stateCode":"1","latitude":"47.14256000","longitude":"16.17784000"},{"id":"f67fd8f1-ce5b-403e-b055-d59849f1f9e6","name":"Breitenbrunn","ru":"Breitenbrunn","country":"a6af3ee1-7869-4872-8069-9d2c61a051be","countryCode":"AT","state":"9f5d5e39-a2db-4ec9-a72b-03e0d67b8a28","stateCode":"1","latitude":"47.94452000","longitude":"16.73149000"},{"id":"19a64d76-b518-4fdd-98c6-f2e289a1ed9b","name":"Bruckneudorf","ru":"Bruckneudorf","country":"a6af3ee1-7869-4872-8069-9d2c61a051be","countryCode":"AT","state":"9f5d5e39-a2db-4ec9-a72b-03e0d67b8a28","stateCode":"1","latitude":"48.01667000","longitude":"16.78333000"},{"id":"6b8550f2-b9d0-4c04-ad87-49c887b3455d","name":"Deutsch Jahrndorf","ru":"Deutsch Jahrndorf","country":"a6af3ee1-7869-4872-8069-9d2c61a051be","countryCode":"AT","state":"9f5d5e39-a2db-4ec9-a72b-03e0d67b8a28","stateCode":"1","latitude":"48.01667000","longitude":"17.10000000"},{"id":"b12e1d2f-14a7-4d9b-91b6-9c27a90baf6d","name":"Deutsch Kaltenbrunn","ru":"Deutsch Kaltenbrunn","country":"a6af3ee1-7869-4872-8069-9d2c61a051be","countryCode":"AT","state":"9f5d5e39-a2db-4ec9-a72b-03e0d67b8a28","stateCode":"1","latitude":"47.09455000","longitude":"16.13145000"},{"id":"798ce7d3-92ef-482a-981c-72f40aae5488","name":"Deutschkreutz","ru":"Deutschkreutz","country":"a6af3ee1-7869-4872-8069-9d2c61a051be","countryCode":"AT","state":"9f5d5e39-a2db-4ec9-a72b-03e0d67b8a28","stateCode":"1","latitude":"47.60000000","longitude":"16.63333000"},{"id":"fb85c66d-0d75-4c79-baed-c5ce6cafdeb7","name":"Donnerskirchen","ru":"Donnerskirchen","country":"a6af3ee1-7869-4872-8069-9d2c61a051be","countryCode":"AT","state":"9f5d5e39-a2db-4ec9-a72b-03e0d67b8a28","stateCode":"1","latitude":"47.89425000","longitude":"16.64635000"},{"id":"5a0ada7d-2996-48c3-b285-378e7015014e","name":"Drassburg","ru":"Drassburg","country":"a6af3ee1-7869-4872-8069-9d2c61a051be","countryCode":"AT","state":"9f5d5e39-a2db-4ec9-a72b-03e0d67b8a28","stateCode":"1","latitude":"47.74645000","longitude":"16.48679000"},{"id":"ac7b5de1-f7f4-4356-a36d-954381e4f779","name":"Eberau","ru":"Eberau","country":"a6af3ee1-7869-4872-8069-9d2c61a051be","countryCode":"AT","state":"9f5d5e39-a2db-4ec9-a72b-03e0d67b8a28","stateCode":"1","latitude":"47.10764000","longitude":"16.46044000"},{"id":"2aad2471-6c48-4bc4-8a6a-5de6a8457d88","name":"Edelstal","ru":"Edelstal","country":"a6af3ee1-7869-4872-8069-9d2c61a051be","countryCode":"AT","state":"9f5d5e39-a2db-4ec9-a72b-03e0d67b8a28","stateCode":"1","latitude":"48.10000000","longitude":"16.98333000"},{"id":"970adb0d-290e-412f-817f-f1de7c1ca5a3","name":"Eisenstadt","ru":"Eisenstadt","country":"a6af3ee1-7869-4872-8069-9d2c61a051be","countryCode":"AT","state":"9f5d5e39-a2db-4ec9-a72b-03e0d67b8a28","stateCode":"1","latitude":"47.84565000","longitude":"16.52327000"},{"id":"42daf8c3-f8f6-4eb4-a8e7-be1922940402","name":"Eisenstadt Stadt","ru":"Eisenstadt Stadt","country":"a6af3ee1-7869-4872-8069-9d2c61a051be","countryCode":"AT","state":"9f5d5e39-a2db-4ec9-a72b-03e0d67b8a28","stateCode":"1","latitude":"47.84450000","longitude":"16.52575000"},{"id":"9930164f-9391-42a4-b896-d4cae82a3fa6","name":"Eisenstadt-Umgebung","ru":"Eisenstadt-Umgebung","country":"a6af3ee1-7869-4872-8069-9d2c61a051be","countryCode":"AT","state":"9f5d5e39-a2db-4ec9-a72b-03e0d67b8a28","stateCode":"1","latitude":"47.83333000","longitude":"16.58333000"},{"id":"c48253e3-ac88-46bf-a1a7-0eff862e92d6","name":"Eltendorf","ru":"Eltendorf","country":"a6af3ee1-7869-4872-8069-9d2c61a051be","countryCode":"AT","state":"9f5d5e39-a2db-4ec9-a72b-03e0d67b8a28","stateCode":"1","latitude":"47.00870000","longitude":"16.20239000"},{"id":"12a02db1-924d-4839-a451-d7268297d402","name":"Forchtenstein","ru":"Forchtenstein","country":"a6af3ee1-7869-4872-8069-9d2c61a051be","countryCode":"AT","state":"9f5d5e39-a2db-4ec9-a72b-03e0d67b8a28","stateCode":"1","latitude":"47.71161000","longitude":"16.34525000"},{"id":"20d830b9-59d6-4113-b756-f5a2f2ab3245","name":"Frauenkirchen","ru":"Frauenkirchen","country":"a6af3ee1-7869-4872-8069-9d2c61a051be","countryCode":"AT","state":"9f5d5e39-a2db-4ec9-a72b-03e0d67b8a28","stateCode":"1","latitude":"47.83678000","longitude":"16.92581000"},{"id":"4b0e44ae-e22f-48a9-8d70-b9fddef6d80f","name":"Gattendorf","ru":"Gattendorf","country":"a6af3ee1-7869-4872-8069-9d2c61a051be","countryCode":"AT","state":"9f5d5e39-a2db-4ec9-a72b-03e0d67b8a28","stateCode":"1","latitude":"48.01667000","longitude":"16.98333000"},{"id":"65e9ae29-027a-4fa8-9e33-ff3b3da63736","name":"Güssing","ru":"Güssing","country":"a6af3ee1-7869-4872-8069-9d2c61a051be","countryCode":"AT","state":"9f5d5e39-a2db-4ec9-a72b-03e0d67b8a28","stateCode":"1","latitude":"47.05936000","longitude":"16.32431000"},{"id":"2780b266-5587-4356-9fb3-447226385a39","name":"Güttenbach","ru":"Güttenbach","country":"a6af3ee1-7869-4872-8069-9d2c61a051be","countryCode":"AT","state":"9f5d5e39-a2db-4ec9-a72b-03e0d67b8a28","stateCode":"1","latitude":"47.15710000","longitude":"16.29230000"},{"id":"24634937-99fd-438a-8490-2373b0df7276","name":"Gols","ru":"Gols","country":"a6af3ee1-7869-4872-8069-9d2c61a051be","countryCode":"AT","state":"9f5d5e39-a2db-4ec9-a72b-03e0d67b8a28","stateCode":"1","latitude":"47.89689000","longitude":"16.91113000"},{"id":"b68fc60d-5914-43eb-9d6c-08c8a56f7124","name":"Grafenschachen","ru":"Grafenschachen","country":"a6af3ee1-7869-4872-8069-9d2c61a051be","countryCode":"AT","state":"9f5d5e39-a2db-4ec9-a72b-03e0d67b8a28","stateCode":"1","latitude":"47.36667000","longitude":"16.06667000"},{"id":"d2eafff5-5933-470d-b92c-6d12ebe9d7d2","name":"Grosshöflein","ru":"Grosshöflein","country":"a6af3ee1-7869-4872-8069-9d2c61a051be","countryCode":"AT","state":"9f5d5e39-a2db-4ec9-a72b-03e0d67b8a28","stateCode":"1","latitude":"47.83586000","longitude":"16.48035000"},{"id":"1d3d619c-59a1-4f20-b68b-0a7c136599ab","name":"Grosspetersdorf","ru":"Grosspetersdorf","country":"a6af3ee1-7869-4872-8069-9d2c61a051be","countryCode":"AT","state":"9f5d5e39-a2db-4ec9-a72b-03e0d67b8a28","stateCode":"1","latitude":"47.23895000","longitude":"16.31783000"},{"id":"fa530324-4928-49d2-b953-b1d7af6cd51f","name":"Hackerberg","ru":"Hackerberg","country":"a6af3ee1-7869-4872-8069-9d2c61a051be","countryCode":"AT","state":"9f5d5e39-a2db-4ec9-a72b-03e0d67b8a28","stateCode":"1","latitude":"47.20000000","longitude":"16.11667000"},{"id":"f6e550ab-314b-48fc-ae2b-ccdde1312474","name":"Halbturn","ru":"Halbturn","country":"a6af3ee1-7869-4872-8069-9d2c61a051be","countryCode":"AT","state":"9f5d5e39-a2db-4ec9-a72b-03e0d67b8a28","stateCode":"1","latitude":"47.87019000","longitude":"16.97542000"},{"id":"8dbe896f-3852-4a41-9942-9f006af8cc1d","name":"Hannersdorf","ru":"Hannersdorf","country":"a6af3ee1-7869-4872-8069-9d2c61a051be","countryCode":"AT","state":"9f5d5e39-a2db-4ec9-a72b-03e0d67b8a28","stateCode":"1","latitude":"47.22895000","longitude":"16.38250000"},{"id":"ce862570-930d-44d0-bed7-6baf2432e791","name":"Heiligenbrunn","ru":"Heiligenbrunn","country":"a6af3ee1-7869-4872-8069-9d2c61a051be","countryCode":"AT","state":"9f5d5e39-a2db-4ec9-a72b-03e0d67b8a28","stateCode":"1","latitude":"47.02705000","longitude":"16.41688000"},{"id":"1148c29a-03ea-4baa-8274-45da4c272fdf","name":"Heiligenkreuz im Lafnitztal","ru":"Heiligenkreuz im Lafnitztal","country":"a6af3ee1-7869-4872-8069-9d2c61a051be","countryCode":"AT","state":"9f5d5e39-a2db-4ec9-a72b-03e0d67b8a28","stateCode":"1","latitude":"46.98917000","longitude":"16.26083000"},{"id":"4224d9b4-0cfb-48d7-9f14-92e8ec1ddab2","name":"Heugraben","ru":"Heugraben","country":"a6af3ee1-7869-4872-8069-9d2c61a051be","countryCode":"AT","state":"9f5d5e39-a2db-4ec9-a72b-03e0d67b8a28","stateCode":"1","latitude":"47.11783000","longitude":"16.19041000"},{"id":"ae18b8c3-a30c-4227-81dd-21e9aa7817e0","name":"Hirm","ru":"Hirm","country":"a6af3ee1-7869-4872-8069-9d2c61a051be","countryCode":"AT","state":"9f5d5e39-a2db-4ec9-a72b-03e0d67b8a28","stateCode":"1","latitude":"47.78652000","longitude":"16.45460000"},{"id":"f110e488-e42d-40bc-923f-2c24500a8efc","name":"Horitschon","ru":"Horitschon","country":"a6af3ee1-7869-4872-8069-9d2c61a051be","countryCode":"AT","state":"9f5d5e39-a2db-4ec9-a72b-03e0d67b8a28","stateCode":"1","latitude":"47.58729000","longitude":"16.54696000"},{"id":"17f444b3-7ec2-405d-be1d-4b3be32c3f8a","name":"Hornstein","ru":"Hornstein","country":"a6af3ee1-7869-4872-8069-9d2c61a051be","countryCode":"AT","state":"9f5d5e39-a2db-4ec9-a72b-03e0d67b8a28","stateCode":"1","latitude":"47.88049000","longitude":"16.44447000"},{"id":"e6487986-f617-4d24-80dd-1476329cc8ca","name":"Illmitz","ru":"Illmitz","country":"a6af3ee1-7869-4872-8069-9d2c61a051be","countryCode":"AT","state":"9f5d5e39-a2db-4ec9-a72b-03e0d67b8a28","stateCode":"1","latitude":"47.76148000","longitude":"16.80024000"},{"id":"7f8e2cc4-7ad0-4364-ae49-655dfc1fb323","name":"Inzenhof","ru":"Inzenhof","country":"a6af3ee1-7869-4872-8069-9d2c61a051be","countryCode":"AT","state":"9f5d5e39-a2db-4ec9-a72b-03e0d67b8a28","stateCode":"1","latitude":"47.01667000","longitude":"16.31667000"},{"id":"cd050b43-e689-468b-b649-0c1a2b0512a1","name":"Jabing","ru":"Jabing","country":"a6af3ee1-7869-4872-8069-9d2c61a051be","countryCode":"AT","state":"9f5d5e39-a2db-4ec9-a72b-03e0d67b8a28","stateCode":"1","latitude":"47.23880000","longitude":"16.27659000"},{"id":"d457c09d-104e-4cf6-b13c-4ddd7cb66584","name":"Jennersdorf","ru":"Jennersdorf","country":"a6af3ee1-7869-4872-8069-9d2c61a051be","countryCode":"AT","state":"9f5d5e39-a2db-4ec9-a72b-03e0d67b8a28","stateCode":"1","latitude":"46.93848000","longitude":"16.14158000"},{"id":"db5fd4ff-3fbc-441f-91b8-af4ca7e69232","name":"Jois","ru":"Jois","country":"a6af3ee1-7869-4872-8069-9d2c61a051be","countryCode":"AT","state":"9f5d5e39-a2db-4ec9-a72b-03e0d67b8a28","stateCode":"1","latitude":"47.96165000","longitude":"16.79604000"},{"id":"492fcb3e-ca82-4e80-8d8a-dad75e104365","name":"Kaisersdorf","ru":"Kaisersdorf","country":"a6af3ee1-7869-4872-8069-9d2c61a051be","countryCode":"AT","state":"9f5d5e39-a2db-4ec9-a72b-03e0d67b8a28","stateCode":"1","latitude":"47.53741000","longitude":"16.39198000"},{"id":"98088f50-c422-4978-a34e-a1f481c0e4a4","name":"Königsdorf","ru":"Königsdorf","country":"a6af3ee1-7869-4872-8069-9d2c61a051be","countryCode":"AT","state":"9f5d5e39-a2db-4ec9-a72b-03e0d67b8a28","stateCode":"1","latitude":"47.00000000","longitude":"16.16667000"},{"id":"2e9cd885-668a-4016-9dbc-4fe471231558","name":"Kemeten","ru":"Kemeten","country":"a6af3ee1-7869-4872-8069-9d2c61a051be","countryCode":"AT","state":"9f5d5e39-a2db-4ec9-a72b-03e0d67b8a28","stateCode":"1","latitude":"47.24859000","longitude":"16.15213000"},{"id":"40acb79c-77af-49ab-9810-7f4f2ef5686f","name":"Kittsee","ru":"Kittsee","country":"a6af3ee1-7869-4872-8069-9d2c61a051be","countryCode":"AT","state":"9f5d5e39-a2db-4ec9-a72b-03e0d67b8a28","stateCode":"1","latitude":"48.09250000","longitude":"17.06389000"},{"id":"834840d6-0d06-4709-91a1-25473926e448","name":"Kleinhöflein im Burgenland","ru":"Kleinhöflein im Burgenland","country":"a6af3ee1-7869-4872-8069-9d2c61a051be","countryCode":"AT","state":"9f5d5e39-a2db-4ec9-a72b-03e0d67b8a28","stateCode":"1","latitude":"47.84151000","longitude":"16.50413000"},{"id":"e220d703-3fad-4120-a6a2-e28258160cec","name":"Kleinmürbisch","ru":"Kleinmürbisch","country":"a6af3ee1-7869-4872-8069-9d2c61a051be","countryCode":"AT","state":"9f5d5e39-a2db-4ec9-a72b-03e0d67b8a28","stateCode":"1","latitude":"47.03299000","longitude":"16.32448000"},{"id":"ee10c9e6-06a7-4052-9906-685a41b77b59","name":"Klingenbach","ru":"Klingenbach","country":"a6af3ee1-7869-4872-8069-9d2c61a051be","countryCode":"AT","state":"9f5d5e39-a2db-4ec9-a72b-03e0d67b8a28","stateCode":"1","latitude":"47.75202000","longitude":"16.54069000"},{"id":"ba2dad49-d2eb-493e-8c31-d9df2f3decb9","name":"Kobersdorf","ru":"Kobersdorf","country":"a6af3ee1-7869-4872-8069-9d2c61a051be","countryCode":"AT","state":"9f5d5e39-a2db-4ec9-a72b-03e0d67b8a28","stateCode":"1","latitude":"47.59572000","longitude":"16.39173000"},{"id":"95325c99-e46a-4b8f-8d53-3784258e6144","name":"Kohfidisch","ru":"Kohfidisch","country":"a6af3ee1-7869-4872-8069-9d2c61a051be","countryCode":"AT","state":"9f5d5e39-a2db-4ec9-a72b-03e0d67b8a28","stateCode":"1","latitude":"47.17472000","longitude":"16.35701000"},{"id":"f168924d-fe13-48b3-ba75-ca9f559e7c04","name":"Krensdorf","ru":"Krensdorf","country":"a6af3ee1-7869-4872-8069-9d2c61a051be","countryCode":"AT","state":"9f5d5e39-a2db-4ec9-a72b-03e0d67b8a28","stateCode":"1","latitude":"47.78552000","longitude":"16.41495000"},{"id":"3c651799-6ee8-41d6-9894-e89cd9db1074","name":"Kukmirn","ru":"Kukmirn","country":"a6af3ee1-7869-4872-8069-9d2c61a051be","countryCode":"AT","state":"9f5d5e39-a2db-4ec9-a72b-03e0d67b8a28","stateCode":"1","latitude":"47.07544000","longitude":"16.21033000"},{"id":"0a33e9bf-aaa5-4394-b5e5-6da3c2738768","name":"Lackenbach","ru":"Lackenbach","country":"a6af3ee1-7869-4872-8069-9d2c61a051be","countryCode":"AT","state":"9f5d5e39-a2db-4ec9-a72b-03e0d67b8a28","stateCode":"1","latitude":"47.59042000","longitude":"16.46533000"},{"id":"0a8bf0f5-5f42-4c10-b0fb-1028e5c47b12","name":"Lackendorf","ru":"Lackendorf","country":"a6af3ee1-7869-4872-8069-9d2c61a051be","countryCode":"AT","state":"9f5d5e39-a2db-4ec9-a72b-03e0d67b8a28","stateCode":"1","latitude":"47.58996000","longitude":"16.50404000"},{"id":"07f804b6-2f35-49b4-a547-afd7b7c53060","name":"Leithaprodersdorf","ru":"Leithaprodersdorf","country":"a6af3ee1-7869-4872-8069-9d2c61a051be","countryCode":"AT","state":"9f5d5e39-a2db-4ec9-a72b-03e0d67b8a28","stateCode":"1","latitude":"47.93348000","longitude":"16.47915000"},{"id":"abc7853f-0915-49e0-8e7f-dcc5785aa794","name":"Litzelsdorf","ru":"Litzelsdorf","country":"a6af3ee1-7869-4872-8069-9d2c61a051be","countryCode":"AT","state":"9f5d5e39-a2db-4ec9-a72b-03e0d67b8a28","stateCode":"1","latitude":"47.20826000","longitude":"16.17170000"},{"id":"482e1e71-470c-443c-960e-60106d32e26c","name":"Lockenhaus","ru":"Lockenhaus","country":"a6af3ee1-7869-4872-8069-9d2c61a051be","countryCode":"AT","state":"9f5d5e39-a2db-4ec9-a72b-03e0d67b8a28","stateCode":"1","latitude":"47.40753000","longitude":"16.41623000"},{"id":"4c754861-09e8-4644-9f55-9bd339d73ae9","name":"Loipersbach im Burgenland","ru":"Loipersbach im Burgenland","country":"a6af3ee1-7869-4872-8069-9d2c61a051be","countryCode":"AT","state":"9f5d5e39-a2db-4ec9-a72b-03e0d67b8a28","stateCode":"1","latitude":"47.69656000","longitude":"16.47919000"},{"id":"68fb1075-037d-461e-a66a-4b9f717b6b2d","name":"Loretto","ru":"Loretto","country":"a6af3ee1-7869-4872-8069-9d2c61a051be","countryCode":"AT","state":"9f5d5e39-a2db-4ec9-a72b-03e0d67b8a28","stateCode":"1","latitude":"47.91559000","longitude":"16.51790000"},{"id":"7801c4b1-1b38-4792-943a-bd5a83612695","name":"Lutzmannsburg","ru":"Lutzmannsburg","country":"a6af3ee1-7869-4872-8069-9d2c61a051be","countryCode":"AT","state":"9f5d5e39-a2db-4ec9-a72b-03e0d67b8a28","stateCode":"1","latitude":"47.46373000","longitude":"16.63665000"},{"id":"9fc859e7-928e-4029-8ece-9f30f7291778","name":"Mannersdorf an der Rabnitz","ru":"Mannersdorf an der Rabnitz","country":"a6af3ee1-7869-4872-8069-9d2c61a051be","countryCode":"AT","state":"9f5d5e39-a2db-4ec9-a72b-03e0d67b8a28","stateCode":"1","latitude":"47.42815000","longitude":"16.52678000"},{"id":"5634a44c-ef09-4175-a69b-c62a966964cc","name":"Mariasdorf","ru":"Mariasdorf","country":"a6af3ee1-7869-4872-8069-9d2c61a051be","countryCode":"AT","state":"9f5d5e39-a2db-4ec9-a72b-03e0d67b8a28","stateCode":"1","latitude":"47.36580000","longitude":"16.23136000"},{"id":"41dd77a7-d187-4f9c-ad3a-2db629ef1822","name":"Markt Allhau","ru":"Markt Allhau","country":"a6af3ee1-7869-4872-8069-9d2c61a051be","countryCode":"AT","state":"9f5d5e39-a2db-4ec9-a72b-03e0d67b8a28","stateCode":"1","latitude":"47.28333000","longitude":"16.08333000"},{"id":"fa1be7cf-af41-4b3f-ab0f-9bcc17963bbe","name":"Markt Neuhodis","ru":"Markt Neuhodis","country":"a6af3ee1-7869-4872-8069-9d2c61a051be","countryCode":"AT","state":"9f5d5e39-a2db-4ec9-a72b-03e0d67b8a28","stateCode":"1","latitude":"47.29565000","longitude":"16.39564000"},{"id":"05b022e9-bde0-4ef9-9611-64c62554da3c","name":"Markt Sankt Martin","ru":"Markt Sankt Martin","country":"a6af3ee1-7869-4872-8069-9d2c61a051be","countryCode":"AT","state":"9f5d5e39-a2db-4ec9-a72b-03e0d67b8a28","stateCode":"1","latitude":"47.56205000","longitude":"16.42508000"},{"id":"039cd63d-fb64-4635-8e88-aa5e21e11025","name":"Marz","ru":"Marz","country":"a6af3ee1-7869-4872-8069-9d2c61a051be","countryCode":"AT","state":"9f5d5e39-a2db-4ec9-a72b-03e0d67b8a28","stateCode":"1","latitude":"47.71667000","longitude":"16.41667000"},{"id":"8ec25b64-3aa7-42d9-9458-cdd53a3d0e8b","name":"Mattersburg","ru":"Mattersburg","country":"a6af3ee1-7869-4872-8069-9d2c61a051be","countryCode":"AT","state":"9f5d5e39-a2db-4ec9-a72b-03e0d67b8a28","stateCode":"1","latitude":"47.73333000","longitude":"16.40000000"},{"id":"68b18f3d-47da-4b56-b52f-679856141d30","name":"Mönchhof","ru":"Mönchhof","country":"a6af3ee1-7869-4872-8069-9d2c61a051be","countryCode":"AT","state":"9f5d5e39-a2db-4ec9-a72b-03e0d67b8a28","stateCode":"1","latitude":"47.88020000","longitude":"16.94126000"},{"id":"4411b8b8-7973-4e25-9cee-a4657d365585","name":"Mörbisch am See","ru":"Mörbisch am See","country":"a6af3ee1-7869-4872-8069-9d2c61a051be","countryCode":"AT","state":"9f5d5e39-a2db-4ec9-a72b-03e0d67b8a28","stateCode":"1","latitude":"47.75000000","longitude":"16.66667000"},{"id":"6863b213-7992-47d9-8a70-218cf8c61813","name":"Mühlgraben","ru":"Mühlgraben","country":"a6af3ee1-7869-4872-8069-9d2c61a051be","countryCode":"AT","state":"9f5d5e39-a2db-4ec9-a72b-03e0d67b8a28","stateCode":"1","latitude":"46.88972000","longitude":"16.04083000"},{"id":"df10b6e5-34fb-48f9-8e6a-222d9fd4fcc2","name":"Müllendorf","ru":"Müllendorf","country":"a6af3ee1-7869-4872-8069-9d2c61a051be","countryCode":"AT","state":"9f5d5e39-a2db-4ec9-a72b-03e0d67b8a28","stateCode":"1","latitude":"47.83943000","longitude":"16.46258000"},{"id":"09629e25-357d-4f9c-8351-4fb3e6fc9178","name":"Mischendorf","ru":"Mischendorf","country":"a6af3ee1-7869-4872-8069-9d2c61a051be","countryCode":"AT","state":"9f5d5e39-a2db-4ec9-a72b-03e0d67b8a28","stateCode":"1","latitude":"47.19277000","longitude":"16.31444000"},{"id":"9b15970b-f562-41ff-a3d4-e66a82c6ffe5","name":"Mitterpullendorf","ru":"Mitterpullendorf","country":"a6af3ee1-7869-4872-8069-9d2c61a051be","countryCode":"AT","state":"9f5d5e39-a2db-4ec9-a72b-03e0d67b8a28","stateCode":"1","latitude":"47.49325000","longitude":"16.52129000"},{"id":"e8048acf-37e3-46a8-be4f-1e928fb06861","name":"Mogersdorf","ru":"Mogersdorf","country":"a6af3ee1-7869-4872-8069-9d2c61a051be","countryCode":"AT","state":"9f5d5e39-a2db-4ec9-a72b-03e0d67b8a28","stateCode":"1","latitude":"46.94917000","longitude":"16.23222000"},{"id":"0d0076b2-aa9d-4971-9271-cfa5cce38a2c","name":"Moschendorf","ru":"Moschendorf","country":"a6af3ee1-7869-4872-8069-9d2c61a051be","countryCode":"AT","state":"9f5d5e39-a2db-4ec9-a72b-03e0d67b8a28","stateCode":"1","latitude":"47.05843000","longitude":"16.47728000"},{"id":"717e2a92-3179-4ec2-8c08-eeab308183cf","name":"Neckenmarkt","ru":"Neckenmarkt","country":"a6af3ee1-7869-4872-8069-9d2c61a051be","countryCode":"AT","state":"9f5d5e39-a2db-4ec9-a72b-03e0d67b8a28","stateCode":"1","latitude":"47.59964000","longitude":"16.54670000"},{"id":"c15e4ff1-2205-4a17-a71a-baf43b0eecec","name":"Neuberg im Burgenland","ru":"Neuberg im Burgenland","country":"a6af3ee1-7869-4872-8069-9d2c61a051be","countryCode":"AT","state":"9f5d5e39-a2db-4ec9-a72b-03e0d67b8a28","stateCode":"1","latitude":"47.16894000","longitude":"16.26054000"},{"id":"293f82c8-6e31-42e3-a35d-32cf6343937d","name":"Neudörfl","ru":"Neudörfl","country":"a6af3ee1-7869-4872-8069-9d2c61a051be","countryCode":"AT","state":"9f5d5e39-a2db-4ec9-a72b-03e0d67b8a28","stateCode":"1","latitude":"47.79655000","longitude":"16.29770000"},{"id":"7edd973f-f9c1-405a-b167-1a2c4b023661","name":"Neufeld an der Leitha","ru":"Neufeld an der Leitha","country":"a6af3ee1-7869-4872-8069-9d2c61a051be","countryCode":"AT","state":"9f5d5e39-a2db-4ec9-a72b-03e0d67b8a28","stateCode":"1","latitude":"47.86558000","longitude":"16.37856000"},{"id":"a20e18ef-0087-48fd-bff5-edb2b24b56f3","name":"Neuhaus am Klausenbach","ru":"Neuhaus am Klausenbach","country":"a6af3ee1-7869-4872-8069-9d2c61a051be","countryCode":"AT","state":"9f5d5e39-a2db-4ec9-a72b-03e0d67b8a28","stateCode":"1","latitude":"46.86667000","longitude":"16.03333000"},{"id":"441ffa96-a342-4243-beb7-363da2ebc687","name":"Neusiedl am See","ru":"Neusiedl am See","country":"a6af3ee1-7869-4872-8069-9d2c61a051be","countryCode":"AT","state":"9f5d5e39-a2db-4ec9-a72b-03e0d67b8a28","stateCode":"1","latitude":"47.94901000","longitude":"16.84170000"},{"id":"6c3ee078-9eac-4d6b-99b6-faa693935d8f","name":"Neustift an der Lafnitz","ru":"Neustift an der Lafnitz","country":"a6af3ee1-7869-4872-8069-9d2c61a051be","countryCode":"AT","state":"9f5d5e39-a2db-4ec9-a72b-03e0d67b8a28","stateCode":"1","latitude":"47.36667000","longitude":"16.03333000"},{"id":"bbbff437-0e90-462b-adc6-43afeffaec3d","name":"Neustift bei Güssing","ru":"Neustift bei Güssing","country":"a6af3ee1-7869-4872-8069-9d2c61a051be","countryCode":"AT","state":"9f5d5e39-a2db-4ec9-a72b-03e0d67b8a28","stateCode":"1","latitude":"47.02474000","longitude":"16.26041000"},{"id":"453f9d03-d216-4417-b96b-a2b343a204b2","name":"Neutal","ru":"Neutal","country":"a6af3ee1-7869-4872-8069-9d2c61a051be","countryCode":"AT","state":"9f5d5e39-a2db-4ec9-a72b-03e0d67b8a28","stateCode":"1","latitude":"47.54548000","longitude":"16.44619000"},{"id":"7613a969-e16d-4c42-9ec7-64da4d8273c1","name":"Nickelsdorf","ru":"Nickelsdorf","country":"a6af3ee1-7869-4872-8069-9d2c61a051be","countryCode":"AT","state":"9f5d5e39-a2db-4ec9-a72b-03e0d67b8a28","stateCode":"1","latitude":"47.94056000","longitude":"17.06944000"},{"id":"619e3004-77bc-44b2-82bc-68f3d6a0a63d","name":"Nikitsch","ru":"Nikitsch","country":"a6af3ee1-7869-4872-8069-9d2c61a051be","countryCode":"AT","state":"9f5d5e39-a2db-4ec9-a72b-03e0d67b8a28","stateCode":"1","latitude":"47.53615000","longitude":"16.66017000"},{"id":"c62db5a0-21d3-428b-bc24-43266066c0f2","name":"Oberdorf im Burgenland","ru":"Oberdorf im Burgenland","country":"a6af3ee1-7869-4872-8069-9d2c61a051be","countryCode":"AT","state":"9f5d5e39-a2db-4ec9-a72b-03e0d67b8a28","stateCode":"1","latitude":"47.21667000","longitude":"16.21667000"},{"id":"067bc39b-f4d2-49c3-be96-c2a2cb2a9acf","name":"Oberloisdorf","ru":"Oberloisdorf","country":"a6af3ee1-7869-4872-8069-9d2c61a051be","countryCode":"AT","state":"9f5d5e39-a2db-4ec9-a72b-03e0d67b8a28","stateCode":"1","latitude":"47.44736000","longitude":"16.50764000"},{"id":"c8b44420-4372-4f61-976b-54ecf033c177","name":"Oberpullendorf","ru":"Oberpullendorf","country":"a6af3ee1-7869-4872-8069-9d2c61a051be","countryCode":"AT","state":"9f5d5e39-a2db-4ec9-a72b-03e0d67b8a28","stateCode":"1","latitude":"47.50352000","longitude":"16.50447000"},{"id":"1368f16f-e9e7-4503-8405-c186f1777804","name":"Oberschützen","ru":"Oberschützen","country":"a6af3ee1-7869-4872-8069-9d2c61a051be","countryCode":"AT","state":"9f5d5e39-a2db-4ec9-a72b-03e0d67b8a28","stateCode":"1","latitude":"47.35138000","longitude":"16.20732000"},{"id":"77092242-cb54-4816-8abc-18025082b7a3","name":"Oberwart","ru":"Oberwart","country":"a6af3ee1-7869-4872-8069-9d2c61a051be","countryCode":"AT","state":"9f5d5e39-a2db-4ec9-a72b-03e0d67b8a28","stateCode":"1","latitude":"47.28971000","longitude":"16.20595000"},{"id":"cc9d34f5-6b88-4db6-8b07-dbba042dabe0","name":"Oggau","ru":"Oggau","country":"a6af3ee1-7869-4872-8069-9d2c61a051be","countryCode":"AT","state":"9f5d5e39-a2db-4ec9-a72b-03e0d67b8a28","stateCode":"1","latitude":"47.83333000","longitude":"16.66667000"},{"id":"39019d34-24f8-4722-bb04-f3f924153229","name":"Olbendorf","ru":"Olbendorf","country":"a6af3ee1-7869-4872-8069-9d2c61a051be","countryCode":"AT","state":"9f5d5e39-a2db-4ec9-a72b-03e0d67b8a28","stateCode":"1","latitude":"47.18333000","longitude":"16.20000000"},{"id":"138bdee8-4eb6-4f2e-b225-5e376063acc2","name":"Ollersdorf im Burgenland","ru":"Ollersdorf im Burgenland","country":"a6af3ee1-7869-4872-8069-9d2c61a051be","countryCode":"AT","state":"9f5d5e39-a2db-4ec9-a72b-03e0d67b8a28","stateCode":"1","latitude":"47.18333000","longitude":"16.16667000"},{"id":"6c7fe60a-009d-41c4-bb92-cd003dcc7e03","name":"Oslip","ru":"Oslip","country":"a6af3ee1-7869-4872-8069-9d2c61a051be","countryCode":"AT","state":"9f5d5e39-a2db-4ec9-a72b-03e0d67b8a28","stateCode":"1","latitude":"47.82906000","longitude":"16.61957000"},{"id":"9fa8b485-22a3-4b38-a62e-8b68bb75bbff","name":"Pama","ru":"Pama","country":"a6af3ee1-7869-4872-8069-9d2c61a051be","countryCode":"AT","state":"9f5d5e39-a2db-4ec9-a72b-03e0d67b8a28","stateCode":"1","latitude":"48.05000000","longitude":"17.03333000"},{"id":"46f3d1eb-f66d-4224-b337-b210261b791b","name":"Pamhagen","ru":"Pamhagen","country":"a6af3ee1-7869-4872-8069-9d2c61a051be","countryCode":"AT","state":"9f5d5e39-a2db-4ec9-a72b-03e0d67b8a28","stateCode":"1","latitude":"47.70092000","longitude":"16.90779000"},{"id":"02b7cbc9-95fd-4e03-98d6-c5c6605ce056","name":"Parndorf","ru":"Parndorf","country":"a6af3ee1-7869-4872-8069-9d2c61a051be","countryCode":"AT","state":"9f5d5e39-a2db-4ec9-a72b-03e0d67b8a28","stateCode":"1","latitude":"47.99963000","longitude":"16.86049000"},{"id":"b79e7ce9-6ef9-4e95-a438-c21a0579774c","name":"Pöttelsdorf","ru":"Pöttelsdorf","country":"a6af3ee1-7869-4872-8069-9d2c61a051be","countryCode":"AT","state":"9f5d5e39-a2db-4ec9-a72b-03e0d67b8a28","stateCode":"1","latitude":"47.75369000","longitude":"16.43864000"},{"id":"74372b95-3ba4-4dfe-b6ca-205925ca8429","name":"Pöttsching","ru":"Pöttsching","country":"a6af3ee1-7869-4872-8069-9d2c61a051be","countryCode":"AT","state":"9f5d5e39-a2db-4ec9-a72b-03e0d67b8a28","stateCode":"1","latitude":"47.80445000","longitude":"16.37109000"},{"id":"998fe31b-075b-461b-bf54-c10a39ba5dcb","name":"Pilgersdorf","ru":"Pilgersdorf","country":"a6af3ee1-7869-4872-8069-9d2c61a051be","countryCode":"AT","state":"9f5d5e39-a2db-4ec9-a72b-03e0d67b8a28","stateCode":"1","latitude":"47.44106000","longitude":"16.34920000"},{"id":"f5891898-2971-4652-92c5-f293db20e6d3","name":"Pinkafeld","ru":"Pinkafeld","country":"a6af3ee1-7869-4872-8069-9d2c61a051be","countryCode":"AT","state":"9f5d5e39-a2db-4ec9-a72b-03e0d67b8a28","stateCode":"1","latitude":"47.36667000","longitude":"16.11667000"},{"id":"e8908924-8a11-4098-ae54-64716d4e612d","name":"Piringsdorf","ru":"Piringsdorf","country":"a6af3ee1-7869-4872-8069-9d2c61a051be","countryCode":"AT","state":"9f5d5e39-a2db-4ec9-a72b-03e0d67b8a28","stateCode":"1","latitude":"47.44826000","longitude":"16.41516000"},{"id":"b065b9ba-b3dc-44cc-9dec-2011e3852061","name":"Podersdorf am See","ru":"Podersdorf am See","country":"a6af3ee1-7869-4872-8069-9d2c61a051be","countryCode":"AT","state":"9f5d5e39-a2db-4ec9-a72b-03e0d67b8a28","stateCode":"1","latitude":"47.85412000","longitude":"16.83706000"},{"id":"dbd26358-3c6f-4c15-86b8-8040cd5335d8","name":"Politischer Bezirk Güssing","ru":"Politischer Bezirk Güssing","country":"a6af3ee1-7869-4872-8069-9d2c61a051be","countryCode":"AT","state":"9f5d5e39-a2db-4ec9-a72b-03e0d67b8a28","stateCode":"1","latitude":"47.10164000","longitude":"16.30363000"},{"id":"9ea3b61c-540d-4f96-a609-955149b8252d","name":"Politischer Bezirk Jennersdorf","ru":"Politischer Bezirk Jennersdorf","country":"a6af3ee1-7869-4872-8069-9d2c61a051be","countryCode":"AT","state":"9f5d5e39-a2db-4ec9-a72b-03e0d67b8a28","stateCode":"1","latitude":"46.96667000","longitude":"16.15000000"},{"id":"16d93b09-d09d-48fa-ac71-53974606f366","name":"Politischer Bezirk Mattersburg","ru":"Politischer Bezirk Mattersburg","country":"a6af3ee1-7869-4872-8069-9d2c61a051be","countryCode":"AT","state":"9f5d5e39-a2db-4ec9-a72b-03e0d67b8a28","stateCode":"1","latitude":"47.73823000","longitude":"16.39486000"},{"id":"483926e6-3edd-48f2-a4a0-54ba84700120","name":"Politischer Bezirk Neusiedl am See","ru":"Politischer Bezirk Neusiedl am See","country":"a6af3ee1-7869-4872-8069-9d2c61a051be","countryCode":"AT","state":"9f5d5e39-a2db-4ec9-a72b-03e0d67b8a28","stateCode":"1","latitude":"47.88853000","longitude":"16.92465000"},{"id":"f1d87676-5a94-4dbe-91ff-c6e14874f3e7","name":"Politischer Bezirk Oberpullendorf","ru":"Politischer Bezirk Oberpullendorf","country":"a6af3ee1-7869-4872-8069-9d2c61a051be","countryCode":"AT","state":"9f5d5e39-a2db-4ec9-a72b-03e0d67b8a28","stateCode":"1","latitude":"47.50184000","longitude":"16.50593000"},{"id":"ea94a087-d0da-440a-9ee0-3095c0e528fb","name":"Politischer Bezirk Oberwart","ru":"Politischer Bezirk Oberwart","country":"a6af3ee1-7869-4872-8069-9d2c61a051be","countryCode":"AT","state":"9f5d5e39-a2db-4ec9-a72b-03e0d67b8a28","stateCode":"1","latitude":"47.28854000","longitude":"16.20861000"},{"id":"65d2baec-4cb1-4149-bc9b-87b486fb02f4","name":"Potzneusiedl","ru":"Potzneusiedl","country":"a6af3ee1-7869-4872-8069-9d2c61a051be","countryCode":"AT","state":"9f5d5e39-a2db-4ec9-a72b-03e0d67b8a28","stateCode":"1","latitude":"48.04504000","longitude":"16.94770000"},{"id":"62e91149-06ed-4b0c-80c8-951a389ecc1a","name":"Purbach am Neusiedler See","ru":"Purbach am Neusiedler See","country":"a6af3ee1-7869-4872-8069-9d2c61a051be","countryCode":"AT","state":"9f5d5e39-a2db-4ec9-a72b-03e0d67b8a28","stateCode":"1","latitude":"47.91289000","longitude":"16.69561000"},{"id":"2626dd5e-79f0-4147-bf9a-f460adcd8916","name":"Raiding","ru":"Raiding","country":"a6af3ee1-7869-4872-8069-9d2c61a051be","countryCode":"AT","state":"9f5d5e39-a2db-4ec9-a72b-03e0d67b8a28","stateCode":"1","latitude":"47.56581000","longitude":"16.53056000"},{"id":"d972d977-ffeb-4e6d-bdf8-b8868f7fb663","name":"Rechnitz","ru":"Rechnitz","country":"a6af3ee1-7869-4872-8069-9d2c61a051be","countryCode":"AT","state":"9f5d5e39-a2db-4ec9-a72b-03e0d67b8a28","stateCode":"1","latitude":"47.30467000","longitude":"16.44095000"},{"id":"1dfffa0e-771d-48de-b793-2a5b635fb043","name":"Riedlingsdorf","ru":"Riedlingsdorf","country":"a6af3ee1-7869-4872-8069-9d2c61a051be","countryCode":"AT","state":"9f5d5e39-a2db-4ec9-a72b-03e0d67b8a28","stateCode":"1","latitude":"47.35000000","longitude":"16.13333000"},{"id":"6be7427b-ab1b-43a2-ae73-cb88a13259eb","name":"Ritzing","ru":"Ritzing","country":"a6af3ee1-7869-4872-8069-9d2c61a051be","countryCode":"AT","state":"9f5d5e39-a2db-4ec9-a72b-03e0d67b8a28","stateCode":"1","latitude":"47.61316000","longitude":"16.49546000"},{"id":"23082569-eb5d-4ed5-980e-e87c53a3c859","name":"Rohr im Burgenland","ru":"Rohr im Burgenland","country":"a6af3ee1-7869-4872-8069-9d2c61a051be","countryCode":"AT","state":"9f5d5e39-a2db-4ec9-a72b-03e0d67b8a28","stateCode":"1","latitude":"47.11667000","longitude":"16.16667000"},{"id":"63b2fa9a-42cd-4e5a-a94b-c0ed1e56f1f4","name":"Rohrbach bei Mattersburg","ru":"Rohrbach bei Mattersburg","country":"a6af3ee1-7869-4872-8069-9d2c61a051be","countryCode":"AT","state":"9f5d5e39-a2db-4ec9-a72b-03e0d67b8a28","stateCode":"1","latitude":"47.70520000","longitude":"16.43005000"},{"id":"35b7ee5b-d9af-488e-b163-3ca1a5b41230","name":"Rotenturm an der Pinka","ru":"Rotenturm an der Pinka","country":"a6af3ee1-7869-4872-8069-9d2c61a051be","countryCode":"AT","state":"9f5d5e39-a2db-4ec9-a72b-03e0d67b8a28","stateCode":"1","latitude":"47.25000000","longitude":"16.25000000"},{"id":"13096071-ff51-48f8-8ec0-a53b4cbdecfa","name":"Rudersdorf","ru":"Rudersdorf","country":"a6af3ee1-7869-4872-8069-9d2c61a051be","countryCode":"AT","state":"9f5d5e39-a2db-4ec9-a72b-03e0d67b8a28","stateCode":"1","latitude":"47.05000000","longitude":"16.11667000"},{"id":"a87e8a2a-0019-4498-a9c3-4434442387df","name":"Rust","ru":"Rust","country":"a6af3ee1-7869-4872-8069-9d2c61a051be","countryCode":"AT","state":"9f5d5e39-a2db-4ec9-a72b-03e0d67b8a28","stateCode":"1","latitude":"47.80122000","longitude":"16.67158000"},{"id":"3a881369-86f5-4ec5-88f8-fca262637fbc","name":"Rust Stadt","ru":"Rust Stadt","country":"a6af3ee1-7869-4872-8069-9d2c61a051be","countryCode":"AT","state":"9f5d5e39-a2db-4ec9-a72b-03e0d67b8a28","stateCode":"1","latitude":"47.80174000","longitude":"16.67210000"},{"id":"099261d7-4085-486c-b655-1eb3865e9df7","name":"Sankt Andrä am Zicksee","ru":"Sankt Andrä am Zicksee","country":"a6af3ee1-7869-4872-8069-9d2c61a051be","countryCode":"AT","state":"9f5d5e39-a2db-4ec9-a72b-03e0d67b8a28","stateCode":"1","latitude":"47.78410000","longitude":"16.94195000"},{"id":"07463a47-5b86-47c1-9bb5-2bbc1ec77940","name":"Sankt Georgen am Leithagebirge","ru":"Sankt Georgen am Leithagebirge","country":"a6af3ee1-7869-4872-8069-9d2c61a051be","countryCode":"AT","state":"9f5d5e39-a2db-4ec9-a72b-03e0d67b8a28","stateCode":"1","latitude":"47.85000000","longitude":"16.55000000"},{"id":"51ccb280-4abf-4df7-8650-91f0a495d2c4","name":"Sankt Margarethen im Burgenland","ru":"Sankt Margarethen im Burgenland","country":"a6af3ee1-7869-4872-8069-9d2c61a051be","countryCode":"AT","state":"9f5d5e39-a2db-4ec9-a72b-03e0d67b8a28","stateCode":"1","latitude":"47.80335000","longitude":"16.60875000"},{"id":"faae9be0-fcee-4974-bb96-21f6aaeefcdc","name":"Sankt Martin an der Raab","ru":"Sankt Martin an der Raab","country":"a6af3ee1-7869-4872-8069-9d2c61a051be","countryCode":"AT","state":"9f5d5e39-a2db-4ec9-a72b-03e0d67b8a28","stateCode":"1","latitude":"46.92250000","longitude":"16.13611000"},{"id":"d905f752-d34b-430e-add5-3ae4d57e7ac8","name":"Sankt Michael im Burgenland","ru":"Sankt Michael im Burgenland","country":"a6af3ee1-7869-4872-8069-9d2c61a051be","countryCode":"AT","state":"9f5d5e39-a2db-4ec9-a72b-03e0d67b8a28","stateCode":"1","latitude":"47.12852000","longitude":"16.27148000"},{"id":"29c39c20-c40c-402e-ab96-23bd8b5d100b","name":"Schachendorf","ru":"Schachendorf","country":"a6af3ee1-7869-4872-8069-9d2c61a051be","countryCode":"AT","state":"9f5d5e39-a2db-4ec9-a72b-03e0d67b8a28","stateCode":"1","latitude":"47.26667000","longitude":"16.43333000"},{"id":"eca4ff4e-0938-4ea7-877d-9b733ea09e58","name":"Schandorf","ru":"Schandorf","country":"a6af3ee1-7869-4872-8069-9d2c61a051be","countryCode":"AT","state":"9f5d5e39-a2db-4ec9-a72b-03e0d67b8a28","stateCode":"1","latitude":"47.24183000","longitude":"16.42267000"},{"id":"a0f29f60-a66d-48cf-afb5-401563aa3be4","name":"Schattendorf","ru":"Schattendorf","country":"a6af3ee1-7869-4872-8069-9d2c61a051be","countryCode":"AT","state":"9f5d5e39-a2db-4ec9-a72b-03e0d67b8a28","stateCode":"1","latitude":"47.70973000","longitude":"16.50979000"},{"id":"ce819078-78b6-4aa6-a73e-85444dc1ec2d","name":"Schützen am Gebirge","ru":"Schützen am Gebirge","country":"a6af3ee1-7869-4872-8069-9d2c61a051be","countryCode":"AT","state":"9f5d5e39-a2db-4ec9-a72b-03e0d67b8a28","stateCode":"1","latitude":"47.85233000","longitude":"16.62334000"},{"id":"df8dd29a-806a-4a8d-925d-745cf62f76d4","name":"Siegendorf im Burgenland","ru":"Siegendorf im Burgenland","country":"a6af3ee1-7869-4872-8069-9d2c61a051be","countryCode":"AT","state":"9f5d5e39-a2db-4ec9-a72b-03e0d67b8a28","stateCode":"1","latitude":"47.78098000","longitude":"16.54232000"},{"id":"092e7f7d-d4c8-416c-add8-7baef2f5debf","name":"Sieggraben","ru":"Sieggraben","country":"a6af3ee1-7869-4872-8069-9d2c61a051be","countryCode":"AT","state":"9f5d5e39-a2db-4ec9-a72b-03e0d67b8a28","stateCode":"1","latitude":"47.65128000","longitude":"16.37993000"},{"id":"d89c47ea-3696-46d8-9ccc-8bf98f5c6d69","name":"Sigless","ru":"Sigless","country":"a6af3ee1-7869-4872-8069-9d2c61a051be","countryCode":"AT","state":"9f5d5e39-a2db-4ec9-a72b-03e0d67b8a28","stateCode":"1","latitude":"47.77533000","longitude":"16.39503000"},{"id":"286fe003-2534-4cc4-acb8-cdd7c33c97c9","name":"Stadtschlaining","ru":"Stadtschlaining","country":"a6af3ee1-7869-4872-8069-9d2c61a051be","countryCode":"AT","state":"9f5d5e39-a2db-4ec9-a72b-03e0d67b8a28","stateCode":"1","latitude":"47.31667000","longitude":"16.28333000"},{"id":"67e16aa2-89b9-47ca-9742-d297128ba866","name":"Stegersbach","ru":"Stegersbach","country":"a6af3ee1-7869-4872-8069-9d2c61a051be","countryCode":"AT","state":"9f5d5e39-a2db-4ec9-a72b-03e0d67b8a28","stateCode":"1","latitude":"47.16667000","longitude":"16.16667000"},{"id":"6677fbea-a274-4872-be8b-54a0ec941395","name":"Steinbrunn","ru":"Steinbrunn","country":"a6af3ee1-7869-4872-8069-9d2c61a051be","countryCode":"AT","state":"9f5d5e39-a2db-4ec9-a72b-03e0d67b8a28","stateCode":"1","latitude":"47.83333000","longitude":"16.41667000"},{"id":"c448af5d-771f-431d-a870-ceba35dbbec1","name":"Stinatz","ru":"Stinatz","country":"a6af3ee1-7869-4872-8069-9d2c61a051be","countryCode":"AT","state":"9f5d5e39-a2db-4ec9-a72b-03e0d67b8a28","stateCode":"1","latitude":"47.20266000","longitude":"16.13312000"},{"id":"fcc88867-2eec-41b8-a604-664f618bb1e4","name":"Stoob","ru":"Stoob","country":"a6af3ee1-7869-4872-8069-9d2c61a051be","countryCode":"AT","state":"9f5d5e39-a2db-4ec9-a72b-03e0d67b8a28","stateCode":"1","latitude":"47.52845000","longitude":"16.47760000"},{"id":"77cdcc04-b452-4f48-b812-2435b52485be","name":"Stotzing","ru":"Stotzing","country":"a6af3ee1-7869-4872-8069-9d2c61a051be","countryCode":"AT","state":"9f5d5e39-a2db-4ec9-a72b-03e0d67b8a28","stateCode":"1","latitude":"47.90688000","longitude":"16.54580000"},{"id":"6c7f215c-85b1-4be7-9dae-091b0e792140","name":"Strem","ru":"Strem","country":"a6af3ee1-7869-4872-8069-9d2c61a051be","countryCode":"AT","state":"9f5d5e39-a2db-4ec9-a72b-03e0d67b8a28","stateCode":"1","latitude":"47.04498000","longitude":"16.41426000"},{"id":"1b40ba66-aca4-4059-b680-b3ebbb6a7481","name":"Tadten","ru":"Tadten","country":"a6af3ee1-7869-4872-8069-9d2c61a051be","countryCode":"AT","state":"9f5d5e39-a2db-4ec9-a72b-03e0d67b8a28","stateCode":"1","latitude":"47.76667000","longitude":"16.98333000"},{"id":"d5cba35f-7fc9-4b9b-a6ee-5e07357e1764","name":"Tobaj","ru":"Tobaj","country":"a6af3ee1-7869-4872-8069-9d2c61a051be","countryCode":"AT","state":"9f5d5e39-a2db-4ec9-a72b-03e0d67b8a28","stateCode":"1","latitude":"47.08333000","longitude":"16.30000000"},{"id":"e927522d-7c2d-4445-a454-5ad8f1ef94c7","name":"Trausdorf an der Wulka","ru":"Trausdorf an der Wulka","country":"a6af3ee1-7869-4872-8069-9d2c61a051be","countryCode":"AT","state":"9f5d5e39-a2db-4ec9-a72b-03e0d67b8a28","stateCode":"1","latitude":"47.81350000","longitude":"16.55760000"},{"id":"447d7b38-a317-4542-9134-36757d048f4a","name":"Tschanigraben","ru":"Tschanigraben","country":"a6af3ee1-7869-4872-8069-9d2c61a051be","countryCode":"AT","state":"9f5d5e39-a2db-4ec9-a72b-03e0d67b8a28","stateCode":"1","latitude":"47.01667000","longitude":"16.30000000"},{"id":"d4866146-4641-443e-8a71-57160646b834","name":"Unterfrauenhaid","ru":"Unterfrauenhaid","country":"a6af3ee1-7869-4872-8069-9d2c61a051be","countryCode":"AT","state":"9f5d5e39-a2db-4ec9-a72b-03e0d67b8a28","stateCode":"1","latitude":"47.57116000","longitude":"16.49885000"},{"id":"c4505592-5936-4840-a9cf-eb87c2b4dad6","name":"Unterkohlstätten","ru":"Unterkohlstätten","country":"a6af3ee1-7869-4872-8069-9d2c61a051be","countryCode":"AT","state":"9f5d5e39-a2db-4ec9-a72b-03e0d67b8a28","stateCode":"1","latitude":"47.38333000","longitude":"16.31667000"},{"id":"0c31adcc-5d3c-4dfe-be61-f0a44dc78c5e","name":"Unterwart","ru":"Unterwart","country":"a6af3ee1-7869-4872-8069-9d2c61a051be","countryCode":"AT","state":"9f5d5e39-a2db-4ec9-a72b-03e0d67b8a28","stateCode":"1","latitude":"47.25000000","longitude":"16.23333000"},{"id":"33f4fd5c-8cb6-40ab-985c-3608ba8a671c","name":"Wallern im Burgenland","ru":"Wallern im Burgenland","country":"a6af3ee1-7869-4872-8069-9d2c61a051be","countryCode":"AT","state":"9f5d5e39-a2db-4ec9-a72b-03e0d67b8a28","stateCode":"1","latitude":"47.72847000","longitude":"16.93706000"},{"id":"e7edde15-ba1f-4689-a76f-6ec1c854dc67","name":"Wörterberg","ru":"Wörterberg","country":"a6af3ee1-7869-4872-8069-9d2c61a051be","countryCode":"AT","state":"9f5d5e39-a2db-4ec9-a72b-03e0d67b8a28","stateCode":"1","latitude":"47.21667000","longitude":"16.10000000"},{"id":"e5c56703-4d84-4a7a-98b1-27c9b2c1da3f","name":"Weichselbaum","ru":"Weichselbaum","country":"a6af3ee1-7869-4872-8069-9d2c61a051be","countryCode":"AT","state":"9f5d5e39-a2db-4ec9-a72b-03e0d67b8a28","stateCode":"1","latitude":"46.94250000","longitude":"16.18750000"},{"id":"1c43e636-8808-4c1f-80af-f074148eee44","name":"Weiden am See","ru":"Weiden am See","country":"a6af3ee1-7869-4872-8069-9d2c61a051be","countryCode":"AT","state":"9f5d5e39-a2db-4ec9-a72b-03e0d67b8a28","stateCode":"1","latitude":"47.92532000","longitude":"16.86899000"},{"id":"d697efa7-2c47-4d14-bbdc-caad51d0e223","name":"Weiden bei Rechnitz","ru":"Weiden bei Rechnitz","country":"a6af3ee1-7869-4872-8069-9d2c61a051be","countryCode":"AT","state":"9f5d5e39-a2db-4ec9-a72b-03e0d67b8a28","stateCode":"1","latitude":"47.30000000","longitude":"16.35000000"},{"id":"12a6ea3e-e868-41ee-ba3a-fe2dfbbfc707","name":"Weingraben","ru":"Weingraben","country":"a6af3ee1-7869-4872-8069-9d2c61a051be","countryCode":"AT","state":"9f5d5e39-a2db-4ec9-a72b-03e0d67b8a28","stateCode":"1","latitude":"47.51393000","longitude":"16.36375000"},{"id":"54f06522-c1dd-48eb-a2aa-9db8fe8e66a7","name":"Weppersdorf","ru":"Weppersdorf","country":"a6af3ee1-7869-4872-8069-9d2c61a051be","countryCode":"AT","state":"9f5d5e39-a2db-4ec9-a72b-03e0d67b8a28","stateCode":"1","latitude":"47.57954000","longitude":"16.42679000"},{"id":"67886579-a0e6-4fb3-be0c-fddaeb1e8e07","name":"Wiesen","ru":"Wiesen","country":"a6af3ee1-7869-4872-8069-9d2c61a051be","countryCode":"AT","state":"9f5d5e39-a2db-4ec9-a72b-03e0d67b8a28","stateCode":"1","latitude":"47.73776000","longitude":"16.33798000"},{"id":"bbacdce4-d4ca-4e1f-9ea5-ac03b2ffead3","name":"Wiesfleck","ru":"Wiesfleck","country":"a6af3ee1-7869-4872-8069-9d2c61a051be","countryCode":"AT","state":"9f5d5e39-a2db-4ec9-a72b-03e0d67b8a28","stateCode":"1","latitude":"47.38458000","longitude":"16.14552000"},{"id":"8bacbb24-5139-4136-9ce1-d0f9b1e8990f","name":"Wimpassing an der Leitha","ru":"Wimpassing an der Leitha","country":"a6af3ee1-7869-4872-8069-9d2c61a051be","countryCode":"AT","state":"9f5d5e39-a2db-4ec9-a72b-03e0d67b8a28","stateCode":"1","latitude":"47.91667000","longitude":"16.43333000"},{"id":"7d508739-b9d3-4fb0-a2f6-5f1b2f6b8431","name":"Winden am See","ru":"Winden am See","country":"a6af3ee1-7869-4872-8069-9d2c61a051be","countryCode":"AT","state":"9f5d5e39-a2db-4ec9-a72b-03e0d67b8a28","stateCode":"1","latitude":"47.95000000","longitude":"16.75000000"},{"id":"55280a74-f4e5-40bf-8073-1334e9bb4bc2","name":"Wolfau","ru":"Wolfau","country":"a6af3ee1-7869-4872-8069-9d2c61a051be","countryCode":"AT","state":"9f5d5e39-a2db-4ec9-a72b-03e0d67b8a28","stateCode":"1","latitude":"47.25000000","longitude":"16.10000000"},{"id":"7c050475-8226-4fff-8100-abfd88f7681b","name":"Wulkaprodersdorf","ru":"Wulkaprodersdorf","country":"a6af3ee1-7869-4872-8069-9d2c61a051be","countryCode":"AT","state":"9f5d5e39-a2db-4ec9-a72b-03e0d67b8a28","stateCode":"1","latitude":"47.79753000","longitude":"16.50447000"},{"id":"c199bd9a-43b1-4ff3-aec1-53bf4dc0e3a4","name":"Zagersdorf","ru":"Zagersdorf","country":"a6af3ee1-7869-4872-8069-9d2c61a051be","countryCode":"AT","state":"9f5d5e39-a2db-4ec9-a72b-03e0d67b8a28","stateCode":"1","latitude":"47.76471000","longitude":"16.51382000"},{"id":"35da06e1-c95f-4a18-8319-0e6261e5e7d2","name":"Zillingtal","ru":"Zillingtal","country":"a6af3ee1-7869-4872-8069-9d2c61a051be","countryCode":"AT","state":"9f5d5e39-a2db-4ec9-a72b-03e0d67b8a28","stateCode":"1","latitude":"47.81442000","longitude":"16.40928000"},{"id":"287cc177-d773-4ccd-af50-6ba41c71ec0f","name":"Zurndorf","ru":"Zurndorf","country":"a6af3ee1-7869-4872-8069-9d2c61a051be","countryCode":"AT","state":"9f5d5e39-a2db-4ec9-a72b-03e0d67b8a28","stateCode":"1","latitude":"47.98314000","longitude":"17.00315000"},{"id":"518fa386-aa06-4333-a6b9-01bfccc1613b","name":"Althofen","ru":"Althofen","country":"a6af3ee1-7869-4872-8069-9d2c61a051be","countryCode":"AT","state":"2ce1507a-21dc-428b-9829-2b041746a43e","stateCode":"2","latitude":"46.87298000","longitude":"14.47449000"},{"id":"95d8bd22-1cc8-409c-86f3-f4772c9c8b3f","name":"Annabichl","ru":"Annabichl","country":"a6af3ee1-7869-4872-8069-9d2c61a051be","countryCode":"AT","state":"2ce1507a-21dc-428b-9829-2b041746a43e","stateCode":"2","latitude":"46.65000000","longitude":"14.31667000"},{"id":"7b95c15a-42e3-4d5f-b796-79ead4faa521","name":"Arnoldstein","ru":"Arnoldstein","country":"a6af3ee1-7869-4872-8069-9d2c61a051be","countryCode":"AT","state":"2ce1507a-21dc-428b-9829-2b041746a43e","stateCode":"2","latitude":"46.54611000","longitude":"13.71000000"},{"id":"1bd10434-6fc3-4899-bde3-468ba5d42445","name":"Arriach","ru":"Arriach","country":"a6af3ee1-7869-4872-8069-9d2c61a051be","countryCode":"AT","state":"2ce1507a-21dc-428b-9829-2b041746a43e","stateCode":"2","latitude":"46.72921000","longitude":"13.85046000"},{"id":"2b7dabf1-08af-4906-9b92-15b1dfab6a7c","name":"Auen","ru":"Auen","country":"a6af3ee1-7869-4872-8069-9d2c61a051be","countryCode":"AT","state":"2ce1507a-21dc-428b-9829-2b041746a43e","stateCode":"2","latitude":"46.59963000","longitude":"13.84389000"},{"id":"51f5f80d-75ed-40d8-a501-44c71e89028d","name":"Bad Sankt Leonhard im Lavanttal","ru":"Bad Sankt Leonhard im Lavanttal","country":"a6af3ee1-7869-4872-8069-9d2c61a051be","countryCode":"AT","state":"2ce1507a-21dc-428b-9829-2b041746a43e","stateCode":"2","latitude":"46.96278000","longitude":"14.79167000"},{"id":"14925132-a9fe-4ea3-a756-2da295cf2b14","name":"Baldramsdorf","ru":"Baldramsdorf","country":"a6af3ee1-7869-4872-8069-9d2c61a051be","countryCode":"AT","state":"2ce1507a-21dc-428b-9829-2b041746a43e","stateCode":"2","latitude":"46.80111000","longitude":"13.45333000"},{"id":"c5916b60-1cb5-4056-bbb3-b1576c46d8f4","name":"Berg im Drautal","ru":"Berg im Drautal","country":"a6af3ee1-7869-4872-8069-9d2c61a051be","countryCode":"AT","state":"2ce1507a-21dc-428b-9829-2b041746a43e","stateCode":"2","latitude":"46.74915000","longitude":"13.13536000"},{"id":"43f28372-0d9b-4431-94f5-e5a39746f7a8","name":"Bleiburg/Pliberk","ru":"Bleiburg/Pliberk","country":"a6af3ee1-7869-4872-8069-9d2c61a051be","countryCode":"AT","state":"2ce1507a-21dc-428b-9829-2b041746a43e","stateCode":"2","latitude":"46.59000000","longitude":"14.79889000"},{"id":"3f2055f2-271a-4ed4-951a-58eb96474f16","name":"Bodensdorf","ru":"Bodensdorf","country":"a6af3ee1-7869-4872-8069-9d2c61a051be","countryCode":"AT","state":"2ce1507a-21dc-428b-9829-2b041746a43e","stateCode":"2","latitude":"46.69111000","longitude":"13.97111000"},{"id":"5267250a-626e-4c50-9c27-f45c837bdbeb","name":"Brückl","ru":"Brückl","country":"a6af3ee1-7869-4872-8069-9d2c61a051be","countryCode":"AT","state":"2ce1507a-21dc-428b-9829-2b041746a43e","stateCode":"2","latitude":"46.75167000","longitude":"14.53667000"},{"id":"8fd40aa4-13c6-41a9-8377-a9d7a22776f9","name":"Döbriach","ru":"Döbriach","country":"a6af3ee1-7869-4872-8069-9d2c61a051be","countryCode":"AT","state":"2ce1507a-21dc-428b-9829-2b041746a43e","stateCode":"2","latitude":"46.78049000","longitude":"13.65738000"},{"id":"0606935f-837a-45c3-b4dc-f9c028aebef2","name":"Dellach","ru":"Dellach","country":"a6af3ee1-7869-4872-8069-9d2c61a051be","countryCode":"AT","state":"2ce1507a-21dc-428b-9829-2b041746a43e","stateCode":"2","latitude":"46.66175000","longitude":"13.07965000"},{"id":"e6398886-7f75-4e44-8108-afcaf1691016","name":"Dellach im Drautal","ru":"Dellach im Drautal","country":"a6af3ee1-7869-4872-8069-9d2c61a051be","countryCode":"AT","state":"2ce1507a-21dc-428b-9829-2b041746a43e","stateCode":"2","latitude":"46.73750000","longitude":"13.07833000"},{"id":"7c75bfad-6d1b-4972-8784-850753cf6f7e","name":"Deutsch Griffen","ru":"Deutsch Griffen","country":"a6af3ee1-7869-4872-8069-9d2c61a051be","countryCode":"AT","state":"2ce1507a-21dc-428b-9829-2b041746a43e","stateCode":"2","latitude":"46.85606000","longitude":"14.07501000"},{"id":"7af8d26f-908b-4664-9fcb-b8c1969dc078","name":"Diex","ru":"Diex","country":"a6af3ee1-7869-4872-8069-9d2c61a051be","countryCode":"AT","state":"2ce1507a-21dc-428b-9829-2b041746a43e","stateCode":"2","latitude":"46.75000000","longitude":"14.60000000"},{"id":"f073bc47-9677-4f3d-86e9-cacd946553f6","name":"Draschen","ru":"Draschen","country":"a6af3ee1-7869-4872-8069-9d2c61a051be","countryCode":"AT","state":"2ce1507a-21dc-428b-9829-2b041746a43e","stateCode":"2","latitude":"46.76909000","longitude":"14.06758000"},{"id":"4782f58b-efbb-478b-9b60-5ee81a55729b","name":"Ebenthal","ru":"Ebenthal","country":"a6af3ee1-7869-4872-8069-9d2c61a051be","countryCode":"AT","state":"2ce1507a-21dc-428b-9829-2b041746a43e","stateCode":"2","latitude":"46.60806000","longitude":"14.36417000"},{"id":"40445c0b-2ed7-4627-a3cc-81d03ecfcad4","name":"Eberndorf","ru":"Eberndorf","country":"a6af3ee1-7869-4872-8069-9d2c61a051be","countryCode":"AT","state":"2ce1507a-21dc-428b-9829-2b041746a43e","stateCode":"2","latitude":"46.59139000","longitude":"14.64361000"},{"id":"ec221961-657a-4f1b-9be9-fec549cbe2c9","name":"Eberstein","ru":"Eberstein","country":"a6af3ee1-7869-4872-8069-9d2c61a051be","countryCode":"AT","state":"2ce1507a-21dc-428b-9829-2b041746a43e","stateCode":"2","latitude":"46.80806000","longitude":"14.56000000"},{"id":"95286918-0958-4758-b995-74af91de3ce5","name":"Faak am See","ru":"Faak am See","country":"a6af3ee1-7869-4872-8069-9d2c61a051be","countryCode":"AT","state":"2ce1507a-21dc-428b-9829-2b041746a43e","stateCode":"2","latitude":"46.56806000","longitude":"13.90972000"},{"id":"40ba3cc5-90a8-4e93-b2e8-c603d0604515","name":"Föderlach I","ru":"Föderlach I","country":"a6af3ee1-7869-4872-8069-9d2c61a051be","countryCode":"AT","state":"2ce1507a-21dc-428b-9829-2b041746a43e","stateCode":"2","latitude":"46.59998000","longitude":"13.96128000"},{"id":"09d645b6-01b0-4fbc-a04b-0f7134a5c0a4","name":"Fürnitz","ru":"Fürnitz","country":"a6af3ee1-7869-4872-8069-9d2c61a051be","countryCode":"AT","state":"2ce1507a-21dc-428b-9829-2b041746a43e","stateCode":"2","latitude":"46.56188000","longitude":"13.81732000"},{"id":"3f083c98-c160-40cf-bfc9-cde1423c9513","name":"Feistritz an der Drau","ru":"Feistritz an der Drau","country":"a6af3ee1-7869-4872-8069-9d2c61a051be","countryCode":"AT","state":"2ce1507a-21dc-428b-9829-2b041746a43e","stateCode":"2","latitude":"46.70157000","longitude":"13.66479000"},{"id":"3023048f-b435-48f1-89fc-271b95d031ad","name":"Feistritz an der Gail","ru":"Feistritz an der Gail","country":"a6af3ee1-7869-4872-8069-9d2c61a051be","countryCode":"AT","state":"2ce1507a-21dc-428b-9829-2b041746a43e","stateCode":"2","latitude":"46.57750000","longitude":"13.60667000"},{"id":"9b0b2dae-6303-4dc7-b593-871ada11a6e8","name":"Feistritz im Rosental","ru":"Feistritz im Rosental","country":"a6af3ee1-7869-4872-8069-9d2c61a051be","countryCode":"AT","state":"2ce1507a-21dc-428b-9829-2b041746a43e","stateCode":"2","latitude":"46.51667000","longitude":"14.16667000"},{"id":"d11fc7c4-7461-47a4-9399-2a588025a22e","name":"Feistritz ob Bleiburg","ru":"Feistritz ob Bleiburg","country":"a6af3ee1-7869-4872-8069-9d2c61a051be","countryCode":"AT","state":"2ce1507a-21dc-428b-9829-2b041746a43e","stateCode":"2","latitude":"46.55000000","longitude":"14.76667000"},{"id":"086814e5-c787-4224-8d05-efe2c444138f","name":"Feld am See","ru":"Feld am See","country":"a6af3ee1-7869-4872-8069-9d2c61a051be","countryCode":"AT","state":"2ce1507a-21dc-428b-9829-2b041746a43e","stateCode":"2","latitude":"46.77639000","longitude":"13.74778000"},{"id":"19017edb-9b1d-455d-8b79-7ea2be46682b","name":"Feldkirchen in Kärnten","ru":"Feldkirchen in Kärnten","country":"a6af3ee1-7869-4872-8069-9d2c61a051be","countryCode":"AT","state":"2ce1507a-21dc-428b-9829-2b041746a43e","stateCode":"2","latitude":"46.72368000","longitude":"14.09580000"},{"id":"eb909fcd-3cbe-4f7a-a846-25d08aa3a209","name":"Ferlach","ru":"Ferlach","country":"a6af3ee1-7869-4872-8069-9d2c61a051be","countryCode":"AT","state":"2ce1507a-21dc-428b-9829-2b041746a43e","stateCode":"2","latitude":"46.52694000","longitude":"14.30194000"},{"id":"defbe21c-6fb6-4ac3-af6c-ac9060cce222","name":"Ferndorf","ru":"Ferndorf","country":"a6af3ee1-7869-4872-8069-9d2c61a051be","countryCode":"AT","state":"2ce1507a-21dc-428b-9829-2b041746a43e","stateCode":"2","latitude":"46.73651000","longitude":"13.62661000"},{"id":"6ddd2e8f-91f3-4518-b590-84ccb9c26a98","name":"Finkenstein","ru":"Finkenstein","country":"a6af3ee1-7869-4872-8069-9d2c61a051be","countryCode":"AT","state":"2ce1507a-21dc-428b-9829-2b041746a43e","stateCode":"2","latitude":"46.56155000","longitude":"13.87086000"},{"id":"cd042d3c-9246-4b9b-8c56-7ab5882566cc","name":"Finkenstein am Faaker See","ru":"Finkenstein am Faaker See","country":"a6af3ee1-7869-4872-8069-9d2c61a051be","countryCode":"AT","state":"2ce1507a-21dc-428b-9829-2b041746a43e","stateCode":"2","latitude":"46.57904000","longitude":"13.93496000"},{"id":"33df7367-22cb-4a08-90dc-49d6ff8d4635","name":"Flattach","ru":"Flattach","country":"a6af3ee1-7869-4872-8069-9d2c61a051be","countryCode":"AT","state":"2ce1507a-21dc-428b-9829-2b041746a43e","stateCode":"2","latitude":"46.93861000","longitude":"13.13444000"},{"id":"e2e35fac-b873-4f4b-86ea-c409fb3cc6e8","name":"Frauenstein","ru":"Frauenstein","country":"a6af3ee1-7869-4872-8069-9d2c61a051be","countryCode":"AT","state":"2ce1507a-21dc-428b-9829-2b041746a43e","stateCode":"2","latitude":"46.81417000","longitude":"14.29417000"},{"id":"f43961c1-a10c-4eec-8ae9-f8ef75ce63ae","name":"Fresach","ru":"Fresach","country":"a6af3ee1-7869-4872-8069-9d2c61a051be","countryCode":"AT","state":"2ce1507a-21dc-428b-9829-2b041746a43e","stateCode":"2","latitude":"46.71556000","longitude":"13.69083000"},{"id":"3b4c256d-b90f-456f-a9f8-4d0282e0e5ba","name":"Fresen","ru":"Fresen","country":"a6af3ee1-7869-4872-8069-9d2c61a051be","countryCode":"AT","state":"2ce1507a-21dc-428b-9829-2b041746a43e","stateCode":"2","latitude":"46.70516000","longitude":"14.04513000"},{"id":"992ca4df-9d44-4dbe-a70f-46a39ffd3acb","name":"Friesach","ru":"Friesach","country":"a6af3ee1-7869-4872-8069-9d2c61a051be","countryCode":"AT","state":"2ce1507a-21dc-428b-9829-2b041746a43e","stateCode":"2","latitude":"46.95528000","longitude":"14.40583000"},{"id":"c480b014-ed63-429b-aeba-fc6a0a1a21fe","name":"Gailitz","ru":"Gailitz","country":"a6af3ee1-7869-4872-8069-9d2c61a051be","countryCode":"AT","state":"2ce1507a-21dc-428b-9829-2b041746a43e","stateCode":"2","latitude":"46.56083000","longitude":"13.70444000"},{"id":"9b4b9d2a-e6eb-4de1-8a87-38e42138b90e","name":"Gallizien","ru":"Gallizien","country":"a6af3ee1-7869-4872-8069-9d2c61a051be","countryCode":"AT","state":"2ce1507a-21dc-428b-9829-2b041746a43e","stateCode":"2","latitude":"46.55000000","longitude":"14.51667000"},{"id":"72586897-c1dc-4a04-8bc8-0de3213b0e54","name":"Glanegg","ru":"Glanegg","country":"a6af3ee1-7869-4872-8069-9d2c61a051be","countryCode":"AT","state":"2ce1507a-21dc-428b-9829-2b041746a43e","stateCode":"2","latitude":"46.72259000","longitude":"14.19893000"},{"id":"aa300d30-2aa5-4fca-8b83-a5e2211dd47d","name":"Glödnitz","ru":"Glödnitz","country":"a6af3ee1-7869-4872-8069-9d2c61a051be","countryCode":"AT","state":"2ce1507a-21dc-428b-9829-2b041746a43e","stateCode":"2","latitude":"46.87398000","longitude":"14.11915000"},{"id":"ad6f426f-a02c-4bbe-b23b-00dfd2a5ea3c","name":"Globasnitz","ru":"Globasnitz","country":"a6af3ee1-7869-4872-8069-9d2c61a051be","countryCode":"AT","state":"2ce1507a-21dc-428b-9829-2b041746a43e","stateCode":"2","latitude":"46.55694000","longitude":"14.70278000"},{"id":"d0d4f1c0-e7e1-4507-a59d-59584b2d6009","name":"Gmünd","ru":"Gmünd","country":"a6af3ee1-7869-4872-8069-9d2c61a051be","countryCode":"AT","state":"2ce1507a-21dc-428b-9829-2b041746a43e","stateCode":"2","latitude":"46.90722000","longitude":"13.52944000"},{"id":"5a74b2cf-5cfc-4480-b948-05b8f26bf066","name":"Gnesau","ru":"Gnesau","country":"a6af3ee1-7869-4872-8069-9d2c61a051be","countryCode":"AT","state":"2ce1507a-21dc-428b-9829-2b041746a43e","stateCode":"2","latitude":"46.77544000","longitude":"13.96251000"},{"id":"81d2ce32-ecd9-4222-8ad5-ae46a65a0483","name":"Grafenstein","ru":"Grafenstein","country":"a6af3ee1-7869-4872-8069-9d2c61a051be","countryCode":"AT","state":"2ce1507a-21dc-428b-9829-2b041746a43e","stateCode":"2","latitude":"46.61393000","longitude":"14.46719000"},{"id":"71274329-8f13-4ea0-9bd4-dcb34864fc8f","name":"Greifenburg","ru":"Greifenburg","country":"a6af3ee1-7869-4872-8069-9d2c61a051be","countryCode":"AT","state":"2ce1507a-21dc-428b-9829-2b041746a43e","stateCode":"2","latitude":"46.75027000","longitude":"13.17982000"},{"id":"99f8835a-eb85-4fe3-9da9-42d671c77b6a","name":"Gries","ru":"Gries","country":"a6af3ee1-7869-4872-8069-9d2c61a051be","countryCode":"AT","state":"2ce1507a-21dc-428b-9829-2b041746a43e","stateCode":"2","latitude":"46.83160000","longitude":"14.85103000"},{"id":"d94822b3-54a1-44a6-bd52-51b0916a2377","name":"Griffen","ru":"Griffen","country":"a6af3ee1-7869-4872-8069-9d2c61a051be","countryCode":"AT","state":"2ce1507a-21dc-428b-9829-2b041746a43e","stateCode":"2","latitude":"46.70444000","longitude":"14.73278000"},{"id":"9b5d0e74-7631-4dcc-bcc2-bb10c7e55bbe","name":"Großkirchheim","ru":"Großkirchheim","country":"a6af3ee1-7869-4872-8069-9d2c61a051be","countryCode":"AT","state":"2ce1507a-21dc-428b-9829-2b041746a43e","stateCode":"2","latitude":"46.97270000","longitude":"12.89589000"},{"id":"85c543e7-d2af-467f-a4bb-9f6c8e80e9c1","name":"Gurk","ru":"Gurk","country":"a6af3ee1-7869-4872-8069-9d2c61a051be","countryCode":"AT","state":"2ce1507a-21dc-428b-9829-2b041746a43e","stateCode":"2","latitude":"46.87389000","longitude":"14.29167000"},{"id":"4691fdca-dd51-424f-b65f-0d76aa80ae5f","name":"Guttaring","ru":"Guttaring","country":"a6af3ee1-7869-4872-8069-9d2c61a051be","countryCode":"AT","state":"2ce1507a-21dc-428b-9829-2b041746a43e","stateCode":"2","latitude":"46.88536000","longitude":"14.51071000"},{"id":"19d535aa-af5c-4560-afd1-bf873e3f4f04","name":"Hörtendorf","ru":"Hörtendorf","country":"a6af3ee1-7869-4872-8069-9d2c61a051be","countryCode":"AT","state":"2ce1507a-21dc-428b-9829-2b041746a43e","stateCode":"2","latitude":"46.63333000","longitude":"14.40000000"},{"id":"6b772d38-401b-4aad-8114-92525b399736","name":"Hüttenberg","ru":"Hüttenberg","country":"a6af3ee1-7869-4872-8069-9d2c61a051be","countryCode":"AT","state":"2ce1507a-21dc-428b-9829-2b041746a43e","stateCode":"2","latitude":"46.94139000","longitude":"14.55000000"},{"id":"947c6433-d917-4eab-9586-70998e94db46","name":"Heiligenblut","ru":"Heiligenblut","country":"a6af3ee1-7869-4872-8069-9d2c61a051be","countryCode":"AT","state":"2ce1507a-21dc-428b-9829-2b041746a43e","stateCode":"2","latitude":"47.03979000","longitude":"12.84345000"},{"id":"db16413e-7ae4-4e51-bc0e-0f9c739a8274","name":"Hermagor","ru":"Hermagor","country":"a6af3ee1-7869-4872-8069-9d2c61a051be","countryCode":"AT","state":"2ce1507a-21dc-428b-9829-2b041746a43e","stateCode":"2","latitude":"46.62722000","longitude":"13.36722000"},{"id":"4ea94132-c19b-4953-a9ec-6cf563b0a916","name":"Himmelberg","ru":"Himmelberg","country":"a6af3ee1-7869-4872-8069-9d2c61a051be","countryCode":"AT","state":"2ce1507a-21dc-428b-9829-2b041746a43e","stateCode":"2","latitude":"46.75667000","longitude":"14.03056000"},{"id":"4f48f1c9-3fd4-425d-8c05-672345041cc1","name":"Hohenthurn","ru":"Hohenthurn","country":"a6af3ee1-7869-4872-8069-9d2c61a051be","countryCode":"AT","state":"2ce1507a-21dc-428b-9829-2b041746a43e","stateCode":"2","latitude":"46.55774000","longitude":"13.66038000"},{"id":"56588a76-9bb2-4897-a3fe-d3d5b1f896d9","name":"Irschen","ru":"Irschen","country":"a6af3ee1-7869-4872-8069-9d2c61a051be","countryCode":"AT","state":"2ce1507a-21dc-428b-9829-2b041746a43e","stateCode":"2","latitude":"46.75694000","longitude":"13.02528000"},{"id":"a22a1b5d-d3c0-4a85-bd09-9a4789213411","name":"Kappel am Krappfeld","ru":"Kappel am Krappfeld","country":"a6af3ee1-7869-4872-8069-9d2c61a051be","countryCode":"AT","state":"2ce1507a-21dc-428b-9829-2b041746a43e","stateCode":"2","latitude":"46.83861000","longitude":"14.48639000"},{"id":"47486af3-93d6-4897-a166-698bf662e865","name":"Kötschach","ru":"Kötschach","country":"a6af3ee1-7869-4872-8069-9d2c61a051be","countryCode":"AT","state":"2ce1507a-21dc-428b-9829-2b041746a43e","stateCode":"2","latitude":"46.68167000","longitude":"13.00694000"},{"id":"c385aec0-617c-4412-8f16-205a5c647441","name":"Köttmannsdorf","ru":"Köttmannsdorf","country":"a6af3ee1-7869-4872-8069-9d2c61a051be","countryCode":"AT","state":"2ce1507a-21dc-428b-9829-2b041746a43e","stateCode":"2","latitude":"46.56139000","longitude":"14.23389000"},{"id":"3fe2e3ac-d9e6-4678-8d51-fd0975959a13","name":"Kühnsdorf","ru":"Kühnsdorf","country":"a6af3ee1-7869-4872-8069-9d2c61a051be","countryCode":"AT","state":"2ce1507a-21dc-428b-9829-2b041746a43e","stateCode":"2","latitude":"46.62194000","longitude":"14.63639000"},{"id":"912a2194-3d15-4c4a-8ee0-b45c461c2c28","name":"Keutschach am See","ru":"Keutschach am See","country":"a6af3ee1-7869-4872-8069-9d2c61a051be","countryCode":"AT","state":"2ce1507a-21dc-428b-9829-2b041746a43e","stateCode":"2","latitude":"46.59306000","longitude":"14.18889000"},{"id":"2a67d27b-1410-4963-aae9-92503e9471e7","name":"Kirchbach","ru":"Kirchbach","country":"a6af3ee1-7869-4872-8069-9d2c61a051be","countryCode":"AT","state":"2ce1507a-21dc-428b-9829-2b041746a43e","stateCode":"2","latitude":"46.64160000","longitude":"13.18454000"},{"id":"0e779a55-bce6-40ae-8032-b04cd1e70e3f","name":"Klagenfurt am Wörthersee","ru":"Klagenfurt am Wörthersee","country":"a6af3ee1-7869-4872-8069-9d2c61a051be","countryCode":"AT","state":"2ce1507a-21dc-428b-9829-2b041746a43e","stateCode":"2","latitude":"46.63333000","longitude":"14.30000000"},{"id":"e4651481-6f93-437f-a25e-a49be49c4785","name":"Klein Sankt Paul","ru":"Klein Sankt Paul","country":"a6af3ee1-7869-4872-8069-9d2c61a051be","countryCode":"AT","state":"2ce1507a-21dc-428b-9829-2b041746a43e","stateCode":"2","latitude":"46.83611000","longitude":"14.54139000"},{"id":"1cd112f5-e1de-465c-a59b-51a09f40e12f","name":"Kleinedling","ru":"Kleinedling","country":"a6af3ee1-7869-4872-8069-9d2c61a051be","countryCode":"AT","state":"2ce1507a-21dc-428b-9829-2b041746a43e","stateCode":"2","latitude":"46.81417000","longitude":"14.82778000"},{"id":"cb644cf8-152f-4dc8-9f69-8694ac6cd3e2","name":"Krumpendorf","ru":"Krumpendorf","country":"a6af3ee1-7869-4872-8069-9d2c61a051be","countryCode":"AT","state":"2ce1507a-21dc-428b-9829-2b041746a43e","stateCode":"2","latitude":"46.63333000","longitude":"14.21667000"},{"id":"ea1b0e6e-ac1f-4a58-8d78-2ef78eebb032","name":"Landskron","ru":"Landskron","country":"a6af3ee1-7869-4872-8069-9d2c61a051be","countryCode":"AT","state":"2ce1507a-21dc-428b-9829-2b041746a43e","stateCode":"2","latitude":"46.61667000","longitude":"13.88333000"},{"id":"d5f98ba8-bff1-4631-b29f-64fe19351763","name":"Launsdorf","ru":"Launsdorf","country":"a6af3ee1-7869-4872-8069-9d2c61a051be","countryCode":"AT","state":"2ce1507a-21dc-428b-9829-2b041746a43e","stateCode":"2","latitude":"46.77056000","longitude":"14.45194000"},{"id":"33c6e715-7a2b-409b-a556-33caffb60cfe","name":"Lavamünd","ru":"Lavamünd","country":"a6af3ee1-7869-4872-8069-9d2c61a051be","countryCode":"AT","state":"2ce1507a-21dc-428b-9829-2b041746a43e","stateCode":"2","latitude":"46.64019000","longitude":"14.94733000"},{"id":"b2b0c880-4e7f-4d2b-b48f-8b07820dc541","name":"Ledenitzen","ru":"Ledenitzen","country":"a6af3ee1-7869-4872-8069-9d2c61a051be","countryCode":"AT","state":"2ce1507a-21dc-428b-9829-2b041746a43e","stateCode":"2","latitude":"46.56639000","longitude":"13.96139000"},{"id":"d2a7abbe-3cdf-4ec4-b90c-dd6464debfd4","name":"Lendorf","ru":"Lendorf","country":"a6af3ee1-7869-4872-8069-9d2c61a051be","countryCode":"AT","state":"2ce1507a-21dc-428b-9829-2b041746a43e","stateCode":"2","latitude":"46.83528000","longitude":"13.43028000"},{"id":"c4d5b63c-a6bc-4d26-b9e7-93cf66c3b5ab","name":"Liebenfels","ru":"Liebenfels","country":"a6af3ee1-7869-4872-8069-9d2c61a051be","countryCode":"AT","state":"2ce1507a-21dc-428b-9829-2b041746a43e","stateCode":"2","latitude":"46.73778000","longitude":"14.28667000"},{"id":"de961fcb-59e3-4daa-afa5-3b5c2906f423","name":"Lind","ru":"Lind","country":"a6af3ee1-7869-4872-8069-9d2c61a051be","countryCode":"AT","state":"2ce1507a-21dc-428b-9829-2b041746a43e","stateCode":"2","latitude":"46.62244000","longitude":"13.84715000"},{"id":"07697815-3aa3-48c0-9c96-2076a1033957","name":"Ludmannsdorf","ru":"Ludmannsdorf","country":"a6af3ee1-7869-4872-8069-9d2c61a051be","countryCode":"AT","state":"2ce1507a-21dc-428b-9829-2b041746a43e","stateCode":"2","latitude":"46.54139000","longitude":"14.13425000"},{"id":"94cbdf3a-5724-4a14-a270-64897a74d64e","name":"Maria Rain","ru":"Maria Rain","country":"a6af3ee1-7869-4872-8069-9d2c61a051be","countryCode":"AT","state":"2ce1507a-21dc-428b-9829-2b041746a43e","stateCode":"2","latitude":"46.55389000","longitude":"14.29556000"},{"id":"130cebfe-6249-4cdd-9aa8-65955cf3ac18","name":"Maria Saal","ru":"Maria Saal","country":"a6af3ee1-7869-4872-8069-9d2c61a051be","countryCode":"AT","state":"2ce1507a-21dc-428b-9829-2b041746a43e","stateCode":"2","latitude":"46.68083000","longitude":"14.34861000"},{"id":"e01f366d-04a1-419e-9fe4-96b54cb274b6","name":"Maria Wörth","ru":"Maria Wörth","country":"a6af3ee1-7869-4872-8069-9d2c61a051be","countryCode":"AT","state":"2ce1507a-21dc-428b-9829-2b041746a43e","stateCode":"2","latitude":"46.61639000","longitude":"14.16306000"},{"id":"b4983bcc-3247-4f35-bc42-f7628e4b0fba","name":"Mautbrücken","ru":"Mautbrücken","country":"a6af3ee1-7869-4872-8069-9d2c61a051be","countryCode":"AT","state":"2ce1507a-21dc-428b-9829-2b041746a43e","stateCode":"2","latitude":"46.72037000","longitude":"14.19399000"},{"id":"7d77315c-ece9-431c-8a2c-a13ee5362355","name":"Mölbling","ru":"Mölbling","country":"a6af3ee1-7869-4872-8069-9d2c61a051be","countryCode":"AT","state":"2ce1507a-21dc-428b-9829-2b041746a43e","stateCode":"2","latitude":"46.85000000","longitude":"14.43333000"},{"id":"b34b1377-9a41-4dd4-9ec2-b31140401a7b","name":"Möllbrücke","ru":"Möllbrücke","country":"a6af3ee1-7869-4872-8069-9d2c61a051be","countryCode":"AT","state":"2ce1507a-21dc-428b-9829-2b041746a43e","stateCode":"2","latitude":"46.83639000","longitude":"13.37278000"},{"id":"75f80be6-06f3-49cf-9a77-6f6ff822c414","name":"Mörtschach","ru":"Mörtschach","country":"a6af3ee1-7869-4872-8069-9d2c61a051be","countryCode":"AT","state":"2ce1507a-21dc-428b-9829-2b041746a43e","stateCode":"2","latitude":"46.92389000","longitude":"12.91778000"},{"id":"05f37063-ecb1-45cc-81de-ac35ee3aed8f","name":"Mühldorf","ru":"Mühldorf","country":"a6af3ee1-7869-4872-8069-9d2c61a051be","countryCode":"AT","state":"2ce1507a-21dc-428b-9829-2b041746a43e","stateCode":"2","latitude":"46.86028000","longitude":"13.35361000"},{"id":"50c57590-4702-4bf5-b4ac-8ebd7ca38a57","name":"Metnitz","ru":"Metnitz","country":"a6af3ee1-7869-4872-8069-9d2c61a051be","countryCode":"AT","state":"2ce1507a-21dc-428b-9829-2b041746a43e","stateCode":"2","latitude":"46.98056000","longitude":"14.21667000"},{"id":"b6855d0a-707f-460b-9f28-709014a8b182","name":"Micheldorf","ru":"Micheldorf","country":"a6af3ee1-7869-4872-8069-9d2c61a051be","countryCode":"AT","state":"2ce1507a-21dc-428b-9829-2b041746a43e","stateCode":"2","latitude":"46.91667000","longitude":"14.41667000"},{"id":"abb2456e-509b-4906-91f8-8b3d07fd2587","name":"Millstatt","ru":"Millstatt","country":"a6af3ee1-7869-4872-8069-9d2c61a051be","countryCode":"AT","state":"2ce1507a-21dc-428b-9829-2b041746a43e","stateCode":"2","latitude":"46.80417000","longitude":"13.58056000"},{"id":"21aacbe5-7828-47d6-b3af-2137b6672cd5","name":"Moosburg","ru":"Moosburg","country":"a6af3ee1-7869-4872-8069-9d2c61a051be","countryCode":"AT","state":"2ce1507a-21dc-428b-9829-2b041746a43e","stateCode":"2","latitude":"46.65750000","longitude":"14.17472000"},{"id":"28aec147-4e68-4269-977c-506343d55a16","name":"Neu-Feffernitz","ru":"Neu-Feffernitz","country":"a6af3ee1-7869-4872-8069-9d2c61a051be","countryCode":"AT","state":"2ce1507a-21dc-428b-9829-2b041746a43e","stateCode":"2","latitude":"46.68772000","longitude":"13.67914000"},{"id":"37af1c1c-0ce0-4b8f-a393-59bb1fd72df1","name":"Neuhaus","ru":"Neuhaus","country":"a6af3ee1-7869-4872-8069-9d2c61a051be","countryCode":"AT","state":"2ce1507a-21dc-428b-9829-2b041746a43e","stateCode":"2","latitude":"46.63333000","longitude":"14.88333000"},{"id":"50b85845-78d2-4a90-9d98-569838f0d06d","name":"Niederdorf","ru":"Niederdorf","country":"a6af3ee1-7869-4872-8069-9d2c61a051be","countryCode":"AT","state":"2ce1507a-21dc-428b-9829-2b041746a43e","stateCode":"2","latitude":"46.61667000","longitude":"14.40000000"},{"id":"83f5a639-f465-4497-b40f-1f7a61b568d4","name":"Oberdrauburg","ru":"Oberdrauburg","country":"a6af3ee1-7869-4872-8069-9d2c61a051be","countryCode":"AT","state":"2ce1507a-21dc-428b-9829-2b041746a43e","stateCode":"2","latitude":"46.74306000","longitude":"12.97028000"},{"id":"1ce64ec8-a708-47e6-bfa4-334c88427746","name":"Obervellach","ru":"Obervellach","country":"a6af3ee1-7869-4872-8069-9d2c61a051be","countryCode":"AT","state":"2ce1507a-21dc-428b-9829-2b041746a43e","stateCode":"2","latitude":"46.93667000","longitude":"13.20417000"},{"id":"514dafea-9a97-4cb7-b230-1e9adb010846","name":"Ossiach","ru":"Ossiach","country":"a6af3ee1-7869-4872-8069-9d2c61a051be","countryCode":"AT","state":"2ce1507a-21dc-428b-9829-2b041746a43e","stateCode":"2","latitude":"46.67435000","longitude":"13.98358000"},{"id":"53a381b5-4134-4e73-b1f7-81670aba201f","name":"Paternion","ru":"Paternion","country":"a6af3ee1-7869-4872-8069-9d2c61a051be","countryCode":"AT","state":"2ce1507a-21dc-428b-9829-2b041746a43e","stateCode":"2","latitude":"46.71417000","longitude":"13.63611000"},{"id":"2754bc7f-d948-4fdb-b070-6e600c2805a0","name":"Pörtschach am Wörthersee","ru":"Pörtschach am Wörthersee","country":"a6af3ee1-7869-4872-8069-9d2c61a051be","countryCode":"AT","state":"2ce1507a-21dc-428b-9829-2b041746a43e","stateCode":"2","latitude":"46.63639000","longitude":"14.14639000"},{"id":"32bd48ed-303e-4daf-9347-fb37e73bbf5d","name":"Poggersdorf","ru":"Poggersdorf","country":"a6af3ee1-7869-4872-8069-9d2c61a051be","countryCode":"AT","state":"2ce1507a-21dc-428b-9829-2b041746a43e","stateCode":"2","latitude":"46.65000000","longitude":"14.45000000"},{"id":"401b1b2f-37c4-41ca-b4cc-25164e6cb3de","name":"Politischer Bezirk Feldkirchen","ru":"Politischer Bezirk Feldkirchen","country":"a6af3ee1-7869-4872-8069-9d2c61a051be","countryCode":"AT","state":"2ce1507a-21dc-428b-9829-2b041746a43e","stateCode":"2","latitude":"46.72127000","longitude":"14.09683000"},{"id":"40605a50-c52b-4267-a1a2-39f924fe0f33","name":"Politischer Bezirk Hermagor","ru":"Politischer Bezirk Hermagor","country":"a6af3ee1-7869-4872-8069-9d2c61a051be","countryCode":"AT","state":"2ce1507a-21dc-428b-9829-2b041746a43e","stateCode":"2","latitude":"46.63137000","longitude":"13.13246000"},{"id":"b6ef0031-5876-412b-8a0f-d3a68a9aa84b","name":"Politischer Bezirk Klagenfurt Land","ru":"Politischer Bezirk Klagenfurt Land","country":"a6af3ee1-7869-4872-8069-9d2c61a051be","countryCode":"AT","state":"2ce1507a-21dc-428b-9829-2b041746a43e","stateCode":"2","latitude":"46.56722000","longitude":"14.29295000"},{"id":"50cf5911-f088-4571-b8e3-3381f1473392","name":"Politischer Bezirk Sankt Veit an der Glan","ru":"Politischer Bezirk Sankt Veit an der Glan","country":"a6af3ee1-7869-4872-8069-9d2c61a051be","countryCode":"AT","state":"2ce1507a-21dc-428b-9829-2b041746a43e","stateCode":"2","latitude":"46.83333000","longitude":"14.40000000"},{"id":"5d2da206-5438-4158-b680-acbe1838ceea","name":"Politischer Bezirk Spittal an der Drau","ru":"Politischer Bezirk Spittal an der Drau","country":"a6af3ee1-7869-4872-8069-9d2c61a051be","countryCode":"AT","state":"2ce1507a-21dc-428b-9829-2b041746a43e","stateCode":"2","latitude":"46.85000000","longitude":"13.33333000"},{"id":"81cc9cfa-2786-4f88-a583-bf01ac527d60","name":"Politischer Bezirk Völkermarkt","ru":"Politischer Bezirk Völkermarkt","country":"a6af3ee1-7869-4872-8069-9d2c61a051be","countryCode":"AT","state":"2ce1507a-21dc-428b-9829-2b041746a43e","stateCode":"2","latitude":"46.59641000","longitude":"14.66664000"},{"id":"1ab1bc0b-6f2d-418f-9948-663d78c8db4c","name":"Politischer Bezirk Villach Land","ru":"Politischer Bezirk Villach Land","country":"a6af3ee1-7869-4872-8069-9d2c61a051be","countryCode":"AT","state":"2ce1507a-21dc-428b-9829-2b041746a43e","stateCode":"2","latitude":"46.65308000","longitude":"13.77287000"},{"id":"3b16a4e5-b1c9-4cd1-84be-3bc2c671b8ac","name":"Politischer Bezirk Wolfsberg","ru":"Politischer Bezirk Wolfsberg","country":"a6af3ee1-7869-4872-8069-9d2c61a051be","countryCode":"AT","state":"2ce1507a-21dc-428b-9829-2b041746a43e","stateCode":"2","latitude":"46.83333000","longitude":"14.83333000"},{"id":"c3846a34-4061-49a6-a810-6ba0ee71cd26","name":"Preitenegg","ru":"Preitenegg","country":"a6af3ee1-7869-4872-8069-9d2c61a051be","countryCode":"AT","state":"2ce1507a-21dc-428b-9829-2b041746a43e","stateCode":"2","latitude":"46.94000000","longitude":"14.92583000"},{"id":"ae701da8-b6a0-4faa-a6e0-f240d641975b","name":"Priel","ru":"Priel","country":"a6af3ee1-7869-4872-8069-9d2c61a051be","countryCode":"AT","state":"2ce1507a-21dc-428b-9829-2b041746a43e","stateCode":"2","latitude":"46.82758000","longitude":"14.83330000"},{"id":"076900ec-6cff-4d36-ad27-ed1d4826e2b7","name":"Radenthein","ru":"Radenthein","country":"a6af3ee1-7869-4872-8069-9d2c61a051be","countryCode":"AT","state":"2ce1507a-21dc-428b-9829-2b041746a43e","stateCode":"2","latitude":"46.80056000","longitude":"13.71167000"},{"id":"8219f396-c9ef-4c40-a72c-33e69f4e82e6","name":"Rain","ru":"Rain","country":"a6af3ee1-7869-4872-8069-9d2c61a051be","countryCode":"AT","state":"2ce1507a-21dc-428b-9829-2b041746a43e","stateCode":"2","latitude":"46.60528000","longitude":"14.38611000"},{"id":"e3bd17e9-eaa6-4971-8518-4a0caacc8403","name":"Rangersdorf","ru":"Rangersdorf","country":"a6af3ee1-7869-4872-8069-9d2c61a051be","countryCode":"AT","state":"2ce1507a-21dc-428b-9829-2b041746a43e","stateCode":"2","latitude":"46.86001000","longitude":"12.94923000"},{"id":"6eee5d1b-9a09-455d-984b-890614c6ab86","name":"Reding","ru":"Reding","country":"a6af3ee1-7869-4872-8069-9d2c61a051be","countryCode":"AT","state":"2ce1507a-21dc-428b-9829-2b041746a43e","stateCode":"2","latitude":"46.81667000","longitude":"14.85000000"},{"id":"4c2b4ba2-7974-4ad9-b432-b834087465db","name":"Reichenfels","ru":"Reichenfels","country":"a6af3ee1-7869-4872-8069-9d2c61a051be","countryCode":"AT","state":"2ce1507a-21dc-428b-9829-2b041746a43e","stateCode":"2","latitude":"47.00718000","longitude":"14.74425000"},{"id":"315b495d-ca8b-4d92-85a0-5304af517ad3","name":"Rennweg am Katschberg","ru":"Rennweg am Katschberg","country":"a6af3ee1-7869-4872-8069-9d2c61a051be","countryCode":"AT","state":"2ce1507a-21dc-428b-9829-2b041746a43e","stateCode":"2","latitude":"47.01667000","longitude":"13.61667000"},{"id":"04cee58e-104a-4ebe-9955-182fa26c9c99","name":"Rosegg","ru":"Rosegg","country":"a6af3ee1-7869-4872-8069-9d2c61a051be","countryCode":"AT","state":"2ce1507a-21dc-428b-9829-2b041746a43e","stateCode":"2","latitude":"46.58833000","longitude":"14.01718000"},{"id":"9acacfd6-42d1-476c-a264-d22c43a5d361","name":"Ruden","ru":"Ruden","country":"a6af3ee1-7869-4872-8069-9d2c61a051be","countryCode":"AT","state":"2ce1507a-21dc-428b-9829-2b041746a43e","stateCode":"2","latitude":"46.65833000","longitude":"14.77639000"},{"id":"689cd763-1917-46f7-9bce-78b4903e9ea7","name":"Sachsenburg","ru":"Sachsenburg","country":"a6af3ee1-7869-4872-8069-9d2c61a051be","countryCode":"AT","state":"2ce1507a-21dc-428b-9829-2b041746a43e","stateCode":"2","latitude":"46.82917000","longitude":"13.35500000"},{"id":"d3ae529f-438a-408f-af53-ab52347a6d8d","name":"Sankt Andrä","ru":"Sankt Andrä","country":"a6af3ee1-7869-4872-8069-9d2c61a051be","countryCode":"AT","state":"2ce1507a-21dc-428b-9829-2b041746a43e","stateCode":"2","latitude":"46.76829000","longitude":"14.81991000"},{"id":"98a8e4c4-bd71-487d-8c26-e410327c18fa","name":"Sankt Leonhard","ru":"Sankt Leonhard","country":"a6af3ee1-7869-4872-8069-9d2c61a051be","countryCode":"AT","state":"2ce1507a-21dc-428b-9829-2b041746a43e","stateCode":"2","latitude":"46.62528000","longitude":"13.85865000"},{"id":"4c2ee686-8797-407d-b3fd-feaa99842c5f","name":"Sankt Magdalen","ru":"Sankt Magdalen","country":"a6af3ee1-7869-4872-8069-9d2c61a051be","countryCode":"AT","state":"2ce1507a-21dc-428b-9829-2b041746a43e","stateCode":"2","latitude":"46.61667000","longitude":"13.88333000"},{"id":"5e572118-70d6-475b-aa6f-db2e37712c3e","name":"Sankt Margareten im Rosental","ru":"Sankt Margareten im Rosental","country":"a6af3ee1-7869-4872-8069-9d2c61a051be","countryCode":"AT","state":"2ce1507a-21dc-428b-9829-2b041746a43e","stateCode":"2","latitude":"46.54417000","longitude":"14.42444000"},{"id":"bf7c4d15-d23f-4377-95fc-ee121dffd57e","name":"Sankt Martin","ru":"Sankt Martin","country":"a6af3ee1-7869-4872-8069-9d2c61a051be","countryCode":"AT","state":"2ce1507a-21dc-428b-9829-2b041746a43e","stateCode":"2","latitude":"46.61667000","longitude":"14.28333000"},{"id":"eec151db-1800-4d78-92ee-ff6d6fcf6ccb","name":"Sankt Paul im Levanttal","ru":"Sankt Paul im Levanttal","country":"a6af3ee1-7869-4872-8069-9d2c61a051be","countryCode":"AT","state":"2ce1507a-21dc-428b-9829-2b041746a43e","stateCode":"2","latitude":"46.70056000","longitude":"14.87556000"},{"id":"67000ad2-448e-402c-a055-02bd38b6fc10","name":"Sankt Peter","ru":"Sankt Peter","country":"a6af3ee1-7869-4872-8069-9d2c61a051be","countryCode":"AT","state":"2ce1507a-21dc-428b-9829-2b041746a43e","stateCode":"2","latitude":"46.62978000","longitude":"14.34016000"},{"id":"f4809d4c-f141-421e-868c-45ff144ba256","name":"Sankt Ruprecht","ru":"Sankt Ruprecht","country":"a6af3ee1-7869-4872-8069-9d2c61a051be","countryCode":"AT","state":"2ce1507a-21dc-428b-9829-2b041746a43e","stateCode":"2","latitude":"46.60000000","longitude":"14.31667000"},{"id":"5d1e1106-e39c-43fe-978c-8c8f9f3352a1","name":"Sankt Stefan","ru":"Sankt Stefan","country":"a6af3ee1-7869-4872-8069-9d2c61a051be","countryCode":"AT","state":"2ce1507a-21dc-428b-9829-2b041746a43e","stateCode":"2","latitude":"46.80750000","longitude":"14.85167000"},{"id":"497f45a3-5370-4c02-b04e-58faf8e54994","name":"Sankt Veit an der Glan","ru":"Sankt Veit an der Glan","country":"a6af3ee1-7869-4872-8069-9d2c61a051be","countryCode":"AT","state":"2ce1507a-21dc-428b-9829-2b041746a43e","stateCode":"2","latitude":"46.76806000","longitude":"14.36028000"},{"id":"73eb7174-60ed-4134-b7c1-9c98e09bc4f6","name":"Schiefling am See","ru":"Schiefling am See","country":"a6af3ee1-7869-4872-8069-9d2c61a051be","countryCode":"AT","state":"2ce1507a-21dc-428b-9829-2b041746a43e","stateCode":"2","latitude":"46.60444000","longitude":"14.09750000"},{"id":"6d5a3f0f-13e0-4b75-95a3-ad8aecf5e382","name":"Schleben","ru":"Schleben","country":"a6af3ee1-7869-4872-8069-9d2c61a051be","countryCode":"AT","state":"2ce1507a-21dc-428b-9829-2b041746a43e","stateCode":"2","latitude":"46.62039000","longitude":"13.93301000"},{"id":"fa37e967-fb7e-400f-98d0-8415addbd670","name":"Seebach","ru":"Seebach","country":"a6af3ee1-7869-4872-8069-9d2c61a051be","countryCode":"AT","state":"2ce1507a-21dc-428b-9829-2b041746a43e","stateCode":"2","latitude":"46.61667000","longitude":"13.86667000"},{"id":"f45f4ccc-dcd7-46af-8afc-5e207f6a9c7c","name":"Seeboden","ru":"Seeboden","country":"a6af3ee1-7869-4872-8069-9d2c61a051be","countryCode":"AT","state":"2ce1507a-21dc-428b-9829-2b041746a43e","stateCode":"2","latitude":"46.81909000","longitude":"13.51430000"},{"id":"b6e81b81-860f-4cc9-adfd-aa8bf38e6b41","name":"Seitenberg","ru":"Seitenberg","country":"a6af3ee1-7869-4872-8069-9d2c61a051be","countryCode":"AT","state":"2ce1507a-21dc-428b-9829-2b041746a43e","stateCode":"2","latitude":"46.74801000","longitude":"14.08825000"},{"id":"05650936-bdcc-4143-920d-740f94cb23ac","name":"Sittersdorf","ru":"Sittersdorf","country":"a6af3ee1-7869-4872-8069-9d2c61a051be","countryCode":"AT","state":"2ce1507a-21dc-428b-9829-2b041746a43e","stateCode":"2","latitude":"46.54444000","longitude":"14.60583000"},{"id":"099a4f61-7295-4a5a-87ef-702be7742d97","name":"Spittal an der Drau","ru":"Spittal an der Drau","country":"a6af3ee1-7869-4872-8069-9d2c61a051be","countryCode":"AT","state":"2ce1507a-21dc-428b-9829-2b041746a43e","stateCode":"2","latitude":"46.80000000","longitude":"13.50000000"},{"id":"d1d5a25f-82b2-44db-9afc-659557bbee67","name":"St. Agathen und Perau","ru":"St. Agathen und Perau","country":"a6af3ee1-7869-4872-8069-9d2c61a051be","countryCode":"AT","state":"2ce1507a-21dc-428b-9829-2b041746a43e","stateCode":"2","latitude":"46.60627000","longitude":"13.85615000"},{"id":"d3eb1420-f970-4304-bbd4-dd85783d03a9","name":"St. Georgen am Längsee","ru":"St. Georgen am Längsee","country":"a6af3ee1-7869-4872-8069-9d2c61a051be","countryCode":"AT","state":"2ce1507a-21dc-428b-9829-2b041746a43e","stateCode":"2","latitude":"46.78061000","longitude":"14.43033000"},{"id":"7280cfd4-ba7d-48e8-91ba-cf3c77c86a03","name":"St. Veiter Vorstadt","ru":"St. Veiter Vorstadt","country":"a6af3ee1-7869-4872-8069-9d2c61a051be","countryCode":"AT","state":"2ce1507a-21dc-428b-9829-2b041746a43e","stateCode":"2","latitude":"46.63170000","longitude":"14.30579000"},{"id":"71478838-c070-43cb-b545-2133225be8d0","name":"Stall","ru":"Stall","country":"a6af3ee1-7869-4872-8069-9d2c61a051be","countryCode":"AT","state":"2ce1507a-21dc-428b-9829-2b041746a43e","stateCode":"2","latitude":"46.89056000","longitude":"13.03694000"},{"id":"c89156de-b49f-487a-89d9-739768e4de3f","name":"Steindorf am Ossiacher See","ru":"Steindorf am Ossiacher See","country":"a6af3ee1-7869-4872-8069-9d2c61a051be","countryCode":"AT","state":"2ce1507a-21dc-428b-9829-2b041746a43e","stateCode":"2","latitude":"46.69833000","longitude":"14.00917000"},{"id":"b87b49ed-615e-4041-a81d-b5b2ad7c0717","name":"Steinfeld","ru":"Steinfeld","country":"a6af3ee1-7869-4872-8069-9d2c61a051be","countryCode":"AT","state":"2ce1507a-21dc-428b-9829-2b041746a43e","stateCode":"2","latitude":"46.75812000","longitude":"13.24934000"},{"id":"c330c5d2-39fa-48c4-a169-2762d1ed618f","name":"Steuerberg","ru":"Steuerberg","country":"a6af3ee1-7869-4872-8069-9d2c61a051be","countryCode":"AT","state":"2ce1507a-21dc-428b-9829-2b041746a43e","stateCode":"2","latitude":"46.78804000","longitude":"14.11290000"},{"id":"dc20eb41-f40f-41a7-af9d-c8f104e57618","name":"Stockenboi","ru":"Stockenboi","country":"a6af3ee1-7869-4872-8069-9d2c61a051be","countryCode":"AT","state":"2ce1507a-21dc-428b-9829-2b041746a43e","stateCode":"2","latitude":"46.72611000","longitude":"13.52306000"},{"id":"8670bbf2-4758-4c03-80b8-a165c1ccc05c","name":"Straßburg-Stadt","ru":"Straßburg-Stadt","country":"a6af3ee1-7869-4872-8069-9d2c61a051be","countryCode":"AT","state":"2ce1507a-21dc-428b-9829-2b041746a43e","stateCode":"2","latitude":"46.89444000","longitude":"14.32861000"},{"id":"689e7f7a-57cc-4f57-942a-aa5d6d5b2392","name":"Trebesing","ru":"Trebesing","country":"a6af3ee1-7869-4872-8069-9d2c61a051be","countryCode":"AT","state":"2ce1507a-21dc-428b-9829-2b041746a43e","stateCode":"2","latitude":"46.88639000","longitude":"13.51028000"},{"id":"77f69c5a-7634-4817-a02b-4c614a2cc4ce","name":"Treibach","ru":"Treibach","country":"a6af3ee1-7869-4872-8069-9d2c61a051be","countryCode":"AT","state":"2ce1507a-21dc-428b-9829-2b041746a43e","stateCode":"2","latitude":"46.86667000","longitude":"14.46667000"},{"id":"2f723613-38ef-40ce-85d6-a20f94ff83ff","name":"Untere Fellach","ru":"Untere Fellach","country":"a6af3ee1-7869-4872-8069-9d2c61a051be","countryCode":"AT","state":"2ce1507a-21dc-428b-9829-2b041746a43e","stateCode":"2","latitude":"46.62504000","longitude":"13.82681000"},{"id":"30247a1e-13ce-46db-b6c3-38369e3e64ca","name":"Völkendorf","ru":"Völkendorf","country":"a6af3ee1-7869-4872-8069-9d2c61a051be","countryCode":"AT","state":"2ce1507a-21dc-428b-9829-2b041746a43e","stateCode":"2","latitude":"46.60806000","longitude":"13.83153000"},{"id":"a85323dd-1053-483c-96e9-6efdd758eff5","name":"Völkermarkt","ru":"Völkermarkt","country":"a6af3ee1-7869-4872-8069-9d2c61a051be","countryCode":"AT","state":"2ce1507a-21dc-428b-9829-2b041746a43e","stateCode":"2","latitude":"46.66222000","longitude":"14.63444000"},{"id":"c54bf243-0e7a-43da-9eb6-4e99a2189e80","name":"Völkermarkter Vorstadt","ru":"Völkermarkter Vorstadt","country":"a6af3ee1-7869-4872-8069-9d2c61a051be","countryCode":"AT","state":"2ce1507a-21dc-428b-9829-2b041746a43e","stateCode":"2","latitude":"46.62418000","longitude":"14.32081000"},{"id":"4e2566e1-ad8f-4d67-b857-7d9522bcf792","name":"Velden am Wörthersee","ru":"Velden am Wörthersee","country":"a6af3ee1-7869-4872-8069-9d2c61a051be","countryCode":"AT","state":"2ce1507a-21dc-428b-9829-2b041746a43e","stateCode":"2","latitude":"46.61301000","longitude":"14.04130000"},{"id":"5ecb8a60-3c9b-41fa-b75e-94587fe8d86d","name":"Viktring","ru":"Viktring","country":"a6af3ee1-7869-4872-8069-9d2c61a051be","countryCode":"AT","state":"2ce1507a-21dc-428b-9829-2b041746a43e","stateCode":"2","latitude":"46.59194000","longitude":"14.26917000"},{"id":"b26a9c6e-53d2-4b4c-a3f6-b58cd848a275","name":"Viktringer Vorstadt","ru":"Viktringer Vorstadt","country":"a6af3ee1-7869-4872-8069-9d2c61a051be","countryCode":"AT","state":"2ce1507a-21dc-428b-9829-2b041746a43e","stateCode":"2","latitude":"46.61773000","longitude":"14.30931000"},{"id":"f842df63-30c3-48f5-9ed4-40cf0504ef68","name":"Villach","ru":"Villach","country":"a6af3ee1-7869-4872-8069-9d2c61a051be","countryCode":"AT","state":"2ce1507a-21dc-428b-9829-2b041746a43e","stateCode":"2","latitude":"46.61028000","longitude":"13.85583000"},{"id":"c5142f37-d4e0-4217-acb2-1a874b4b1daa","name":"Villach Stadt","ru":"Villach Stadt","country":"a6af3ee1-7869-4872-8069-9d2c61a051be","countryCode":"AT","state":"2ce1507a-21dc-428b-9829-2b041746a43e","stateCode":"2","latitude":"46.60900000","longitude":"13.85136000"},{"id":"37be91ae-9734-433d-bdb9-5fdc3878265b","name":"Villach-Innere Stadt","ru":"Villach-Innere Stadt","country":"a6af3ee1-7869-4872-8069-9d2c61a051be","countryCode":"AT","state":"2ce1507a-21dc-428b-9829-2b041746a43e","stateCode":"2","latitude":"46.61275000","longitude":"13.84638000"},{"id":"424357b4-f020-4656-ac0f-28ea66373a6c","name":"Villacher Vorstadt","ru":"Villacher Vorstadt","country":"a6af3ee1-7869-4872-8069-9d2c61a051be","countryCode":"AT","state":"2ce1507a-21dc-428b-9829-2b041746a43e","stateCode":"2","latitude":"46.62368000","longitude":"14.28892000"},{"id":"2ef19534-0908-49f6-ae17-b3faba3d935a","name":"Waiern","ru":"Waiern","country":"a6af3ee1-7869-4872-8069-9d2c61a051be","countryCode":"AT","state":"2ce1507a-21dc-428b-9829-2b041746a43e","stateCode":"2","latitude":"46.73028000","longitude":"14.08194000"},{"id":"04c76899-bf40-4dde-b5d4-8cb7a6b81cbc","name":"Warmbad-Judendorf","ru":"Warmbad-Judendorf","country":"a6af3ee1-7869-4872-8069-9d2c61a051be","countryCode":"AT","state":"2ce1507a-21dc-428b-9829-2b041746a43e","stateCode":"2","latitude":"46.60126000","longitude":"13.82241000"},{"id":"b9707d2d-a4de-4a8f-b1d0-f4a64a4c2faa","name":"Wölfnitz","ru":"Wölfnitz","country":"a6af3ee1-7869-4872-8069-9d2c61a051be","countryCode":"AT","state":"2ce1507a-21dc-428b-9829-2b041746a43e","stateCode":"2","latitude":"46.66639000","longitude":"14.25806000"},{"id":"82021785-3cca-49e1-8a21-0a5950b597d1","name":"Weitensfeld","ru":"Weitensfeld","country":"a6af3ee1-7869-4872-8069-9d2c61a051be","countryCode":"AT","state":"2ce1507a-21dc-428b-9829-2b041746a43e","stateCode":"2","latitude":"46.84743000","longitude":"14.19213000"},{"id":"9c16b388-14bb-4239-812e-09eead9618ad","name":"Wernberg","ru":"Wernberg","country":"a6af3ee1-7869-4872-8069-9d2c61a051be","countryCode":"AT","state":"2ce1507a-21dc-428b-9829-2b041746a43e","stateCode":"2","latitude":"46.61667000","longitude":"13.93333000"},{"id":"ea39d5c0-b9ff-41b7-b285-44293cdef433","name":"Winklern","ru":"Winklern","country":"a6af3ee1-7869-4872-8069-9d2c61a051be","countryCode":"AT","state":"2ce1507a-21dc-428b-9829-2b041746a43e","stateCode":"2","latitude":"46.87361000","longitude":"12.87472000"},{"id":"2a188642-0f25-4b1d-95e9-dc7643d19099","name":"Wolfsberg","ru":"Wolfsberg","country":"a6af3ee1-7869-4872-8069-9d2c61a051be","countryCode":"AT","state":"2ce1507a-21dc-428b-9829-2b041746a43e","stateCode":"2","latitude":"46.84056000","longitude":"14.84417000"},{"id":"1ad8adfd-42ec-4bf3-ad64-527131bd2301","name":"Wudmath","ru":"Wudmath","country":"a6af3ee1-7869-4872-8069-9d2c61a051be","countryCode":"AT","state":"2ce1507a-21dc-428b-9829-2b041746a43e","stateCode":"2","latitude":"46.59634000","longitude":"13.98067000"},{"id":"5a66a0d5-ca3f-4438-9c38-1f1b6eba75a3","name":"Absdorf","ru":"Absdorf","country":"a6af3ee1-7869-4872-8069-9d2c61a051be","countryCode":"AT","state":"a3b3dc57-15b9-4d32-976e-0c6f844ee99c","stateCode":"3","latitude":"48.40021000","longitude":"15.97874000"},{"id":"76d6b13e-afd0-4f63-b03c-6f44acfa498f","name":"Achau","ru":"Achau","country":"a6af3ee1-7869-4872-8069-9d2c61a051be","countryCode":"AT","state":"a3b3dc57-15b9-4d32-976e-0c6f844ee99c","stateCode":"3","latitude":"48.08026000","longitude":"16.38611000"},{"id":"b06a1bbe-c4a3-4907-aaea-21c21661272a","name":"Aderklaa","ru":"Aderklaa","country":"a6af3ee1-7869-4872-8069-9d2c61a051be","countryCode":"AT","state":"a3b3dc57-15b9-4d32-976e-0c6f844ee99c","stateCode":"3","latitude":"48.28333000","longitude":"16.53333000"},{"id":"d3ec9f1c-f48e-44cf-b03c-fb750943f7e8","name":"Aggsbach","ru":"Aggsbach","country":"a6af3ee1-7869-4872-8069-9d2c61a051be","countryCode":"AT","state":"a3b3dc57-15b9-4d32-976e-0c6f844ee99c","stateCode":"3","latitude":"48.29404000","longitude":"15.40382000"},{"id":"6da06619-e07b-43ac-b20c-ea7613bebdaf","name":"Alland","ru":"Alland","country":"a6af3ee1-7869-4872-8069-9d2c61a051be","countryCode":"AT","state":"a3b3dc57-15b9-4d32-976e-0c6f844ee99c","stateCode":"3","latitude":"48.05829000","longitude":"16.07901000"},{"id":"b523ec0e-736f-43d0-81f9-02af4864eaf2","name":"Allentsteig","ru":"Allentsteig","country":"a6af3ee1-7869-4872-8069-9d2c61a051be","countryCode":"AT","state":"a3b3dc57-15b9-4d32-976e-0c6f844ee99c","stateCode":"3","latitude":"48.69725000","longitude":"15.32756000"},{"id":"f6e4c748-261f-40f3-9df4-2cf17f9d8eab","name":"Allhartsberg","ru":"Allhartsberg","country":"a6af3ee1-7869-4872-8069-9d2c61a051be","countryCode":"AT","state":"a3b3dc57-15b9-4d32-976e-0c6f844ee99c","stateCode":"3","latitude":"48.02633000","longitude":"14.79009000"},{"id":"b06a6158-3b8a-474d-ab05-1a2664328df2","name":"Altenburg","ru":"Altenburg","country":"a6af3ee1-7869-4872-8069-9d2c61a051be","countryCode":"AT","state":"a3b3dc57-15b9-4d32-976e-0c6f844ee99c","stateCode":"3","latitude":"48.64765000","longitude":"15.59295000"},{"id":"526ffdbb-ec3f-45d0-9bd9-0d8390be4d47","name":"Altendorf","ru":"Altendorf","country":"a6af3ee1-7869-4872-8069-9d2c61a051be","countryCode":"AT","state":"a3b3dc57-15b9-4d32-976e-0c6f844ee99c","stateCode":"3","latitude":"47.65000000","longitude":"16.01667000"},{"id":"1eb2605c-be30-4b5c-9a34-de7cfe6c4c47","name":"Altenmarkt an der Triesting","ru":"Altenmarkt an der Triesting","country":"a6af3ee1-7869-4872-8069-9d2c61a051be","countryCode":"AT","state":"a3b3dc57-15b9-4d32-976e-0c6f844ee99c","stateCode":"3","latitude":"48.01553000","longitude":"15.99661000"},{"id":"b9442f19-f4e1-43f5-b56d-5e57d7fff69c","name":"Altlengbach","ru":"Altlengbach","country":"a6af3ee1-7869-4872-8069-9d2c61a051be","countryCode":"AT","state":"a3b3dc57-15b9-4d32-976e-0c6f844ee99c","stateCode":"3","latitude":"48.15355000","longitude":"15.92606000"},{"id":"28ffd405-02ca-4d9e-a152-f4602d62eb69","name":"Altlichtenwarth","ru":"Altlichtenwarth","country":"a6af3ee1-7869-4872-8069-9d2c61a051be","countryCode":"AT","state":"a3b3dc57-15b9-4d32-976e-0c6f844ee99c","stateCode":"3","latitude":"48.64442000","longitude":"16.79664000"},{"id":"9f3b74a0-12b3-4438-b2bf-6c45227f3503","name":"Altmelon","ru":"Altmelon","country":"a6af3ee1-7869-4872-8069-9d2c61a051be","countryCode":"AT","state":"a3b3dc57-15b9-4d32-976e-0c6f844ee99c","stateCode":"3","latitude":"48.46222000","longitude":"14.96552000"},{"id":"4843072c-7942-4a32-893f-b99a35f708f4","name":"Amstetten","ru":"Amstetten","country":"a6af3ee1-7869-4872-8069-9d2c61a051be","countryCode":"AT","state":"a3b3dc57-15b9-4d32-976e-0c6f844ee99c","stateCode":"3","latitude":"48.12290000","longitude":"14.87206000"},{"id":"529bbd24-ab10-4fc0-89cd-11216e090812","name":"Andlersdorf","ru":"Andlersdorf","country":"a6af3ee1-7869-4872-8069-9d2c61a051be","countryCode":"AT","state":"a3b3dc57-15b9-4d32-976e-0c6f844ee99c","stateCode":"3","latitude":"48.18333000","longitude":"16.66667000"},{"id":"1ca09564-86ae-46e0-b3bb-7be83b42ca97","name":"Angern an der March","ru":"Angern an der March","country":"a6af3ee1-7869-4872-8069-9d2c61a051be","countryCode":"AT","state":"a3b3dc57-15b9-4d32-976e-0c6f844ee99c","stateCode":"3","latitude":"48.37778000","longitude":"16.82806000"},{"id":"ea272ac1-8224-41af-815e-58180e9fbbc7","name":"Arbesbach","ru":"Arbesbach","country":"a6af3ee1-7869-4872-8069-9d2c61a051be","countryCode":"AT","state":"a3b3dc57-15b9-4d32-976e-0c6f844ee99c","stateCode":"3","latitude":"48.49337000","longitude":"14.95308000"},{"id":"9c1725a2-6e57-475f-beb8-2a3bbee2c44e","name":"Ardagger Stift","ru":"Ardagger Stift","country":"a6af3ee1-7869-4872-8069-9d2c61a051be","countryCode":"AT","state":"a3b3dc57-15b9-4d32-976e-0c6f844ee99c","stateCode":"3","latitude":"48.15000000","longitude":"14.83333000"},{"id":"5bcc21dd-5727-44ec-a3e5-1d3652da5794","name":"Aschbach Markt","ru":"Aschbach Markt","country":"a6af3ee1-7869-4872-8069-9d2c61a051be","countryCode":"AT","state":"a3b3dc57-15b9-4d32-976e-0c6f844ee99c","stateCode":"3","latitude":"48.07234000","longitude":"14.75395000"},{"id":"eeb4aab5-8357-4d1c-a095-a8e71ead25bc","name":"Aspang Markt","ru":"Aspang Markt","country":"a6af3ee1-7869-4872-8069-9d2c61a051be","countryCode":"AT","state":"a3b3dc57-15b9-4d32-976e-0c6f844ee99c","stateCode":"3","latitude":"47.55000000","longitude":"16.08333000"},{"id":"35aac7f4-f243-43a4-aba1-eca76d1abc24","name":"Asparn an der Zaya","ru":"Asparn an der Zaya","country":"a6af3ee1-7869-4872-8069-9d2c61a051be","countryCode":"AT","state":"a3b3dc57-15b9-4d32-976e-0c6f844ee99c","stateCode":"3","latitude":"48.58333000","longitude":"16.50000000"},{"id":"cc7ebddb-5419-49ec-896a-72c9c73be85b","name":"Asperhofen","ru":"Asperhofen","country":"a6af3ee1-7869-4872-8069-9d2c61a051be","countryCode":"AT","state":"a3b3dc57-15b9-4d32-976e-0c6f844ee99c","stateCode":"3","latitude":"48.24583000","longitude":"15.92606000"},{"id":"9ca3bb65-aa85-4110-af01-b3b2cbadf5be","name":"Atzenbrugg","ru":"Atzenbrugg","country":"a6af3ee1-7869-4872-8069-9d2c61a051be","countryCode":"AT","state":"a3b3dc57-15b9-4d32-976e-0c6f844ee99c","stateCode":"3","latitude":"48.29119000","longitude":"15.90614000"},{"id":"496473b9-b2c0-4284-866e-21e4fc9f85f7","name":"Au am Leithaberge","ru":"Au am Leithaberge","country":"a6af3ee1-7869-4872-8069-9d2c61a051be","countryCode":"AT","state":"a3b3dc57-15b9-4d32-976e-0c6f844ee99c","stateCode":"3","latitude":"47.92296000","longitude":"16.55794000"},{"id":"df8a6958-3abd-464e-b460-5ee8b361c5f0","name":"Auersthal","ru":"Auersthal","country":"a6af3ee1-7869-4872-8069-9d2c61a051be","countryCode":"AT","state":"a3b3dc57-15b9-4d32-976e-0c6f844ee99c","stateCode":"3","latitude":"48.37373000","longitude":"16.63596000"},{"id":"2705026c-eae5-48aa-9282-ee5fcec09158","name":"Bad Deutsch-Altenburg","ru":"Bad Deutsch-Altenburg","country":"a6af3ee1-7869-4872-8069-9d2c61a051be","countryCode":"AT","state":"a3b3dc57-15b9-4d32-976e-0c6f844ee99c","stateCode":"3","latitude":"48.13425000","longitude":"16.90624000"},{"id":"218ab35e-9473-4e43-b828-2bf8958ff207","name":"Bad Erlach","ru":"Bad Erlach","country":"a6af3ee1-7869-4872-8069-9d2c61a051be","countryCode":"AT","state":"a3b3dc57-15b9-4d32-976e-0c6f844ee99c","stateCode":"3","latitude":"47.72722000","longitude":"16.21444000"},{"id":"d334b2cf-14d5-486b-8e0d-18a73703c9b6","name":"Bad Fischau","ru":"Bad Fischau","country":"a6af3ee1-7869-4872-8069-9d2c61a051be","countryCode":"AT","state":"a3b3dc57-15b9-4d32-976e-0c6f844ee99c","stateCode":"3","latitude":"47.83137000","longitude":"16.16707000"},{"id":"388db7bb-04ca-47ac-8349-0e423dce50cd","name":"Bad Pirawarth","ru":"Bad Pirawarth","country":"a6af3ee1-7869-4872-8069-9d2c61a051be","countryCode":"AT","state":"a3b3dc57-15b9-4d32-976e-0c6f844ee99c","stateCode":"3","latitude":"48.45194000","longitude":"16.59833000"},{"id":"48286fed-ff20-4c31-9ec5-ad2eed7983ea","name":"Bad Schönau","ru":"Bad Schönau","country":"a6af3ee1-7869-4872-8069-9d2c61a051be","countryCode":"AT","state":"a3b3dc57-15b9-4d32-976e-0c6f844ee99c","stateCode":"3","latitude":"47.49473000","longitude":"16.23410000"},{"id":"f74a3149-ce29-4c1f-9ada-1c7f67067008","name":"Bad Traunstein","ru":"Bad Traunstein","country":"a6af3ee1-7869-4872-8069-9d2c61a051be","countryCode":"AT","state":"a3b3dc57-15b9-4d32-976e-0c6f844ee99c","stateCode":"3","latitude":"48.43850000","longitude":"15.11712000"},{"id":"5495ee2e-3367-43d6-8bcd-43945a5241ef","name":"Bad Vöslau","ru":"Bad Vöslau","country":"a6af3ee1-7869-4872-8069-9d2c61a051be","countryCode":"AT","state":"a3b3dc57-15b9-4d32-976e-0c6f844ee99c","stateCode":"3","latitude":"47.96533000","longitude":"16.21359000"},{"id":"c812afbf-211d-47eb-b322-52106eeef46b","name":"Baden","ru":"Baden","country":"a6af3ee1-7869-4872-8069-9d2c61a051be","countryCode":"AT","state":"a3b3dc57-15b9-4d32-976e-0c6f844ee99c","stateCode":"3","latitude":"48.00543000","longitude":"16.23264000"},{"id":"03bb9478-eb26-432f-b318-dee819291ddd","name":"Bärnkopf","ru":"Bärnkopf","country":"a6af3ee1-7869-4872-8069-9d2c61a051be","countryCode":"AT","state":"a3b3dc57-15b9-4d32-976e-0c6f844ee99c","stateCode":"3","latitude":"48.39046000","longitude":"15.00479000"},{"id":"25f7b0f7-bd72-4e76-84d3-76c680dc6ed7","name":"Böheimkirchen","ru":"Böheimkirchen","country":"a6af3ee1-7869-4872-8069-9d2c61a051be","countryCode":"AT","state":"a3b3dc57-15b9-4d32-976e-0c6f844ee99c","stateCode":"3","latitude":"48.19779000","longitude":"15.76178000"},{"id":"cbeabd2d-f801-4198-b5bf-80d4f096d11d","name":"Behamberg","ru":"Behamberg","country":"a6af3ee1-7869-4872-8069-9d2c61a051be","countryCode":"AT","state":"a3b3dc57-15b9-4d32-976e-0c6f844ee99c","stateCode":"3","latitude":"48.01667000","longitude":"14.48333000"},{"id":"6d11fe9b-5d90-4f7a-a148-9dc899604aa7","name":"Berg","ru":"Berg","country":"a6af3ee1-7869-4872-8069-9d2c61a051be","countryCode":"AT","state":"a3b3dc57-15b9-4d32-976e-0c6f844ee99c","stateCode":"3","latitude":"48.10147000","longitude":"17.03842000"},